Elapsed Time (s),Long accel (g),Lat accel (g),Vert accel (g),Roll--Euler (deg),Pitch--Euler (deg),Yaw--Euler (deg),Latitude,Longitude,Speed (kts),Course (deg),GPS Time,Flagged
0.054,0.8055788,0.1121692,-0.070706,-2.191451235,41.94793426,248.8226624,50.1478761,-5.057751551,3.092186322,312.0817903,2021-11-17T13:20:20.699Z,N
0.101,0.713804,-0.0815776,-0.2950444,-1.784808242,39.59076087,248.8226624,50.1478761,-5.057751551,3.092186322,312.0817903,2021-11-17T13:20:20.747Z,N
0.151,0.6526208,-0.0815776,-0.2848472,-2.369265176,37.35623035,248.8226624,50.1478761,-5.057751551,3.092186322,312.0817903,2021-11-17T13:20:20.796Z,N
0.216,0.5506488,0.1223664,-0.0605088,-2.659081199,36.274284,248.8226624,50.1478761,-5.057751551,3.092186322,312.0817903,2021-11-17T13:20:20.861Z,N
0.251,0.4996628,0.1325636,0.3065904,-3.292452533,36.93496819,248.8226624,50.1478761,-5.057751551,3.092186322,312.0817903,2021-11-17T13:20:20.896Z,N
0.301,0.4792684,0.0611832,0.4187596,-3.499347072,37.32647463,247.9611816,50.14787538,-5.057756417,2.944939354,315.6016653,2021-11-17T13:20:20.946Z,N
0.351,0.4384796,0.050986,0.3473792,-3.803477036,37.18893853,247.9611816,50.14787538,-5.057756417,2.944939354,315.6016653,2021-11-17T13:20:20.996Z,N
0.401,0.5812404,0.1121692,0.5003372,-3.778286872,37.9227194,247.9611816,50.14787538,-5.057756417,2.944939354,315.6016653,2021-11-17T13:20:21.046Z,N
0.451,0.5302544,-0.0305916,0.4799428,-2.89853589,38.55573792,247.9611816,50.14787538,-5.057756417,2.944939354,315.6016653,2021-11-17T13:20:21.096Z,N
0.501,0.6424236,-0.101972,0.23521,-2.466902089,38.43945736,247.9611816,50.14787538,-5.057756417,2.944939354,315.6016653,2021-11-17T13:20:21.146Z,N
0.551,0.6730152,-0.101972,0.1434352,-1.23489072,37.51948211,247.9611816,50.14787538,-5.057756417,2.944939354,315.6016653,2021-11-17T13:20:21.196Z,N
0.601,0.611832,-0.1733524,0.0720548,-0.282471595,36.74226465,247.9611816,50.14787538,-5.057756417,2.944939354,315.6016653,2021-11-17T13:20:21.246Z,N
0.651,0.7036068,-0.1427608,0.0210688,0.842897896,35.1702454,247.9611816,50.14787538,-5.057756417,2.944939354,315.6016653,2021-11-17T13:20:21.296Z,N
0.711,0.4384796,-0.3161132,-0.5091856,1.434731488,32.1156653,247.9611816,50.14787538,-5.057756417,2.944939354,315.6016653,2021-11-17T13:20:21.356Z,N
0.751,0.6322264,-0.0611832,0.184224,2.035433067,31.13725437,247.9611816,50.14787538,-5.057756417,2.944939354,315.6016653,2021-11-17T13:20:21.396Z,N
0.801,0.4894656,-0.1631552,0.2658016,1.581330078,32.12782304,249.2894592,50.14787327,-5.057767122,3.174982139,307.4302468,2021-11-17T13:20:21.446Z,N
0.851,0.4384796,-0.1223664,0.23521,1.478779698,31.54008868,249.2894592,50.14787327,-5.057767122,3.174982139,307.4302468,2021-11-17T13:20:21.496Z,N
0.901,0.4180852,-0.1223664,0.5003372,1.33734377,32.19555803,249.2894592,50.14787327,-5.057767122,3.174982139,307.4302468,2021-11-17T13:20:21.546Z,N
0.951,0.5506488,-0.0713804,0.388168,0.700205961,33.37890536,249.2894592,50.14787327,-5.057767122,3.174982139,307.4302468,2021-11-17T13:20:21.596Z,N
1.001,0.50986,-0.1121692,0.4187596,-0.107318639,34.28560272,249.2894592,50.14787327,-5.057767122,3.174982139,307.4302468,2021-11-17T13:20:21.646Z,N
1.051,0.6322264,-0.0407888,0.2963932,-2.589580823,35.56985244,249.2894592,50.14787327,-5.057767122,3.174982139,307.4302468,2021-11-17T13:20:21.696Z,N
1.101,0.6016348,-0.0407888,0.2759988,-4.08144012,35.34462013,249.2894592,50.14787327,-5.057767122,3.174982139,307.4302468,2021-11-17T13:20:21.746Z,N
1.151,0.5812404,0.1631552,-0.2338612,-7.916177224,32.11857155,249.2894592,50.14787327,-5.057767122,3.174982139,307.4302468,2021-11-17T13:20:21.796Z,N
1.217,0.458874,0.0305916,-0.2950444,-7.712346452,29.09632557,249.2894592,50.14787327,-5.057767122,3.174982139,307.4302468,2021-11-17T13:20:21.862Z,N
1.251,0.4384796,0.0305916,-0.52958,-7.541328762,25.42465325,249.2894592,50.14787327,-5.057767122,3.174982139,307.4302468,2021-11-17T13:20:21.896Z,N
1.301,0.305916,0.1631552,-0.0503116,-8.22262988,24.88826996,248.5796356,50.14787116,-5.057777827,2.797082646,314.9771572,2021-11-17T13:20:21.946Z,N
1.351,0.3467048,0.2243384,0.3065904,-8.557524298,24.98734868,248.5796356,50.14787116,-5.057777827,2.797082646,314.9771572,2021-11-17T13:20:21.996Z,N
1.401,0.2855216,0.1121692,0.3575764,-8.610216645,24.11379311,248.5796356,50.14787116,-5.057777827,2.797082646,314.9771572,2021-11-17T13:20:22.046Z,N
1.451,0.3467048,0.1223664,0.49014,-8.884507648,23.31757577,248.5796356,50.14787116,-5.057777827,2.797082646,314.9771572,2021-11-17T13:20:22.096Z,N
1.501,0.3874936,0.101972,0.4595484,-8.818476795,23.02016031,248.5796356,50.14787116,-5.057777827,2.797082646,314.9771572,2021-11-17T13:20:22.146Z,N
1.551,0.4486768,0.1121692,0.1230408,-8.826544956,22.09492923,248.5796356,50.14787116,-5.057777827,2.797082646,314.9771572,2021-11-17T13:20:22.196Z,N
1.601,0.4384796,-0.050986,0.1128436,-8.301889956,21.29779493,248.5796356,50.14787116,-5.057777827,2.797082646,314.9771572,2021-11-17T13:20:22.246Z,N
1.652,0.4486768,0,-0.070706,-7.81897168,20.88459411,248.5796356,50.14787116,-5.057777827,2.797082646,314.9771572,2021-11-17T13:20:22.297Z,N
1.717,0.4996628,0.0611832,-0.1012976,-8.627222109,21.38914188,248.5796356,50.14787116,-5.057777827,2.797082646,314.9771572,2021-11-17T13:20:22.362Z,N
1.752,0.4180852,0.0917748,-0.427608,-8.196531728,20.67601379,248.5796356,50.14787116,-5.057777827,2.797082646,314.9771572,2021-11-17T13:20:22.397Z,N
1.801,0.25493,-0.101972,-0.4378052,-7.32413814,18.78206041,249.4974976,50.14786923,-5.057787191,2.797082646,314.9771572,2021-11-17T13:20:22.446Z,N
1.851,0.3263104,0.1223664,0.0516604,-7.213979142,19.60096593,249.4974976,50.14786923,-5.057787191,2.797082646,314.9771572,2021-11-17T13:20:22.496Z,N
1.901,0.25493,0.0917748,0.1230408,-7.230664441,19.38160075,249.4974976,50.14786923,-5.057787191,2.797082646,314.9771572,2021-11-17T13:20:22.546Z,N
1.955,0.1835496,-0.050986,0.439154,-6.723641574,18.52795517,249.4974976,50.14786923,-5.057787191,2.797082646,314.9771572,2021-11-17T13:20:22.600Z,N
2.001,0.2855216,-0.0407888,0.4595484,-7.028368753,18.58117259,249.4974976,50.14786923,-5.057787191,2.797082646,314.9771572,2021-11-17T13:20:22.646Z,N
2.053,0.3365076,0.050986,0.3269848,-8.871680553,18.66960817,249.4974976,50.14786923,-5.057787191,2.797082646,314.9771572,2021-11-17T13:20:22.698Z,N
2.101,0.3772964,0.0407888,0.1740268,-10.40023419,18.71927902,249.4974976,50.14786923,-5.057787191,2.797082646,314.9771572,2021-11-17T13:20:22.746Z,N
2.152,0.3874936,0.203944,-0.121692,-12.32591636,18.80376163,249.4974976,50.14786923,-5.057787191,2.797082646,314.9771572,2021-11-17T13:20:22.797Z,N
2.228,0.305916,0.1937468,-0.3562276,-13.91511866,18.18342678,249.4974976,50.14786923,-5.057787191,2.797082646,314.9771572,2021-11-17T13:20:22.873Z,N
2.254,0.305916,0.152958,-0.3868192,-13.09055774,16.21774275,249.4974976,50.14786923,-5.057787191,2.797082646,314.9771572,2021-11-17T13:20:22.899Z,N
2.303,0.2447328,0.152958,-0.631552,-13.1685696,13.96876126,243.5408936,50.14786631,-5.057801843,2.61050054,319.8358336,2021-11-17T13:20:22.948Z,N
2.351,0.2141412,0.2345356,-0.01972,-12.79461333,13.81838952,243.5408936,50.14786631,-5.057801843,2.61050054,319.8358336,2021-11-17T13:20:22.996Z,N
2.401,0.1835496,0.2651272,0.0720548,-12.77622646,14.34959723,243.5408936,50.14786631,-5.057801843,2.61050054,319.8358336,2021-11-17T13:20:23.046Z,N
2.452,0.2243384,0.203944,0.4085624,-13.36947363,14.41587056,243.5408936,50.14786631,-5.057801843,2.61050054,319.8358336,2021-11-17T13:20:23.097Z,N
2.501,0.1631552,0.152958,0.4187596,-13.19442442,13.20606392,243.5408936,50.14786631,-5.057801843,2.61050054,319.8358336,2021-11-17T13:20:23.146Z,N
2.554,0.1835496,0.101972,0.4799428,-13.0694849,11.7172432,243.5408936,50.14786631,-5.057801843,2.61050054,319.8358336,2021-11-17T13:20:23.200Z,N
2.601,0.2447328,0.101972,0.4697456,-12.60831394,11.64726109,243.5408936,50.14786631,-5.057801843,2.61050054,319.8358336,2021-11-17T13:20:23.246Z,N
2.651,0.2651272,0.152958,-0.1114948,-12.43624697,9.916796817,243.5408936,50.14786631,-5.057801843,2.61050054,319.8358336,2021-11-17T13:20:23.296Z,N
2.719,0.2243384,-0.0101972,0.082252,-10.262068,10.02266304,243.5408936,50.14786631,-5.057801843,2.61050054,319.8358336,2021-11-17T13:20:23.364Z,N
2.756,0.25493,0.0203944,-0.376622,-8.183217982,10.64196056,243.5408936,50.14786631,-5.057801843,2.61050054,319.8358336,2021-11-17T13:20:23.401Z,N
2.801,0.356902,0.0305916,-0.0503116,-5.887987573,11.71415169,245.7875671,50.14786418,-5.057811806,2.643883178,319.8104576,2021-11-17T13:20:23.446Z,N
2.854,0.0407888,-0.1733524,-0.4072136,-5.609394832,10.02408628,245.7875671,50.14786418,-5.057811806,2.643883178,319.8104576,2021-11-17T13:20:23.499Z,N
2.903,0.1937468,-0.0611832,-0.0299172,-4.673681976,9.4769352,245.7875671,50.14786418,-5.057811806,2.643883178,319.8104576,2021-11-17T13:20:23.548Z,N
2.953,0.203944,0.0101972,0.1434352,-4.484657773,9.101526662,245.7875671,50.14786418,-5.057811806,2.643883178,319.8104576,2021-11-17T13:20:23.598Z,N
3.006,0.1937468,0,0.4187596,-3.950545949,8.83735373,245.7875671,50.14786418,-5.057811806,2.643883178,319.8104576,2021-11-17T13:20:23.651Z,N
3.053,0.1121692,-0.0713804,0.3983652,-4.872624894,10.04413374,245.7875671,50.14786418,-5.057811806,2.643883178,319.8104576,2021-11-17T13:20:23.698Z,N
3.101,0.3467048,0.1427608,0.3575764,-6.447176009,11.85159217,245.7875671,50.14786418,-5.057811806,2.643883178,319.8104576,2021-11-17T13:20:23.746Z,N
3.156,0.3161132,0.1325636,0.1536324,-8.717826275,14.17924378,245.7875671,50.14786418,-5.057811806,2.643883178,319.8104576,2021-11-17T13:20:23.801Z,N
3.223,0.2447328,0.152958,-0.1930724,-10.2175087,14.40070412,245.7875671,50.14786418,-5.057811806,2.643883178,319.8104576,2021-11-17T13:20:23.868Z,N
3.26,0.1937468,0.0917748,-0.223664,-11.12714987,13.3352467,245.7875671,50.14786418,-5.057811806,2.643883178,319.8104576,2021-11-17T13:20:23.905Z,N
3.304,0.3161132,0.2957188,-0.4174108,-10.95673921,11.41896287,239.4355621,50.14786251,-5.057820722,2.643883178,319.8104576,2021-11-17T13:20:23.949Z,N
3.358,0.203944,0.2855216,-0.3868192,-11.25246164,11.73060391,239.4355621,50.14786251,-5.057820722,2.643883178,319.8104576,2021-11-17T13:20:24.003Z,N
3.401,0.203944,0.356902,-0.3460304,-11.44603262,12.85742204,239.4355621,50.14786251,-5.057820722,2.643883178,319.8104576,2021-11-17T13:20:24.046Z,N
3.453,0.407888,0.4180852,0.0618576,-12.32273435,15.81737926,239.4355621,50.14786251,-5.057820722,2.643883178,319.8104576,2021-11-17T13:20:24.099Z,N
3.501,0.3263104,0.1937468,-0.121692,-13.40834339,16.48227768,239.4355621,50.14786251,-5.057820722,2.643883178,319.8104576,2021-11-17T13:20:24.146Z,N
3.557,0.356902,0.0305916,0.3269848,-13.54579582,15.92364334,239.4355621,50.14786251,-5.057820722,2.643883178,319.8104576,2021-11-17T13:20:24.202Z,N
3.601,0.4384796,-0.0611832,0.2658016,-12.78689692,14.27312387,239.4355621,50.14786251,-5.057820722,2.643883178,319.8104576,2021-11-17T13:20:24.246Z,N
3.658,0.5200572,-0.0407888,0.6227036,-11.28176742,13.28601641,239.4355621,50.14786251,-5.057820722,2.643883178,319.8104576,2021-11-17T13:20:24.303Z,N
3.719,0.2447328,-0.152958,0.3269848,-10.62489789,14.20465208,239.4355621,50.14786251,-5.057820722,2.643883178,319.8104576,2021-11-17T13:20:24.364Z,N
3.757,0.2447328,-0.0101972,0.6125064,-8.795720313,18.07421717,239.4355621,50.14786251,-5.057820722,2.643883178,319.8104576,2021-11-17T13:20:24.402Z,N
3.801,0.4894656,0.0305916,-0.1930724,-8.0916149,20.01407626,245.7333984,50.14786138,-5.057824886,2.785652864,315.1751392,2021-11-17T13:20:24.446Z,N
3.856,0.560846,0.3976908,-0.6111576,-9.521740387,22.39236689,245.7333984,50.14786138,-5.057824886,2.785652864,315.1751392,2021-11-17T13:20:24.501Z,N
3.901,0.0407888,0,-0.8558904,-8.76582799,20.26174404,245.7333984,50.14786138,-5.057824886,2.785652864,315.1751392,2021-11-17T13:20:24.546Z,N
3.956,0.152958,0.2447328,0.2963932,-8.184055534,18.4413091,245.7333984,50.14786138,-5.057824886,2.785652864,315.1751392,2021-11-17T13:20:24.601Z,N
4.001,0,0.356902,0.847042,-10.74576577,15.57123973,245.7333984,50.14786138,-5.057824886,2.785652864,315.1751392,2021-11-17T13:20:24.646Z,N
4.056,0.0611832,0.3670992,0.6634924,-14.63583851,10.58104551,245.7333984,50.14786138,-5.057824886,2.785652864,315.1751392,2021-11-17T13:20:24.701Z,N
4.102,0.0407888,0.3467048,0.4085624,-16.36368681,7.995802715,245.7333984,50.14786138,-5.057824886,2.785652864,315.1751392,2021-11-17T13:20:24.747Z,N
4.151,0.0611832,0.407888,0.5615204,-17.87341303,8.873142214,245.7333984,50.14786138,-5.057824886,2.785652864,315.1751392,2021-11-17T13:20:24.796Z,N
4.222,0.2753244,1.5601716,-1.396342,-20.4399727,8.839289235,245.7333984,50.14786138,-5.057824886,2.785652864,315.1751392,2021-11-17T13:20:24.867Z,N
4.251,-0.1733524,-0.458874,-1.3759476,-19.68956202,7.445921266,245.7333984,50.14786138,-5.057824886,2.785652864,315.1751392,2021-11-17T13:20:24.896Z,N
4.301,0.8565648,0.203944,0.337182,-21.2508186,9.773473836,258.4562073,50.14785953,-5.057834241,2.594547313,322.3351133,2021-11-17T13:20:24.946Z,N
4.351,0.2651272,-0.50986,0.23521,-21.85428801,8.903577536,258.4562073,50.14785953,-5.057834241,2.594547313,322.3351133,2021-11-17T13:20:24.996Z,N
4.401,0.4180852,-0.0713804,0.6023092,-21.90103382,8.916285957,258.4562073,50.14785953,-5.057834241,2.594547313,322.3351133,2021-11-17T13:20:25.046Z,N
4.451,-0.0101972,-0.203944,1.0917748,-22.01750221,14.75766005,258.4562073,50.14785953,-5.057834241,2.594547313,322.3351133,2021-11-17T13:20:25.096Z,N
4.501,0.3467048,-1.0401144,0.694084,-24.71643777,17.4124965,258.4562073,50.14785953,-5.057834241,2.594547313,322.3351133,2021-11-17T13:20:25.146Z,N
4.551,0.611832,0.101972,0.1026464,-15.9194479,12.27975367,258.4562073,50.14785953,-5.057834241,2.594547313,322.3351133,2021-11-17T13:20:25.196Z,N
4.601,0.3161132,1.0605088,-3.384796,-17.59843132,9.280582631,258.4562073,50.14785953,-5.057834241,2.594547313,322.3351133,2021-11-17T13:20:25.246Z,N
4.651,-0.2345356,0.7036068,-1.6206804,-13.08674393,12.50064284,258.4562073,50.14785953,-5.057834241,2.594547313,322.3351133,2021-11-17T13:20:25.297Z,N
4.71,-0.3161132,0.2753244,0.5615204,-10.21717231,14.89415284,258.4562073,50.14785953,-5.057834241,2.594547313,322.3351133,2021-11-17T13:20:25.355Z,N
4.751,-0.203944,0.560846,0.9898028,-12.14133477,13.40905885,258.4562073,50.14785953,-5.057834241,2.594547313,322.3351133,2021-11-17T13:20:25.396Z,N
4.801,-0.101972,0.3670992,0.9388168,-16.04661919,11.43670599,244.8127136,50.1478565,-5.057849923,2.300591976,318.967557,2021-11-17T13:20:25.446Z,N
4.851,-0.1223664,0.2345356,1.152958,-19.93186127,11.96902105,244.8127136,50.1478565,-5.057849923,2.300591976,318.967557,2021-11-17T13:20:25.496Z,N
4.901,-0.4282824,0.4486768,1.25493,-21.81512882,13.57587341,244.8127136,50.1478565,-5.057849923,2.300591976,318.967557,2021-11-17T13:20:25.546Z,N
4.951,-0.0101972,1.988454,-1.9979768,-24.52700418,7.738713543,244.8127136,50.1478565,-5.057849923,2.300591976,318.967557,2021-11-17T13:20:25.596Z,N
5.001,-0.4894656,-0.0713804,-3.0176968,-28.64104907,4.32899264,244.8127136,50.1478565,-5.057849923,2.300591976,318.967557,2021-11-17T13:20:25.646Z,N
5.051,1.172678,0.4486768,0.9694084,-30.12072757,6.735792053,244.8127136,50.1478565,-5.057849923,2.300591976,318.967557,2021-11-17T13:20:25.696Z,N
5.101,0.6220292,-0.5404516,-0.2542556,-34.02462461,5.98298227,244.8127136,50.1478565,-5.057849923,2.300591976,318.967557,2021-11-17T13:20:25.746Z,N
5.151,0.5404516,-0.815776,0.5513232,-36.98206234,4.578942557,244.8127136,50.1478565,-5.057849923,2.300591976,318.967557,2021-11-17T13:20:25.796Z,N
5.215,0.4282824,-0.356902,0.7654644,-39.91706632,7.181202772,244.8127136,50.1478565,-5.057849923,2.300591976,318.967557,2021-11-17T13:20:25.860Z,N
5.252,0.1427608,-0.1733524,0.8572392,-41.16198782,11.26041027,244.8127136,50.1478565,-5.057849923,2.300591976,318.967557,2021-11-17T13:20:25.897Z,N
5.301,0.1835496,0.7443956,0.49014,-43.93743174,15.56982076,256.2955322,50.14785477,-5.057857525,2.300591976,318.967557,2021-11-17T13:20:25.946Z,N
5.351,0.8769592,3.5588228,-3.5173596,-53.46022142,16.5467854,256.2955322,50.14785477,-5.057857525,2.300591976,318.967557,2021-11-17T13:20:25.996Z,N
5.401,0.4486768,2.8450188,-0.2644528,-59.6033379,20.05704669,256.2955322,50.14785477,-5.057857525,2.300591976,318.967557,2021-11-17T13:20:26.046Z,N
5.452,-0.4180852,0.4384796,0.9694084,-58.65738403,25.60121535,256.2955322,50.14785477,-5.057857525,2.300591976,318.967557,2021-11-17T13:20:26.097Z,N
5.501,-0.3670992,0.050986,1.0917748,-56.03204034,24.86331928,256.2955322,50.14785477,-5.057857525,2.300591976,318.967557,2021-11-17T13:20:26.146Z,N
5.553,-0.2957188,-0.4282824,1.5710432,-60.68548574,25.29001656,256.2955322,50.14785477,-5.057857525,2.300591976,318.967557,2021-11-17T13:20:26.198Z,N
5.601,-0.5812404,-0.2855216,1.2753244,-67.02281523,26.39872018,256.2955322,50.14785477,-5.057857525,2.300591976,318.967557,2021-11-17T13:20:26.246Z,N
5.652,-0.8565648,0.8259732,1,-70.85588321,23.49990084,256.2955322,50.14785477,-5.057857525,2.300591976,318.967557,2021-11-17T13:20:26.297Z,N
5.708,0.6016348,4.0686828,-0.3664248,-72.44591708,18.54134747,256.2955322,50.14785477,-5.057857525,2.300591976,318.967557,2021-11-17T13:20:26.353Z,N
5.756,0.611832,1.4174108,-0.7947072,-64.4258339,13.11021673,256.2955322,50.14785477,-5.057857525,2.300591976,318.967557,2021-11-17T13:20:26.401Z,N
5.801,1.1114948,0.3772964,0.6023092,-66.55438037,14.51264068,245.0633545,50.14785271,-5.057866592,2.361946948,318.2386651,2021-11-17T13:20:26.446Z,N
5.852,1.1012976,-0.3670992,0.898028,-74.64145405,16.6613106,245.0633545,50.14785271,-5.057866592,2.361946948,318.2386651,2021-11-17T13:20:26.497Z,N
5.901,0.6322264,-0.9483396,0.4085624,-74.00077548,18.44388067,245.0633545,50.14785271,-5.057866592,2.361946948,318.2386651,2021-11-17T13:20:26.546Z,N
5.954,0.2753244,-0.1631552,0.694084,-74.01629367,20.27622575,245.0633545,50.14785271,-5.057866592,2.361946948,318.2386651,2021-11-17T13:20:26.599Z,N
6.001,0.0611832,-0.1427608,1.101972,-74.93509071,23.77924703,245.0633545,50.14785271,-5.057866592,2.361946948,318.2386651,2021-11-17T13:20:26.646Z,N
6.053,1.2134668,2.1312148,0.8572392,-77.78718644,26.48086174,245.0633545,50.14785271,-5.057866592,2.361946948,318.2386651,2021-11-17T13:20:26.698Z,N
6.101,1.8151016,4.6091344,-0.6009604,-80.41986917,24.29281066,245.0633545,50.14785271,-5.057866592,2.361946948,318.2386651,2021-11-17T13:20:26.746Z,N
6.154,-0.2243384,1.7437212,0.2148156,-83.07661466,29.2917202,245.0633545,50.14785271,-5.057866592,2.361946948,318.2386651,2021-11-17T13:20:26.799Z,N
6.21,-0.356902,0.3263104,0.9694084,-89.18255101,33.99693161,245.0633545,50.14785271,-5.057866592,2.361946948,318.2386651,2021-11-17T13:20:26.855Z,N
6.251,-0.3263104,-0.2447328,1.2141412,-92.87083263,35.00545684,245.0633545,50.14785271,-5.057866592,2.361946948,318.2386651,2021-11-17T13:20:26.896Z,N
6.301,-0.2855216,-0.1733524,1.3467048,-93.66999891,32.75309612,224.6295776,50.1478507,-5.057874333,2.361946948,318.2386651,2021-11-17T13:20:26.946Z,N
6.352,-0.4384796,-0.1631552,1.2243384,-92.12153357,31.36331997,224.6295776,50.1478507,-5.057874333,2.361946948,318.2386651,2021-11-17T13:20:26.997Z,N
6.401,-0.6424236,0.3365076,1.0407888,-89.90949486,30.12853448,224.6295776,50.1478507,-5.057874333,2.361946948,318.2386651,2021-11-17T13:20:27.046Z,N
6.453,0.9381424,3.925922,0.4697456,-82.29425065,22.59412043,224.6295776,50.1478507,-5.057874333,2.361946948,318.2386651,2021-11-17T13:20:27.098Z,N
6.501,0.9993256,2.5696944,-2.6302032,-75.34417123,18.38934332,224.6295776,50.1478507,-5.057874333,2.361946948,318.2386651,2021-11-17T13:20:27.146Z,N
6.554,1.01972,0.4384796,1.5710432,-77.07401907,22.16959686,224.6295776,50.1478507,-5.057874333,2.361946948,318.2386651,2021-11-17T13:20:27.199Z,N
6.601,0.9993256,-0.4690712,1.5506488,-78.06379544,23.68123211,224.6295776,50.1478507,-5.057874333,2.361946948,318.2386651,2021-11-17T13:20:27.246Z,N
6.652,0.7240012,-0.7036068,0.082252,-70.07746705,22.23850322,224.6295776,50.1478507,-5.057874333,2.361946948,318.2386651,2021-11-17T13:20:27.297Z,N
6.715,0.2855216,-0.25493,0.7144784,-64.93098103,22.56960176,224.6295776,50.1478507,-5.057874333,2.361946948,318.2386651,2021-11-17T13:20:27.360Z,N
6.752,0.2345356,0.1835496,1.0917748,-57.07049546,25.09900691,224.6295776,50.1478507,-5.057874333,2.361946948,318.2386651,2021-11-17T13:20:27.398Z,N
6.801,0.6526208,1.1624808,0.3983652,-51.09162795,25.55113469,233.9909363,50.14784824,-5.057883847,2.886536872,309.6300503,2021-11-17T13:20:27.446Z,N
6.852,1.2134668,3.3446816,-2.772964,-49.61518695,22.97212871,233.9909363,50.14784824,-5.057883847,2.886536872,309.6300503,2021-11-17T13:20:27.497Z,N
6.901,-0.1937468,1.2134668,-0.478594,-46.37322061,24.71049038,233.9909363,50.14784824,-5.057883847,2.886536872,309.6300503,2021-11-17T13:20:27.546Z,N
6.952,-0.2345356,0.4384796,0.9694084,-48.39712518,28.44142825,233.9909363,50.14784824,-5.057883847,2.886536872,309.6300503,2021-11-17T13:20:27.597Z,N
7.002,-0.1427608,-0.0407888,1.407888,-50.89483313,28.12135364,233.9909363,50.14784824,-5.057883847,2.886536872,309.6300503,2021-11-17T13:20:27.647Z,N
7.051,-0.152958,-0.0815776,1.0407888,-52.49126347,24.87631884,233.9909363,50.14784824,-5.057883847,2.886536872,309.6300503,2021-11-17T13:20:27.696Z,N
7.101,-0.2243384,0.0407888,1.1121692,-51.66084566,23.29798337,233.9909363,50.14784824,-5.057883847,2.886536872,309.6300503,2021-11-17T13:20:27.746Z,N
7.154,-0.7036068,0.407888,1.203944,-50.06291951,21.69172438,233.9909363,50.14784824,-5.057883847,2.886536872,309.6300503,2021-11-17T13:20:27.800Z,N
7.21,0.5812404,3.4262592,-0.78451,-50.64312017,15.42970968,233.9909363,50.14784824,-5.057883847,2.886536872,309.6300503,2021-11-17T13:20:27.855Z,N
7.253,0.458874,1.1522836,-1.9775824,-47.07651153,12.04747175,233.9909363,50.14784824,-5.057883847,2.886536872,309.6300503,2021-11-17T13:20:27.898Z,N
7.301,0.8871564,0.203944,0.4085624,-42.84764775,12.50221293,252.6530457,50.14784579,-5.057893361,2.668567414,318.1723144,2021-11-17T13:20:27.946Z,N
7.352,0.6016348,-0.6220292,0.847042,-36.56782162,9.854981044,252.6530457,50.14784579,-5.057893361,2.668567414,318.1723144,2021-11-17T13:20:27.997Z,N
7.405,0.713804,-0.1937468,0.3269848,-28.89575023,4.057567328,252.6530457,50.14784579,-5.057893361,2.668567414,318.1723144,2021-11-17T13:20:28.050Z,N
7.454,0.3670992,-0.2345356,1.203944,-20.88357129,5.474309913,252.6530457,50.14784579,-5.057893361,2.668567414,318.1723144,2021-11-17T13:20:28.099Z,N
7.503,0.203944,-0.1427608,1.0203944,-14.22281526,6.237933593,252.6530457,50.14784579,-5.057893361,2.668567414,318.1723144,2021-11-17T13:20:28.148Z,N
7.551,-0.2141412,0.1631552,-0.3664248,-12.11853901,5.313079884,252.6530457,50.14784579,-5.057893361,2.668567414,318.1723144,2021-11-17T13:20:28.196Z,N
7.605,-0.3670992,1.0095228,-4.4453048,-18.26397349,3.586071263,252.6530457,50.14784579,-5.057893361,2.668567414,318.1723144,2021-11-17T13:20:28.250Z,N
7.655,-0.6424236,1.070706,-0.8049044,-19.18794098,8.017953872,252.6530457,50.14784579,-5.057893361,2.668567414,318.1723144,2021-11-17T13:20:28.300Z,N
7.721,-0.2141412,0.3670992,1.101972,-17.99432104,11.20510965,252.6530457,50.14784579,-5.057893361,2.668567414,318.1723144,2021-11-17T13:20:28.366Z,N
7.755,0.0815776,0.4486768,1.407888,-23.0222623,12.34635058,252.6530457,50.14784579,-5.057893361,2.668567414,318.1723144,2021-11-17T13:20:28.400Z,N
7.804,0,0.5302544,1.8871564,-23.84757112,13.024462,216.1519012,50.14784268,-5.057903813,3.255696414,308.9828926,2021-11-17T13:20:28.449Z,N
7.854,-0.4384796,0.407888,1.5302544,-19.81436324,10.67521931,216.1519012,50.14784268,-5.057903813,3.255696414,308.9828926,2021-11-17T13:20:28.499Z,N
7.901,-0.6220292,0.3976908,1.3161132,-18.65416341,9.365803754,216.1519012,50.14784268,-5.057903813,3.255696414,308.9828926,2021-11-17T13:20:28.546Z,N
7.955,-1.3154388,0,-4.0680084,-23.89325313,-0.809937165,216.1519012,50.14784268,-5.057903813,3.255696414,308.9828926,2021-11-17T13:20:28.600Z,N
8.001,0.1325636,-0.0203944,-0.0503116,-20.65805552,-0.304779847,216.1519012,50.14784268,-5.057903813,3.255696414,308.9828926,2021-11-17T13:20:28.646Z,N
8.051,0.6322264,0.0917748,0.847042,-24.24739673,5.053468238,216.1519012,50.14784268,-5.057903813,3.255696414,308.9828926,2021-11-17T13:20:28.696Z,N
8.101,0.2855216,-1.0605088,0.4595484,-22.16176775,1.360115728,216.1519012,50.14784268,-5.057903813,3.255696414,308.9828926,2021-11-17T13:20:28.746Z,N
8.151,0.4282824,-0.6526208,0.592112,-19.18173575,-2.625824795,216.1519012,50.14784268,-5.057903813,3.255696414,308.9828926,2021-11-17T13:20:28.796Z,N
8.223,0.2855216,-0.203944,0.8266476,-17.93777561,-2.428631472,216.1519012,50.14784268,-5.057903813,3.255696414,308.9828926,2021-11-17T13:20:28.868Z,N
8.251,0.0203944,-0.050986,0.3575764,-18.42353866,-0.38976178,216.1519012,50.14784268,-5.057903813,3.255696414,308.9828926,2021-11-17T13:20:28.896Z,N
8.301,-0.356902,0.3467048,-1.345356,-19.15322825,0.155591041,236.9287567,50.14784069,-5.05790978,3.100663252,313.0081362,2021-11-17T13:20:28.946Z,N
8.351,-0.6526208,1.78451,-2.721978,-24.49951267,-0.025890687,236.9287567,50.14784069,-5.05790978,3.100663252,313.0081362,2021-11-17T13:20:28.996Z,N
8.401,-0.6934096,0.50986,-0.1114948,-22.00618629,1.503194849,236.9287567,50.14784069,-5.05790978,3.100663252,313.0081362,2021-11-17T13:20:29.046Z,N
8.451,-0.203944,0.356902,0.7654644,-17.98186106,1.795658638,236.9287567,50.14784069,-5.05790978,3.100663252,313.0081362,2021-11-17T13:20:29.096Z,N
8.501,0,0.1427608,1.0815776,-18.65783976,2.009657214,236.9287567,50.14784069,-5.05790978,3.100663252,313.0081362,2021-11-17T13:20:29.146Z,N
8.552,-0.2651272,0.2345356,1.3670992,-19.0618574,3.496977423,236.9287567,50.14784069,-5.05790978,3.100663252,313.0081362,2021-11-17T13:20:29.197Z,N
8.601,-0.6832124,0.4894656,1.0203944,-20.50409281,4.672588292,236.9287567,50.14784069,-5.05790978,3.100663252,313.0081362,2021-11-17T13:20:29.246Z,N
8.651,-0.8259732,1.2134668,0.1128436,-26.65632588,4.176735772,236.9287567,50.14784069,-5.05790978,3.100663252,313.0081362,2021-11-17T13:20:29.296Z,N
8.722,-0.1631552,1.2338612,-3.1094716,-33.23697745,1.372720201,236.9287567,50.14784069,-5.05790978,3.100663252,313.0081362,2021-11-17T13:20:29.368Z,N
8.751,1.0401144,0.407888,0.3065904,-32.45585312,0.592987093,236.9287567,50.14784069,-5.05790978,3.100663252,313.0081362,2021-11-17T13:20:29.396Z,N
8.801,0.9585368,-0.560846,0.0618576,-34.63412337,0.155989753,241.0824432,50.14783696,-5.057921589,3.478092705,311.1763972,2021-11-17T13:20:29.446Z,N
8.851,0.7953816,-0.3670992,0.8674364,-32.15681719,0.633815189,241.0824432,50.14783696,-5.057921589,3.478092705,311.1763972,2021-11-17T13:20:29.496Z,N
8.901,0.5302544,-0.0815776,1.1427608,-30.5485433,3.239808637,241.0824432,50.14783696,-5.057921589,3.478092705,311.1763972,2021-11-17T13:20:29.546Z,N
8.951,0.2141412,0.0407888,1.0101972,-28.02148944,7.93926924,241.0824432,50.14783696,-5.057921589,3.478092705,311.1763972,2021-11-17T13:20:29.596Z,N
9.001,-0.1427608,0.356902,0.6227036,-27.34208029,11.4989589,241.0824432,50.14783696,-5.057921589,3.478092705,311.1763972,2021-11-17T13:20:29.646Z,N
9.051,0.2957188,2.192398,-3.8232756,-31.44080505,9.933801427,241.0824432,50.14783696,-5.057921589,3.478092705,311.1763972,2021-11-17T13:20:29.696Z,N
9.101,-0.4180852,1.3358332,-0.8762848,-29.0514,11.23013973,241.0824432,50.14783696,-5.057921589,3.478092705,311.1763972,2021-11-17T13:20:29.746Z,N
9.151,-0.2651272,0.5302544,0.7144784,-26.01017804,11.57685806,241.0824432,50.14783696,-5.057921589,3.478092705,311.1763972,2021-11-17T13:20:29.796Z,N
9.225,-0.0611832,0.0917748,0.8674364,-29.0783246,9.621000964,241.0824432,50.14783696,-5.057921589,3.478092705,311.1763972,2021-11-17T13:20:29.870Z,N
9.255,0.1325636,0.0815776,1.1325636,-35.63576718,7.563150362,241.0824432,50.14783696,-5.057921589,3.478092705,311.1763972,2021-11-17T13:20:29.900Z,N
9.301,-0.1835496,0.0203944,1.1631552,-36.63624304,7.049604238,219.1381683,50.14783319,-5.057932551,3.478092705,311.1763972,2021-11-17T13:20:29.946Z,N
9.361,-0.6730152,1.01972,0.4493512,-38.48938946,7.126254755,219.1381683,50.14783319,-5.057932551,3.478092705,311.1763972,2021-11-17T13:20:30.006Z,N
9.401,-0.305916,1.4683968,-0.5193828,-41.91860201,7.454322398,219.1381683,50.14783319,-5.057932551,3.478092705,311.1763972,2021-11-17T13:20:30.046Z,N
9.451,0.5404516,1.8660876,-2.1815264,-43.91891852,3.93131171,219.1381683,50.14783319,-5.057932551,3.478092705,311.1763972,2021-11-17T13:20:30.096Z,N
9.501,0.9075508,0.7443956,0.4595484,-41.22967499,5.559928895,219.1381683,50.14783319,-5.057932551,3.478092705,311.1763972,2021-11-17T13:20:30.146Z,N
9.551,0.611832,-0.356902,0.4289568,-40.90137853,6.620019494,219.1381683,50.14783319,-5.057932551,3.478092705,311.1763972,2021-11-17T13:20:30.196Z,N
9.601,0.5200572,-0.3670992,0.7756616,-40.01643874,8.018311603,219.1381683,50.14783319,-5.057932551,3.478092705,311.1763972,2021-11-17T13:20:30.246Z,N
9.651,0.305916,-0.1223664,1.25493,-42.08013257,13.73369432,219.1381683,50.14783319,-5.057932551,3.478092705,311.1763972,2021-11-17T13:20:30.297Z,N
9.715,0.0815776,-0.1121692,1.203944,-43.25490802,17.67718853,219.1381683,50.14783319,-5.057932551,3.478092705,311.1763972,2021-11-17T13:20:30.360Z,N
9.752,0.458874,0.8871564,0.1230408,-48.60085606,22.88905483,219.1381683,50.14783319,-5.057932551,3.478092705,311.1763972,2021-11-17T13:20:30.397Z,N
9.801,1.6213548,3.8851332,-2.5792172,-53.21984657,21.59169797,229.0662231,50.14782889,-5.057944931,3.71842813,310.5368308,2021-11-17T13:20:30.446Z,N
9.852,-0.3365076,0.5812404,0.337182,-48.68539331,24.48080308,229.0662231,50.14782889,-5.057944931,3.71842813,310.5368308,2021-11-17T13:20:30.497Z,N
9.901,-0.1631552,0.3365076,0.8368448,-45.97003455,25.68512934,229.0662231,50.14782889,-5.057944931,3.71842813,310.5368308,2021-11-17T13:20:30.546Z,N
9.953,-0.0611832,0.0917748,1.0203944,-46.97999071,21.00322083,229.0662231,50.14782889,-5.057944931,3.71842813,310.5368308,2021-11-17T13:20:30.598Z,N
10.001,0.0815776,0.3670992,1.0203944,-47.73824415,18.56278914,229.0662231,50.14782889,-5.057944931,3.71842813,310.5368308,2021-11-17T13:20:30.646Z,N
10.053,-0.4486768,0.1937468,1.1937468,-45.80148598,16.93305991,229.0662231,50.14782889,-5.057944931,3.71842813,310.5368308,2021-11-17T13:20:30.698Z,N
10.101,-0.50986,1.1114948,0.7246756,-44.87334524,15.76838631,229.0662231,50.14782889,-5.057944931,3.71842813,310.5368308,2021-11-17T13:20:30.746Z,N
10.152,0.2345356,2.1618064,-2.0795544,-48.22042135,12.60093819,229.0662231,50.14782889,-5.057944931,3.71842813,310.5368308,2021-11-17T13:20:30.797Z,N
10.209,0.560846,1.2338612,-0.7029324,-48.74521893,10.89785018,229.0662231,50.14782889,-5.057944931,3.71842813,310.5368308,2021-11-17T13:20:30.854Z,N
10.253,0.8463676,0.3772964,1.0407888,-50.09848089,15.62092594,229.0662231,50.14782889,-5.057944931,3.71842813,310.5368308,2021-11-17T13:20:30.898Z,N
10.301,0.7749872,-0.3874936,1,-51.83721822,16.8184852,234.9337006,50.14782291,-5.057961694,3.662804613,315.9376767,2021-11-17T13:20:30.946Z,N
10.354,0.4894656,-0.4384796,0.8878308,-50.54997346,17.19924946,234.9337006,50.14782291,-5.057961694,3.662804613,315.9376767,2021-11-17T13:20:30.999Z,N
10.401,0.3263104,-0.1223664,1.152958,-51.4755358,18.70027914,234.9337006,50.14782291,-5.057961694,3.662804613,315.9376767,2021-11-17T13:20:31.046Z,N
10.454,0.101972,0.0917748,1.0815776,-53.90792665,23.18116835,234.9337006,50.14782291,-5.057961694,3.662804613,315.9376767,2021-11-17T13:20:31.099Z,N
10.501,0.1427608,0.5812404,0.7756616,-54.84536669,26.1225449,234.9337006,50.14782291,-5.057961694,3.662804613,315.9376767,2021-11-17T13:20:31.146Z,N
10.552,1.8252988,4.1400632,-2.5792172,-56.6234869,21.93200361,234.9337006,50.14782291,-5.057961694,3.662804613,315.9376767,2021-11-17T13:20:31.198Z,N
10.601,0.1427608,1.7029324,-0.0299172,-55.86272678,24.42876216,234.9337006,50.14782291,-5.057961694,3.662804613,315.9376767,2021-11-17T13:20:31.246Z,N
10.652,-0.203944,0.2447328,0.6329008,-51.92017087,26.29126935,234.9337006,50.14782291,-5.057961694,3.662804613,315.9376767,2021-11-17T13:20:31.297Z,N
10.709,-0.1835496,0.1733524,1.1733524,-52.29743295,25.44763171,234.9337006,50.14782291,-5.057961694,3.662804613,315.9376767,2021-11-17T13:20:31.354Z,N
10.751,-0.4690712,0.101972,1.5200572,-53.68100045,24.27310556,234.9337006,50.14782291,-5.057961694,3.662804613,315.9376767,2021-11-17T13:20:31.396Z,N
10.801,-0.76479,0.101972,1.2855216,-54.7434432,23.63650803,221.6759644,50.14781809,-5.057975026,4.268457277,306.0039292,2021-11-17T13:20:31.446Z,N
10.851,-0.7545928,1.1114948,0.74507,-57.87295047,21.77035011,221.6759644,50.14781809,-5.057975026,4.268457277,306.0039292,2021-11-17T13:20:31.496Z,N
10.902,0.3976908,2.2229896,-1.2535812,-59.62007186,18.01156385,221.6759644,50.14781809,-5.057975026,4.268457277,306.0039292,2021-11-17T13:20:31.547Z,N
10.951,1.0809032,0.8259732,-0.5193828,-57.69459374,13.02101531,221.6759644,50.14781809,-5.057975026,4.268457277,306.0039292,2021-11-17T13:20:31.596Z,N
11.001,1.2134668,0.4486768,0.4187596,-58.56061391,14.55287049,221.6759644,50.14781809,-5.057975026,4.268457277,306.0039292,2021-11-17T13:20:31.646Z,N
11.051,0.8871564,-0.4180852,0.4493512,-57.55638487,15.09642206,221.6759644,50.14781809,-5.057975026,4.268457277,306.0039292,2021-11-17T13:20:31.696Z,N
11.101,0.6220292,-0.4282824,0.8572392,-54.00464213,15.36110384,221.6759644,50.14781809,-5.057975026,4.268457277,306.0039292,2021-11-17T13:20:31.746Z,N
11.152,0.25493,-0.0407888,1.2753244,-53.01991328,18.86015508,221.6759644,50.14781809,-5.057975026,4.268457277,306.0039292,2021-11-17T13:20:31.797Z,N
11.209,0.1427608,0.1325636,1.1937468,-52.50279625,21.69952275,221.6759644,50.14781809,-5.057975026,4.268457277,306.0039292,2021-11-17T13:20:31.854Z,N
11.251,0.5812404,0.9075508,0.388168,-56.0539106,26.27084367,221.6759644,50.14781809,-5.057975026,4.268457277,306.0039292,2021-11-17T13:20:31.896Z,N
11.304,2.1006232,4.027894,-2.9055276,-60.74753118,24.65257892,225.8694458,50.14781327,-5.057988358,4.268457277,306.0039292,2021-11-17T13:20:31.949Z,N
11.354,-0.0407888,1.8660876,-0.1624808,-66.69512325,28.20310929,225.8694458,50.14781327,-5.057988358,4.268457277,306.0039292,2021-11-17T13:20:31.999Z,N
11.401,-0.6526208,0.1223664,0.4697456,-68.1216424,30.54274788,225.8694458,50.14781327,-5.057988358,4.268457277,306.0039292,2021-11-17T13:20:32.046Z,N
11.453,-0.5812404,0.0917748,1.9585368,-71.67664655,29.2562442,225.8694458,50.14781327,-5.057988358,4.268457277,306.0039292,2021-11-17T13:20:32.098Z,N
11.504,-0.8259732,-0.2243384,1.713804,-71.61518167,27.48041723,225.8694458,50.14781327,-5.057988358,4.268457277,306.0039292,2021-11-17T13:20:32.149Z,N
11.553,-0.7749872,0.2447328,1.4996628,-72.01326559,23.88049434,225.8694458,50.14781327,-5.057988358,4.268457277,306.0039292,2021-11-17T13:20:32.198Z,N
11.601,-0.4996628,1.6009604,0.6634924,-73.60510263,20.69876003,225.8694458,50.14781327,-5.057988358,4.268457277,306.0039292,2021-11-17T13:20:32.246Z,N
11.652,1.5907632,4.3236128,-2.9361192,-75.0868097,11.62654085,225.8694458,50.14781327,-5.057988358,4.268457277,306.0039292,2021-11-17T13:20:32.297Z,N
11.72,0.6934096,0.5302544,0.2658016,-72.08531042,9.961814594,225.8694458,50.14781327,-5.057988358,4.268457277,306.0039292,2021-11-17T13:20:32.365Z,N
11.753,1.0605088,0.5506488,0.9592112,-68.22289995,7.906132577,225.8694458,50.14781327,-5.057988358,4.268457277,306.0039292,2021-11-17T13:20:32.398Z,N
11.805,0.6934096,-0.1937468,0.796056,-63.73060261,6.610807277,232.1864014,50.14780782,-5.058003625,4.866074142,295.914215,2021-11-17T13:20:32.450Z,N
11.854,0.4996628,-0.152958,1.2855216,-61.19764064,7.435921869,232.1864014,50.14780782,-5.058003625,4.866074142,295.914215,2021-11-17T13:20:32.499Z,N
11.901,0.2753244,-0.1835496,1.356902,-60.76567216,8.740359922,232.1864014,50.14780782,-5.058003625,4.866074142,295.914215,2021-11-17T13:20:32.546Z,N
11.951,0.2447328,0.3365076,0.796056,-61.54118549,10.48406366,232.1864014,50.14780782,-5.058003625,4.866074142,295.914215,2021-11-17T13:20:32.596Z,N
12.001,1.2644528,3.5384284,-0.9578624,-66.66233151,10.14231429,232.1864014,50.14780782,-5.058003625,4.866074142,295.914215,2021-11-17T13:20:32.646Z,N
12.056,0.0815776,2.4167364,-1.8654132,-66.4797469,11.03243222,232.1864014,50.14780782,-5.058003625,4.866074142,295.914215,2021-11-17T13:20:32.701Z,N
12.101,-0.3161132,0.917748,0.6634924,-65.89116218,13.90352953,232.1864014,50.14780782,-5.058003625,4.866074142,295.914215,2021-11-17T13:20:32.746Z,N
12.156,-0.2447328,0.1223664,0.8266476,-63.54760819,14.46837251,232.1864014,50.14780782,-5.058003625,4.866074142,295.914215,2021-11-17T13:20:32.801Z,N
12.209,-0.0917748,0.101972,1.8871564,-62.91061109,13.70702756,232.1864014,50.14780782,-5.058003625,4.866074142,295.914215,2021-11-17T13:20:32.854Z,N
12.259,-0.5302544,-0.0203944,1.3365076,-62.77522991,13.04935121,232.1864014,50.14780782,-5.058003625,4.866074142,295.914215,2021-11-17T13:20:32.904Z,N
12.301,-0.9381424,0.713804,1.2855216,-64.4930293,13.01284641,187.6039124,50.1478049,-5.05801175,4.634356325,300.9867495,2021-11-17T13:20:32.946Z,N
12.351,-0.6526208,2.3147644,-0.0503116,-66.76164246,10.52788445,187.6039124,50.1478049,-5.05801175,4.634356325,300.9867495,2021-11-17T13:20:32.996Z,N
12.402,0.5404516,2.3657504,-2.1917236,-64.07384694,6.797465246,187.6039124,50.1478049,-5.05801175,4.634356325,300.9867495,2021-11-17T13:20:33.047Z,N
12.452,0.7545928,0.6424236,0.8878308,-58.13777056,7.893061303,187.6039124,50.1478049,-5.05801175,4.634356325,300.9867495,2021-11-17T13:20:33.097Z,N
12.501,0.815776,-0.0101972,0.9286196,-58.27328151,7.271960618,187.6039124,50.1478049,-5.05801175,4.634356325,300.9867495,2021-11-17T13:20:33.146Z,N
12.551,0.8361704,-0.2651272,0.8776336,-55.85059978,5.521450597,187.6039124,50.1478049,-5.05801175,4.634356325,300.9867495,2021-11-17T13:20:33.196Z,N
12.601,0.76479,0.3365076,1.2345356,-54.19001005,5.798498862,187.6039124,50.1478049,-5.05801175,4.634356325,300.9867495,2021-11-17T13:20:33.246Z,N
12.651,0.3365076,0.1121692,1.1121692,-54.15858435,10.27112398,187.6039124,50.1478049,-5.05801175,4.634356325,300.9867495,2021-11-17T13:20:33.296Z,N
12.708,0.1937468,0.7443956,0.7348728,-57.30224719,14.20235628,187.6039124,50.1478049,-5.05801175,4.634356325,300.9867495,2021-11-17T13:20:33.353Z,N
12.751,0.9891284,2.3861448,-1.498314,-66.66524117,17.01573594,187.6039124,50.1478049,-5.05801175,4.634356325,300.9867495,2021-11-17T13:20:33.396Z,N
12.801,0,2.3147644,-1.5085112,-67.7262769,16.04000586,194.2174988,50.14779904,-5.058028768,5.025337979,301.7268548,2021-11-17T13:20:33.446Z,N
12.851,-0.4384796,0.9789312,1,-64.58925301,19.33927407,194.2174988,50.14779904,-5.058028768,5.025337979,301.7268548,2021-11-17T13:20:33.496Z,N
12.902,-0.1835496,0.4894656,1.3670992,-63.16290461,19.01896381,194.2174988,50.14779904,-5.058028768,5.025337979,301.7268548,2021-11-17T13:20:33.547Z,N
12.951,-0.3467048,0.0611832,1.7341984,-61.13417452,18.58917928,194.2174988,50.14779904,-5.058028768,5.025337979,301.7268548,2021-11-17T13:20:33.596Z,N
13.001,-0.7749872,0.0611832,1.5404516,-60.75786526,18.48052634,194.2174988,50.14779904,-5.058028768,5.025337979,301.7268548,2021-11-17T13:20:33.646Z,N
13.051,-0.917748,0.8973536,0.9082252,-63.47216192,16.77084975,194.2174988,50.14779904,-5.058028768,5.025337979,301.7268548,2021-11-17T13:20:33.696Z,N
13.101,0.1835496,2.243384,-1.1006232,-65.72614481,14.24801951,194.2174988,50.14779904,-5.058028768,5.025337979,301.7268548,2021-11-17T13:20:33.746Z,N
13.154,0.9789312,1.0299172,-0.4378052,-62.20315376,10.53408455,194.2174988,50.14779904,-5.058028768,5.025337979,301.7268548,2021-11-17T13:20:33.799Z,N
13.217,1.1930724,0.5710432,0.8164504,-60.82947296,12.07954461,194.2174988,50.14779904,-5.058028768,5.025337979,301.7268548,2021-11-17T13:20:33.862Z,N
13.251,0.7545928,-0.203944,0.6532952,-57.59376649,12.34669294,194.2174988,50.14779904,-5.058028768,5.025337979,301.7268548,2021-11-17T13:20:33.896Z,N
13.301,0.5200572,-0.1121692,0.949014,-55.66218218,13.13650613,225.3964539,50.14779372,-5.058044781,5.025337979,301.7268548,2021-11-17T13:20:33.946Z,N
13.351,0.25493,-0.2345356,1.4384796,-56.20403474,18.39566466,225.3964539,50.14779372,-5.058044781,5.025337979,301.7268548,2021-11-17T13:20:33.996Z,N
13.401,0.2855216,0.2345356,1.1835496,-57.21321909,21.7659139,225.3964539,50.14779372,-5.058044781,5.025337979,301.7268548,2021-11-17T13:20:34.046Z,N
13.454,0.76479,0.5200572,0.3983652,-56.25831767,27.81687917,225.3964539,50.14779372,-5.058044781,5.025337979,301.7268548,2021-11-17T13:20:34.099Z,N
13.501,1.6621436,4.3745988,-2.721978,-58.63505614,26.39101743,225.3964539,50.14779372,-5.058044781,5.025337979,301.7268548,2021-11-17T13:20:34.146Z,N
13.551,-0.050986,1.2644528,-0.2848472,-55.0417722,29.11139638,225.3964539,50.14779372,-5.058044781,5.025337979,301.7268548,2021-11-17T13:20:34.196Z,N
13.601,0.0101972,0.5914376,1.203944,-54.84500811,30.45949812,225.3964539,50.14779372,-5.058044781,5.025337979,301.7268548,2021-11-17T13:20:34.246Z,N
13.655,-0.0815776,0.0101972,1.1427608,-53.81125557,27.09523384,225.3964539,50.14779372,-5.058044781,5.025337979,301.7268548,2021-11-17T13:20:34.300Z,N
13.72,-0.2243384,0.0917748,1.2141412,-53.1089926,25.33852969,225.3964539,50.14779372,-5.058044781,5.025337979,301.7268548,2021-11-17T13:20:34.365Z,N
13.751,-0.6934096,0.152958,1.4894656,-53.040981,25.04135158,225.3964539,50.14779372,-5.058044781,5.025337979,301.7268548,2021-11-17T13:20:34.396Z,N
13.803,-0.8259732,1.01972,1.152958,-57.84323915,24.70193216,212.401062,50.14778503,-5.058070643,5.692197846,296.4767461,2021-11-17T13:20:34.448Z,N
13.852,1.0809032,3.7015836,-2.5486256,-63.28659251,20.51099301,212.401062,50.14778503,-5.058070643,5.692197846,296.4767461,2021-11-17T13:20:34.497Z,N
13.901,1.1624808,0.9585368,-0.6723408,-59.07554187,17.99326748,212.401062,50.14778503,-5.058070643,5.692197846,296.4767461,2021-11-17T13:20:34.546Z,N
13.952,1.2032696,0.0917748,1.2447328,-57.59365721,18.764208,212.401062,50.14778503,-5.058070643,5.692197846,296.4767461,2021-11-17T13:20:34.597Z,N
14.001,0.6934096,-0.2855216,0.74507,-53.87375522,17.12108819,212.401062,50.14778503,-5.058070643,5.692197846,296.4767461,2021-11-17T13:20:34.646Z,N
14.051,0.458874,-0.1937468,1.3365076,-51.31529615,17.19267199,212.401062,50.14778503,-5.058070643,5.692197846,296.4767461,2021-11-17T13:20:34.696Z,N
14.101,0.1121692,-0.4792684,1.1937468,-51.53028318,20.67994456,212.401062,50.14778503,-5.058070643,5.692197846,296.4767461,2021-11-17T13:20:34.746Z,N
14.155,0.0815776,0.1631552,0.592112,-54.12626389,25.15335643,212.401062,50.14778503,-5.058070643,5.692197846,296.4767461,2021-11-17T13:20:34.800Z,N
14.22,0.8973536,0.611832,0.3473792,-58.55856485,28.5199703,212.401062,50.14778503,-5.058070643,5.692197846,296.4767461,2021-11-17T13:20:34.865Z,N
14.252,0.8463676,3.1509348,-1.4575252,-64.83533789,24.78786447,212.401062,50.14778503,-5.058070643,5.692197846,296.4767461,2021-11-17T13:20:34.897Z,N
14.301,-0.203944,1.3562276,0.1230408,-63.77952043,26.24201686,211.8977509,50.14778172,-5.058080168,5.421140806,301.4414153,2021-11-17T13:20:34.946Z,N
14.356,-0.0713804,0.5914376,1.4486768,-65.51833631,26.51999702,211.8977509,50.14778172,-5.058080168,5.421140806,301.4414153,2021-11-17T13:20:35.001Z,N
14.401,-0.0917748,0.1631552,1.6016348,-62.75923361,24.87892114,211.8977509,50.14778172,-5.058080168,5.421140806,301.4414153,2021-11-17T13:20:35.046Z,N
14.453,-0.4792684,-0.0815776,1.2141412,-60.4524192,23.47802374,211.8977509,50.14778172,-5.058080168,5.421140806,301.4414153,2021-11-17T13:20:35.098Z,N
14.501,-0.6322264,0.2855216,1.2855216,-60.57039022,23.217785,211.8977509,50.14778172,-5.058080168,5.421140806,301.4414153,2021-11-17T13:20:35.146Z,N
14.552,0.0611832,1.9170736,0.4187596,-60.2702239,20.78219079,211.8977509,50.14778172,-5.058080168,5.421140806,301.4414153,2021-11-17T13:20:35.197Z,N
14.601,0.611832,3.110146,-2.6404004,-58.44350349,16.11337575,211.8977509,50.14778172,-5.058080168,5.421140806,301.4414153,2021-11-17T13:20:35.246Z,N
14.66,1.1420864,0.4690712,0.694084,-57.66700661,16.30670937,211.8977509,50.14778172,-5.058080168,5.421140806,301.4414153,2021-11-17T13:20:35.305Z,N
14.712,1.121692,0.101972,1.0305916,-61.45075379,18.11996066,211.8977509,50.14778172,-5.058080168,5.421140806,301.4414153,2021-11-17T13:20:35.357Z,N
14.752,0.5710432,-0.3670992,0.74507,-60.81895447,17.92314364,211.8977509,50.14778172,-5.058080168,5.421140806,301.4414153,2021-11-17T13:20:35.397Z,N
14.801,0.2651272,-0.2651272,1.0713804,-57.82654617,18.90230418,236.478653,50.14777217,-5.058107917,6.046133865,295.9897787,2021-11-17T13:20:35.446Z,N
14.853,0.050986,-0.2345356,1.1121692,-57.48640958,22.75915658,236.478653,50.14777217,-5.058107917,6.046133865,295.9897787,2021-11-17T13:20:35.498Z,N
14.902,0.1121692,0.2855216,0.694084,-58.25393159,25.44100302,236.478653,50.14777217,-5.058107917,6.046133865,295.9897787,2021-11-17T13:20:35.547Z,N
14.952,2.1210176,4.9252476,-1.0598344,-65.08293224,25.27905069,236.478653,50.14777217,-5.058107917,6.046133865,295.9897787,2021-11-17T13:20:35.597Z,N
15.003,0.7851844,2.9979768,-0.6417492,-68.53572261,25.39077722,236.478653,50.14777217,-5.058107917,6.046133865,295.9897787,2021-11-17T13:20:35.648Z,N
15.051,-0.2855216,0.5302544,0.796056,-74.50323835,29.47534642,236.478653,50.14777217,-5.058107917,6.046133865,295.9897787,2021-11-17T13:20:35.696Z,N
15.101,-0.152958,0.1733524,1.0305916,-76.51476319,28.7426413,236.478653,50.14777217,-5.058107917,6.046133865,295.9897787,2021-11-17T13:20:35.746Z,N
15.152,-0.152958,-0.1631552,1.4282824,-77.94149407,26.78448585,236.478653,50.14777217,-5.058107917,6.046133865,295.9897787,2021-11-17T13:20:35.797Z,N
15.207,-0.4894656,-0.1427608,1.152958,-77.97359596,26.06898938,236.478653,50.14777217,-5.058107917,6.046133865,295.9897787,2021-11-17T13:20:35.852Z,N
15.256,-0.7749872,0.5914376,0.8878308,-78.61092091,24.77227457,236.478653,50.14777217,-5.058107917,6.046133865,295.9897787,2021-11-17T13:20:35.901Z,N
15.303,0.0611832,2.29437,0.031266,-77.55817703,21.68581627,210.5792084,50.14776547,-5.058127066,5.617682034,305.596203,2021-11-17T13:20:35.948Z,N
15.351,1.2134668,3.7627668,-1.2229896,-77.25256022,13.77678342,210.5792084,50.14776547,-5.058127066,5.617682034,305.596203,2021-11-17T13:20:35.996Z,N
15.406,0.8973536,0.458874,1.0407888,-81.31743115,12.348923,210.5792084,50.14776547,-5.058127066,5.617682034,305.596203,2021-11-17T13:20:36.051Z,N
15.452,1.0605088,0.6424236,0.694084,-87.05780895,7.969886416,210.5792084,50.14776547,-5.058127066,5.617682034,305.596203,2021-11-17T13:20:36.097Z,N
15.506,0.7851844,-0.203944,1.0101972,-87.61253642,8.620792339,210.5792084,50.14776547,-5.058127066,5.617682034,305.596203,2021-11-17T13:20:36.151Z,N
15.553,0.6526208,-0.1325636,1.458874,-87.52352539,11.3658368,210.5792084,50.14776547,-5.058127066,5.617682034,305.596203,2021-11-17T13:20:36.198Z,N
15.603,0.407888,-0.1223664,0.8776336,-85.62614667,14.40773239,210.5792084,50.14776547,-5.058127066,5.617682034,305.596203,2021-11-17T13:20:36.248Z,N
15.653,0.356902,1.1828752,1.0101972,-86.94974853,19.26619616,210.5792084,50.14776547,-5.058127066,5.617682034,305.596203,2021-11-17T13:20:36.298Z,N
15.72,1.5703688,4.4969652,0.4289568,-88.0749129,20.04420252,210.5792084,50.14776547,-5.058127066,5.617682034,305.596203,2021-11-17T13:20:36.365Z,N
15.758,-0.3670992,1.580566,-0.1522836,-89.04441726,26.06601142,210.5792084,50.14776547,-5.058127066,5.617682034,305.596203,2021-11-17T13:20:36.403Z,N
15.801,-0.4486768,0.4996628,0.9388168,-91.01201033,28.36397732,216.5478821,50.14775827,-5.058147071,6.351796716,295.3204671,2021-11-17T13:20:36.446Z,N
15.855,-0.305916,-0.1733524,1.1631552,-91.71946083,27.85652842,216.5478821,50.14775827,-5.058147071,6.351796716,295.3204671,2021-11-17T13:20:36.500Z,N
15.901,-0.2957188,-0.0611832,1.2345356,-91.55440931,26.09618549,216.5478821,50.14775827,-5.058147071,6.351796716,295.3204671,2021-11-17T13:20:36.546Z,N
15.956,-0.8361704,-0.2957188,1,-90.70520506,25.50456476,216.5478821,50.14775827,-5.058147071,6.351796716,295.3204671,2021-11-17T13:20:36.601Z,N
16.001,-0.815776,1.0809032,1.050986,-91.89600755,23.65027428,216.5478821,50.14775827,-5.058147071,6.351796716,295.3204671,2021-11-17T13:20:36.646Z,N
16.056,0.6832124,3.620006,-0.3154388,-87.78545631,17.52697218,216.5478821,50.14775827,-5.058147071,6.351796716,295.3204671,2021-11-17T13:20:36.701Z,N
16.101,1.2440584,2.1210176,-0.1012976,-81.64456306,14.89213623,216.5478821,50.14775827,-5.058147071,6.351796716,295.3204671,2021-11-17T13:20:36.746Z,N
16.156,1.1828752,0.4894656,1.2855216,-78.87256496,15.06175373,216.5478821,50.14775827,-5.058147071,6.351796716,295.3204671,2021-11-17T13:20:36.801Z,N
16.212,0.9381424,0.1631552,0.7654644,-76.48357655,13.49535743,216.5478821,50.14775827,-5.058147071,6.351796716,295.3204671,2021-11-17T13:20:36.857Z,N
16.251,0.6526208,-0.0815776,1.0713804,-74.33543426,13.92396717,216.5478821,50.14775827,-5.058147071,6.351796716,295.3204671,2021-11-17T13:20:36.896Z,N
16.301,0.3365076,-0.152958,1.356902,-71.81435682,16.93290794,228.6361542,50.14775107,-5.058167077,5.827206793,305.2070281,2021-11-17T13:20:36.946Z,N
16.351,0.3263104,0.1121692,0.847042,-70.7528703,20.20508762,228.6361542,50.14775107,-5.058167077,5.827206793,305.2070281,2021-11-17T13:20:36.996Z,N
16.401,0.2141412,0.2855216,0.6227036,-70.03276346,24.19463694,228.6361542,50.14775107,-5.058167077,5.827206793,305.2070281,2021-11-17T13:20:37.046Z,N
16.452,1.2542556,4.537754,-1.8246244,-68.01994088,21.71121433,228.6361542,50.14775107,-5.058167077,5.827206793,305.2070281,2021-11-17T13:20:37.097Z,N
16.501,-0.3365076,1.5193828,-0.682538,-63.2935593,23.22908384,228.6361542,50.14775107,-5.058167077,5.827206793,305.2070281,2021-11-17T13:20:37.146Z,N
16.551,-0.407888,0.6526208,0.847042,-60.42272154,23.52134422,228.6361542,50.14775107,-5.058167077,5.827206793,305.2070281,2021-11-17T13:20:37.196Z,N
16.601,-0.2243384,0.4486768,1.2855216,-58.63616946,21.32627511,228.6361542,50.14775107,-5.058167077,5.827206793,305.2070281,2021-11-17T13:20:37.246Z,N
16.651,-0.2855216,0.0815776,1.6832124,-54.69769459,19.05531237,228.6361542,50.14775107,-5.058167077,5.827206793,305.2070281,2021-11-17T13:20:37.296Z,N
16.718,-0.7240012,0.2447328,1.611832,-50.75537091,17.21001725,228.6361542,50.14775107,-5.058167077,5.827206793,305.2070281,2021-11-17T13:20:37.363Z,N
16.762,-0.9279452,0.9891284,0.8062532,-45.66446555,10.05011784,228.6361542,50.14775107,-5.058167077,5.827206793,305.2070281,2021-11-17T13:20:37.407Z,N
16.801,-0.4282824,1.6009604,-3.2012464,-46.77505089,6.296506733,228.7879181,50.14774349,-5.058187378,6.495216266,294.6277387,2021-11-17T13:20:37.446Z,N
16.851,0.2855216,0.50986,-1.9877796,-47.04019541,2.389069309,228.7879181,50.14774349,-5.058187378,6.495216266,294.6277387,2021-11-17T13:20:37.496Z,N
16.901,0.9585368,0.1835496,0.5513232,-42.900329,3.017507112,228.7879181,50.14774349,-5.058187378,6.495216266,294.6277387,2021-11-17T13:20:37.546Z,N
16.951,0.6832124,-0.3161132,0.3065904,-38.66267477,0.371388998,228.7879181,50.14774349,-5.058187378,6.495216266,294.6277387,2021-11-17T13:20:37.596Z,N
17.001,0.6832124,-0.1631552,0.7858588,-36.8660106,-0.469761784,228.7879181,50.14774349,-5.058187378,6.495216266,294.6277387,2021-11-17T13:20:37.646Z,N
17.051,0.407888,-0.1835496,1.1733524,-34.43400907,1.984645275,228.7879181,50.14774349,-5.058187378,6.495216266,294.6277387,2021-11-17T13:20:37.696Z,N
17.101,0.1733524,0.050986,0.592112,-33.76956144,4.521561711,228.7879181,50.14774349,-5.058187378,6.495216266,294.6277387,2021-11-17T13:20:37.746Z,N
17.151,0.3976908,0.6016348,-0.27465,-37.47296511,9.904511014,228.7879181,50.14774349,-5.058187378,6.495216266,294.6277387,2021-11-17T13:20:37.796Z,N
17.207,0.1427608,2.957188,-4.2413608,-41.06212704,8.060325804,228.7879181,50.14774349,-5.058187378,6.495216266,294.6277387,2021-11-17T13:20:37.852Z,N
17.254,-0.5200572,1.0401144,0.6736896,-35.00498898,13.96298462,228.7879181,50.14774349,-5.058187378,6.495216266,294.6277387,2021-11-17T13:20:37.899Z,N
17.301,-0.2447328,0.305916,1.0407888,-30.84220045,15.22999495,222.8492737,50.14773979,-5.058197571,6.185920254,299.8827724,2021-11-17T13:20:37.946Z,N
17.351,-0.1733524,0.1427608,1.1937468,-29.15828563,13.28469135,222.8492737,50.14773979,-5.058197571,6.185920254,299.8827724,2021-11-17T13:20:37.996Z,N
17.401,-0.4180852,0.0101972,1.4486768,-29.44988347,12.92800863,222.8492737,50.14773979,-5.058197571,6.185920254,299.8827724,2021-11-17T13:20:38.046Z,N
17.452,-0.8259732,0.3670992,1.25493,-33.5104753,14.41686094,222.8492737,50.14773979,-5.058197571,6.185920254,299.8827724,2021-11-17T13:20:38.097Z,N
17.501,-0.6832124,1.3664248,0.9388168,-39.05228242,14.95489713,222.8492737,50.14773979,-5.058197571,6.185920254,299.8827724,2021-11-17T13:20:38.146Z,N
17.551,-0.0407888,2.1006232,-3.58874,-46.35056488,8.932928567,222.8492737,50.14773979,-5.058197571,6.185920254,299.8827724,2021-11-17T13:20:38.196Z,N
17.601,1.0401144,1.1012976,0.2148156,-46.0601828,8.067929512,222.8492737,50.14773979,-5.058197571,6.185920254,299.8827724,2021-11-17T13:20:38.246Z,N
17.651,1.0095228,0.1427608,0.1536324,-45.56824868,8.700971076,222.8492737,50.14773979,-5.058197571,6.185920254,299.8827724,2021-11-17T13:20:38.296Z,N
17.714,0.8463676,-0.2243384,0.5615204,-46.78449362,9.226986137,222.8492737,50.14773979,-5.058197571,6.185920254,299.8827724,2021-11-17T13:20:38.359Z,N
17.751,0.3772964,-0.3670992,0.9592112,-48.55623102,12.13303694,222.8492737,50.14773979,-5.058197571,6.185920254,299.8827724,2021-11-17T13:20:38.396Z,N
17.801,0.1733524,-0.3365076,1.0305916,-49.6903566,15.25410722,245.4802551,50.1477318,-5.058219234,6.356398323,300.3419218,2021-11-17T13:20:38.446Z,N
17.851,0.203944,0.1325636,0.9796056,-51.27781549,20.07736821,245.4802551,50.1477318,-5.058219234,6.356398323,300.3419218,2021-11-17T13:20:38.496Z,N
17.901,0.8565648,1.1318892,-0.9272708,-52.80367632,22.27401679,245.4802551,50.1477318,-5.058219234,6.356398323,300.3419218,2021-11-17T13:20:38.546Z,N
17.951,0.2345356,2.2025952,-1.3861448,-52.93495597,19.2595743,245.4802551,50.1477318,-5.058219234,6.356398323,300.3419218,2021-11-17T13:20:38.596Z,N
18.001,-0.3365076,0.866762,0.3473792,-48.93193581,20.63518634,245.4802551,50.1477318,-5.058219234,6.356398323,300.3419218,2021-11-17T13:20:38.646Z,N
18.051,-0.0203944,0.4486768,1.203944,-45.90792764,19.04490487,245.4802551,50.1477318,-5.058219234,6.356398323,300.3419218,2021-11-17T13:20:38.696Z,N
18.101,-0.1835496,0.101972,1.1733524,-47.20279489,17.55155915,245.4802551,50.1477318,-5.058219234,6.356398323,300.3419218,2021-11-17T13:20:38.746Z,N
18.153,-0.4486768,0.1631552,1.7545928,-50.86979365,16.9952283,245.4802551,50.1477318,-5.058219234,6.356398323,300.3419218,2021-11-17T13:20:38.798Z,N
18.21,-0.815776,0.5812404,1.2855216,-53.04143179,16.80594668,245.4802551,50.1477318,-5.058219234,6.356398323,300.3419218,2021-11-17T13:20:38.855Z,N
18.251,0,2.1312148,-0.7641156,-59.57097646,14.09006968,245.4802551,50.1477318,-5.058219234,6.356398323,300.3419218,2021-11-17T13:20:38.896Z,N
18.301,0.6526208,2.345356,-2.4364564,-60.44911339,11.39698332,228.8948517,50.14772078,-5.0582498,6.03435935,305.6438177,2021-11-17T13:20:38.946Z,N
18.355,0.9075508,0.6322264,0.3473792,-61.10625954,12.01022758,228.8948517,50.14772078,-5.0582498,6.03435935,305.6438177,2021-11-17T13:20:39.000Z,N
18.401,0.9075508,-0.2651272,0.3983652,-62.38897589,12.20050214,228.8948517,50.14772078,-5.0582498,6.03435935,305.6438177,2021-11-17T13:20:39.046Z,N
18.451,0.8361704,0.050986,0.8368448,-64.09493856,11.04242906,228.8948517,50.14772078,-5.0582498,6.03435935,305.6438177,2021-11-17T13:20:39.096Z,N
18.501,0.4894656,-0.0203944,1.4792684,-65.86990663,13.03809762,228.8948517,50.14772078,-5.0582498,6.03435935,305.6438177,2021-11-17T13:20:39.146Z,N
18.552,0.203944,-0.1121692,0.9184224,-64.15279709,16.88811215,228.8948517,50.14772078,-5.0582498,6.03435935,305.6438177,2021-11-17T13:20:39.197Z,N
18.601,0.2957188,0.5506488,0.6329008,-63.6408471,19.63321638,228.8948517,50.14772078,-5.0582498,6.03435935,305.6438177,2021-11-17T13:20:39.246Z,N
18.654,1.172678,3.467048,-2.5486256,-64.96018692,20.26262855,228.8948517,50.14772078,-5.0582498,6.03435935,305.6438177,2021-11-17T13:20:39.299Z,N
18.718,0.2243384,2.1210176,-0.4887912,-62.6803859,21.46420395,228.8948517,50.14772078,-5.0582498,6.03435935,305.6438177,2021-11-17T13:20:39.363Z,N
18.755,-0.203944,0.6322264,1.0815776,-61.53521591,24.02850112,228.8948517,50.14772078,-5.0582498,6.03435935,305.6438177,2021-11-17T13:20:39.400Z,N
18.801,-0.1937468,0.2651272,0.9694084,-59.61710073,23.45990496,217.0108948,50.1477134,-5.058271204,6.724767435,295.8214083,2021-11-17T13:20:39.446Z,N
18.853,-0.407888,-0.0815776,1.7341984,-58.97949575,22.28697024,217.0108948,50.1477134,-5.058271204,6.724767435,295.8214083,2021-11-17T13:20:39.498Z,N
18.901,-0.560846,0.203944,1.5506488,-58.84561721,21.2685788,217.0108948,50.1477134,-5.058271204,6.724767435,295.8214083,2021-11-17T13:20:39.546Z,N
18.951,-0.611832,1.5091856,0.8776336,-61.76669785,20.0343346,217.0108948,50.1477134,-5.058271204,6.724767435,295.8214083,2021-11-17T13:20:39.596Z,N
19.001,0.6424236,2.7124552,-0.9068764,-65.29332256,19.2352093,217.0108948,50.1477134,-5.058271204,6.724767435,295.8214083,2021-11-17T13:20:39.646Z,N
19.051,1.1114948,0.8259732,-0.7029324,-65.39779713,17.66791142,217.0108948,50.1477134,-5.058271204,6.724767435,295.8214083,2021-11-17T13:20:39.696Z,N
19.101,1.01972,0.0917748,1.3263104,-67.93500065,20.11663496,217.0108948,50.1477134,-5.058271204,6.724767435,295.8214083,2021-11-17T13:20:39.746Z,N
19.155,0.5200572,-0.25493,0.3779708,-65.71327674,19.59665779,217.0108948,50.1477134,-5.058271204,6.724767435,295.8214083,2021-11-17T13:20:39.800Z,N
19.208,0.3161132,-0.4282824,0.592112,-62.49783544,20.5773039,217.0108948,50.1477134,-5.058271204,6.724767435,295.8214083,2021-11-17T13:20:39.853Z,N
19.252,0.203944,-0.1631552,1.2243384,-64.37296824,23.49961568,217.0108948,50.1477134,-5.058271204,6.724767435,295.8214083,2021-11-17T13:20:39.897Z,N
19.301,0.2243384,0.2141412,1.0305916,-67.41350205,25.89396237,233.1937408,50.14770603,-5.058292609,6.246453916,306.0112414,2021-11-17T13:20:39.946Z,N
19.352,0.3365076,0.4486768,1,-69.32027911,28.62042189,233.1937408,50.14770603,-5.058292609,6.246453916,306.0112414,2021-11-17T13:20:39.997Z,N
19.403,1.7947072,4.2726268,-2.1713292,-68.18308678,24.47941826,233.1937408,50.14770603,-5.058292609,6.246453916,306.0112414,2021-11-17T13:20:40.048Z,N
19.456,0,1.1114948,0.8674364,-66.91071134,27.16725818,233.1937408,50.14770603,-5.058292609,6.246453916,306.0112414,2021-11-17T13:20:40.101Z,N
19.506,0.101972,0.5812404,1.0713804,-67.91379974,27.79785539,233.1937408,50.14770603,-5.058292609,6.246453916,306.0112414,2021-11-17T13:20:40.151Z,N
19.553,-0.1223664,0.0305916,1,-65.63666251,25.58417915,233.1937408,50.14770603,-5.058292609,6.246453916,306.0112414,2021-11-17T13:20:40.198Z,N
19.603,-0.1937468,0.3874936,1.458874,-65.35629007,23.85628474,233.1937408,50.14770603,-5.058292609,6.246453916,306.0112414,2021-11-17T13:20:40.248Z,N
19.655,-0.7545928,0.152958,1.2855216,-64.54700146,24.51024802,233.1937408,50.14770603,-5.058292609,6.246453916,306.0112414,2021-11-17T13:20:40.300Z,N
19.717,-0.4690712,1.1522836,0.7348728,-68.55857643,24.58094048,233.1937408,50.14770603,-5.058292609,6.246453916,306.0112414,2021-11-17T13:20:40.362Z,N
19.755,0.8769592,2.4881168,-0.6111576,-72.83389915,22.10755654,233.1937408,50.14770603,-5.058292609,6.246453916,306.0112414,2021-11-17T13:20:40.401Z,N
19.804,1.1420864,1.0911004,-0.5601716,-71.35030011,20.20122515,224.68013,50.14769839,-5.058314648,6.933116454,295.7816039,2021-11-17T13:20:40.449Z,N
19.856,0.8361704,0.1121692,0.7144784,-67.92554084,21.5113186,224.68013,50.14769839,-5.058314648,6.933116454,295.7816039,2021-11-17T13:20:40.501Z,N
19.906,0.662818,0.1223664,0.8062532,-65.99178453,20.72950783,224.68013,50.14769839,-5.058314648,6.933116454,295.7816039,2021-11-17T13:20:40.552Z,N
19.956,0.3874936,-0.2855216,1.0815776,-60.38473885,21.17712598,224.68013,50.14769839,-5.058314648,6.933116454,295.7816039,2021-11-17T13:20:40.601Z,N
20.001,0.1631552,-0.305916,1.2855216,-60.27227979,23.29411407,224.68013,50.14769839,-5.058314648,6.933116454,295.7816039,2021-11-17T13:20:40.646Z,N
20.054,0.0917748,-0.0101972,1.2651272,-61.1460249,26.3499458,224.68013,50.14769839,-5.058314648,6.933116454,295.7816039,2021-11-17T13:20:40.699Z,N
20.101,0.9993256,1.01972,0.3677736,-62.17978085,27.76868877,224.68013,50.14769839,-5.058314648,6.933116454,295.7816039,2021-11-17T13:20:40.746Z,N
