Date,Time,Latitude,Hemisphere (N-S),Longitude,Hemisphere (E-W),Pitch,Roll,Heading,x_Acc,y_Acc,z_Acc,x_Gyro,y_Gyro,z_Gyro,Voltage
14/11/21,19:13:42,5131.8154,N,3.5865,W,1.0749,4.1535,176.2812,-0.0179,0.0696,0.9529,0.7324,0.1221,-0.3052,7.3097
14/11/21,19:13:48,5131.8145,N,3.5895,W,0.9715,4.1943,176.2801,-0.0172,0.0695,0.9534,0.8545,0.1831,-0.1831,7.3806
14/11/21,19:13:54,5131.8188,N,3.5967,W,1.0827,4.2105,176.2774,-0.0178,0.0701,0.9536,0.7324,0.1221,-0.3052,7.3806
14/11/21,19:14:0,5131.8208,N,3.5990,W,1.0330,4.1163,176.2733,-0.0175,0.0690,0.9524,0.3662,0.0610,-0.2441,7.3452
14/11/21,19:14:6,5131.8296,N,3.6063,W,1.0666,4.2278,176.2736,-0.0176,0.0697,0.9515,0.6714,0.1221,-0.1831,7.3452
14/11/21,19:14:12,5131.8340,N,3.6107,W,1.0663,4.1262,176.2695,-0.0177,0.0685,0.9532,0.8545,0.4883,-0.2441,7.4516
14/11/21,19:14:18,5131.8364,N,3.6076,W,0.9957,4.2142,176.2699,-0.0167,0.0699,0.9524,0.4272,0.0610,-0.1221,7.3806
14/11/21,19:14:24,5131.8369,N,3.6049,W,1.0536,4.1268,176.2660,-0.0177,0.0682,0.9515,0.7324,0.1221,-0.2441,7.2387
14/11/21,19:14:30,5131.8369,N,3.6026,W,0.9538,4.0837,176.2617,-0.0173,0.0686,0.9523,0.3052,0.0000,-0.3662,7.3452
14/11/21,19:14:36,5131.8359,N,3.5994,W,1.0152,4.1854,176.2624,-0.0167,0.0693,0.9524,0.8545,0.3662,-0.1221,7.3452
14/11/21,19:14:42,5131.8359,N,3.5962,W,1.0451,4.0848,176.2575,-0.0171,0.0691,0.9524,0.5493,0.0000,-0.3052,7.4161
14/11/21,19:14:48,5131.8364,N,3.5962,W,1.0093,4.1958,176.2558,-0.0171,0.0691,0.9532,0.7324,-0.0610,-0.3662,7.5226
14/11/21,19:14:54,5131.8350,N,3.6023,W,1.1102,4.1532,176.2527,-0.0175,0.0696,0.9528,0.7324,0.2441,-0.2441,7.4161
14/11/21,19:15:0,5131.8354,N,3.6022,W,1.0033,4.1742,176.2520,-0.0160,0.0696,0.9537,0.7324,0.2441,-0.1221,7.4871
14/11/21,19:15:6,5131.8350,N,3.6015,W,0.9868,4.0722,176.2470,-0.0166,0.0688,0.9557,0.6104,0.4883,-0.3662,7.4161
14/11/21,19:15:12,5131.8306,N,3.6018,W,1.0360,4.1781,176.2483,-0.0173,0.0697,0.9528,0.6714,0.2441,-0.0610,7.4516
14/11/21,19:15:18,5131.8286,N,3.5985,W,0.9785,4.0916,176.2456,-0.0168,0.0690,0.9539,0.6714,0.1221,-0.1221,7.3806
14/11/21,19:15:24,5131.8276,N,3.5948,W,1.0385,4.1946,176.2434,-0.0172,0.0697,0.9531,0.8545,0.4272,-0.4272,7.3452
14/11/21,19:15:30,5131.8267,N,3.5927,W,0.9301,4.2114,176.2437,-0.0165,0.0699,0.9525,0.5493,0.1221,0.0000,7.3452
14/11/21,19:15:36,5131.8267,N,3.5899,W,1.0277,4.1624,176.2412,-0.0176,0.0688,0.9515,0.6714,0.2441,-0.1831,7.3452
14/11/21,19:15:42,5131.8276,N,3.5868,W,1.1338,4.1360,176.2395,-0.0175,0.0693,0.9540,0.6104,0.0610,-0.1221,7.3097
14/11/21,19:15:48,5131.8276,N,3.5830,W,1.0288,4.1738,176.2395,-0.0172,0.0695,0.9535,0.6714,0.0610,-0.0610,7.4871
14/11/21,19:15:54,5131.8281,N,3.5711,W,1.1411,4.1869,176.2392,-0.0181,0.0696,0.9526,0.6104,0.2441,-0.0610,7.3806
14/11/21,19:16:0,5131.8306,N,3.5649,W,1.0342,4.1789,176.2384,-0.0173,0.0695,0.9526,1.0376,0.1831,-0.0610,7.2742
14/11/21,19:16:6,5131.8354,N,3.5608,W,1.0830,4.0850,176.2356,-0.0177,0.0687,0.9536,0.6104,0.2441,-0.1221,7.3097
14/11/21,19:16:12,5131.8398,N,3.5346,W,1.0848,4.2013,176.2367,-0.0181,0.0697,0.9536,0.6714,0.2441,-0.1221,7.4871
14/11/21,19:16:18,5131.8359,N,3.5473,W,0.9884,4.2576,176.2365,-0.0172,0.0704,0.9528,0.6714,0.1831,-0.1221,7.4516
14/11/21,19:16:24,5131.8286,N,3.5828,W,1.0480,4.1680,176.2322,-0.0177,0.0690,0.9539,0.5493,0.3662,-0.3052,7.3097
14/11/21,19:16:30,5131.8291,N,3.5871,W,1.1386,4.2421,176.2331,-0.0178,0.0697,0.9529,0.7935,0.3052,-0.0610,7.3806
14/11/21,19:16:36,5131.8271,N,3.5992,W,1.0605,4.1755,176.2294,-0.0172,0.0690,0.9523,0.9155,0.1831,-0.2441,7.4161
14/11/21,19:16:42,5131.8276,N,3.6029,W,1.1136,4.2792,176.2303,-0.0182,0.0706,0.9531,0.6104,0.3052,-0.1221,7.2032
14/11/21,19:16:48,5131.8291,N,3.6047,W,1.0540,4.1956,176.2287,-0.0176,0.0698,0.9530,0.7935,0.1831,0.0000,7.3806
14/11/21,19:16:54,5131.8291,N,3.6060,W,1.0114,4.1015,176.2247,-0.0172,0.0691,0.9534,0.6714,0.1831,-0.2441,7.3097
14/11/21,19:17:0,5131.8311,N,3.6081,W,0.9986,4.2172,176.2245,-0.0166,0.0701,0.9528,0.7324,0.3662,-0.2441,7.4871
14/11/21,19:17:6,5131.8325,N,3.6086,W,1.1099,4.1970,176.2202,-0.0173,0.0701,0.9528,0.9155,0.4883,-0.4272,7.3806
14/11/21,19:17:12,5131.8330,N,3.6087,W,1.0094,4.2547,176.2203,-0.0170,0.0708,0.9529,0.3662,-0.4883,-0.0610,7.3806
14/11/21,19:17:18,5131.8335,N,3.6080,W,1.0947,4.1881,176.2180,-0.0179,0.0699,0.9534,0.6714,0.3052,-0.1221,7.5226
14/11/21,19:17:24,5131.8340,N,3.6080,W,0.9872,4.1894,176.2163,-0.0168,0.0697,0.9529,0.7324,0.2441,-0.1831,7.3452
14/11/21,19:17:30,5131.8345,N,3.6069,W,1.0083,4.0897,176.2123,-0.0165,0.0697,0.9529,0.9155,0.3052,-0.2441,7.3097
14/11/21,19:17:36,5131.8311,N,3.6011,W,1.1024,4.1546,176.2106,-0.0178,0.0687,0.9518,0.4883,0.1831,-0.3052,7.3097
14/11/21,19:17:42,5131.8291,N,3.5979,W,0.9953,4.1614,176.2091,-0.0165,0.0692,0.9528,0.6714,0.3052,-0.1831,7.3097
14/11/21,19:17:48,5131.8281,N,3.5960,W,1.0772,4.2486,176.2091,-0.0175,0.0702,0.9526,0.9155,0.4883,-0.1831,7.3097
14/11/21,19:17:54,5131.8271,N,3.5939,W,1.0106,4.1700,176.2065,-0.0167,0.0692,0.9523,0.7324,0.2441,-0.1221,7.4161
14/11/21,19:18:0,5131.8267,N,3.5927,W,1.0892,4.0985,176.2023,-0.0172,0.0691,0.9528,0.7935,0.1831,-0.3052,7.3452
14/11/21,19:18:6,5131.8257,N,3.5920,W,1.0427,4.2030,176.1996,-0.0172,0.0702,0.9531,0.6714,0.3052,-0.4883,7.4161
14/11/21,19:18:12,5131.8252,N,3.5919,W,0.9863,4.1182,176.1958,-0.0170,0.0695,0.9548,0.7935,0.3052,-0.2441,7.3806
14/11/21,19:18:18,5131.8247,N,3.5916,W,1.0603,4.2070,176.1945,-0.0171,0.0693,0.9526,0.6104,0.1831,-0.3052,7.2742
14/11/21,19:18:24,5131.8252,N,3.5919,W,1.1061,4.3140,176.1953,-0.0179,0.0707,0.9534,0.7324,0.0000,-0.1221,7.4516
14/11/21,19:18:30,5131.8252,N,3.5924,W,1.0506,4.2262,176.1935,-0.0170,0.0693,0.9526,0.7324,0.0000,0.0000,7.2742
14/11/21,19:18:36,5131.8257,N,3.5927,W,0.9934,4.1421,176.1918,-0.0162,0.0684,0.9535,0.9766,0.0610,0.0000,7.4871
14/11/21,19:18:42,5131.8257,N,3.5934,W,1.0970,4.1897,176.1933,-0.0179,0.0696,0.9530,0.6104,0.1831,0.0610,7.4161
14/11/21,19:18:48,5131.8257,N,3.5941,W,1.0036,4.1344,176.1914,-0.0173,0.0691,0.9519,0.6714,-0.2441,-0.0610,7.4161
14/11/21,19:18:54,5131.8257,N,3.5949,W,1.0762,4.2283,176.1926,-0.0173,0.0696,0.9525,0.9766,0.2441,-0.0610,7.3452
14/11/21,19:19:0,5131.8257,N,3.5956,W,1.0150,4.1462,176.1894,-0.0167,0.0687,0.9524,0.7324,0.3052,-0.1831,7.3806
14/11/21,19:19:6,5131.8262,N,3.5961,W,1.0737,4.2473,176.1919,-0.0177,0.0704,0.9540,0.6714,0.3052,0.0610,7.3806
14/11/21,19:19:12,5131.8267,N,3.5969,W,0.9877,4.1878,176.1873,-0.0165,0.0697,0.9530,0.6714,0.1831,-0.3662,7.4516
14/11/21,19:19:18,5131.8271,N,3.5980,W,1.0962,4.1651,176.1858,-0.0175,0.0696,0.9540,0.7324,0.2441,-0.1221,7.3097
14/11/21,19:19:24,5131.8271,N,3.6015,W,0.9897,4.1465,176.1819,-0.0167,0.0690,0.9519,0.6104,0.0610,-0.3662,7.3806
14/11/21,19:19:30,5131.8271,N,3.6018,W,1.0234,4.2571,176.1821,-0.0167,0.0698,0.9532,0.5493,0.2441,-0.1831,7.4516
14/11/21,19:19:36,5131.8271,N,3.6027,W,0.9894,4.1591,176.1781,-0.0166,0.0696,0.9529,0.6104,0.1831,-0.2441,7.3806
14/11/21,19:19:42,5131.8271,N,3.6034,W,1.1014,4.1656,176.1777,-0.0172,0.0693,0.9535,0.6714,0.1831,-0.0610,7.4516
14/11/21,19:19:48,5131.8271,N,3.6035,W,0.9957,4.1622,176.1753,-0.0172,0.0692,0.9521,0.9766,0.3662,-0.2441,7.3806
14/11/21,19:19:54,5131.8271,N,3.6037,W,1.0764,4.2421,176.1760,-0.0167,0.0695,0.9530,0.6714,-0.1221,-0.0610,7.3097
14/11/21,19:20:0,5131.8271,N,3.6042,W,1.0698,4.1396,176.1724,-0.0178,0.0692,0.9523,0.7324,0.2441,-0.1831,7.3097
14/11/21,19:20:6,5131.8281,N,3.6048,W,0.9748,4.1977,176.1705,-0.0167,0.0697,0.9547,0.7324,0.2441,-0.3052,7.3097
14/11/21,19:20:12,5131.8286,N,3.6052,W,1.0731,4.1509,176.1691,-0.0171,0.0695,0.9525,0.5493,0.1221,-0.0610,7.4516
14/11/21,19:20:18,5131.8286,N,3.6050,W,1.0446,4.2634,176.1689,-0.0175,0.0707,0.9530,0.7324,0.2441,-0.2441,7.4161
14/11/21,19:20:24,5131.8286,N,3.6050,W,1.0522,4.1595,176.1641,-0.0176,0.0682,0.9536,0.6104,0.1831,-0.3052,7.3452
14/11/21,19:20:30,5131.8286,N,3.6048,W,0.9875,4.2551,176.1634,-0.0171,0.0699,0.9532,0.7935,0.1221,-0.2441,7.3452
14/11/21,19:20:36,5131.8286,N,3.6049,W,1.0292,4.1596,176.1605,-0.0171,0.0693,0.9532,0.7324,0.1831,-0.1221,7.3806
14/11/21,19:20:42,5131.8281,N,3.6050,W,1.1098,4.2427,176.1609,-0.0178,0.0699,0.9531,0.7324,0.1221,-0.1221,7.3452
14/11/21,19:20:48,5131.8281,N,3.6053,W,1.0153,4.1967,176.1572,-0.0173,0.0701,0.9530,0.6104,0.2441,-0.3052,7.3452
14/11/21,19:20:54,5131.8286,N,3.6055,W,1.0061,4.0928,176.1525,-0.0168,0.0692,0.9526,0.5493,0.3662,-0.3052,7.3452
14/11/21,19:21:0,5131.8291,N,3.6057,W,1.0385,4.2066,176.1518,-0.0172,0.0698,0.9524,0.7935,0.4272,-0.3052,7.3806
14/11/21,19:21:6,5131.8291,N,3.6061,W,1.0262,4.1030,176.1465,-0.0172,0.0693,0.9524,0.5493,0.2441,-0.3662,7.4161
14/11/21,19:21:12,5131.8296,N,3.6064,W,1.0179,4.2189,176.1474,-0.0170,0.0697,0.9520,0.6714,0.1831,-0.1221,7.4161
14/11/21,19:21:18,5131.8301,N,3.6072,W,1.0197,4.1172,176.1445,-0.0170,0.0695,0.9528,0.8545,0.2441,-0.1221,7.3806
14/11/21,19:21:24,5131.8315,N,3.6075,W,1.0488,4.2291,176.1441,-0.0173,0.0698,0.9534,0.6104,0.0610,-0.2441,7.3097
14/11/21,19:21:30,5131.8306,N,3.6066,W,1.0614,4.1267,176.1399,-0.0176,0.0696,0.9531,0.7324,0.2441,-0.2441,7.2742
14/11/21,19:21:36,5131.8306,N,3.6067,W,0.9678,4.0786,176.1391,-0.0170,0.0684,0.9532,0.6104,0.2441,0.0000,7.2742
14/11/21,19:21:42,5131.8311,N,3.6063,W,1.0248,4.1816,176.1415,-0.0173,0.0701,0.9537,0.7935,0.2441,0.0610,7.3452
14/11/21,19:21:48,5131.8311,N,3.6061,W,1.0995,4.2703,176.1408,-0.0179,0.0707,0.9537,0.6714,0.1831,-0.2441,7.4161
14/11/21,19:21:54,5131.8311,N,3.6062,W,1.0388,4.1875,176.1370,-0.0170,0.0692,0.9531,0.7324,0.2441,-0.2441,7.3806
14/11/21,19:22:0,5131.8306,N,3.6065,W,1.0014,4.0913,176.1324,-0.0170,0.0688,0.9532,0.6714,0.1831,-0.3052,7.3806
14/11/21,19:22:6,5131.8311,N,3.6073,W,0.9894,4.2064,176.1331,-0.0166,0.0692,0.9536,0.6104,0.0000,-0.1221,7.4161
14/11/21,19:22:12,5131.8325,N,3.6068,W,1.0607,4.1285,176.1299,-0.0177,0.0687,0.9540,0.7324,0.1221,-0.1831,7.3097
14/11/21,19:22:18,5131.8315,N,3.6045,W,1.0441,4.2439,176.1308,-0.0176,0.0695,0.9530,0.7324,0.1831,-0.1221,7.2742
14/11/21,19:22:24,5131.8311,N,3.6034,W,1.0178,4.1451,176.1257,-0.0171,0.0696,0.9537,0.7324,0.3662,-0.3662,7.4516
14/11/21,19:22:30,5131.8306,N,3.6028,W,1.0133,4.2638,176.1276,-0.0170,0.0696,0.9536,0.9155,0.0000,0.0000,7.3452
14/11/21,19:22:36,5131.8301,N,3.6020,W,1.0341,4.1593,176.1212,-0.0172,0.0691,0.9529,0.4272,0.3052,-0.4883,7.4161
14/11/21,19:22:42,5131.8296,N,3.6012,W,1.0058,4.2718,176.1198,-0.0170,0.0703,0.9534,0.7324,0.2441,-0.3662,7.3806
14/11/21,19:22:48,5131.8291,N,3.6007,W,0.9957,4.1694,176.1167,-0.0166,0.0695,0.9525,0.7324,0.0610,-0.1221,7.3806
14/11/21,19:22:54,5131.8267,N,3.5998,W,1.0899,4.1133,176.1135,-0.0171,0.0691,0.9524,0.6104,0.3052,-0.2441,7.3097
14/11/21,19:23:0,5131.8237,N,3.5982,W,0.9822,4.1009,176.1108,-0.0168,0.0682,0.9521,0.7324,0.0610,-0.2441,7.3097
14/11/21,19:23:6,5131.8213,N,3.5955,W,1.0622,4.1842,176.1088,-0.0176,0.0695,0.9519,0.6104,0.1831,-0.3662,7.3452
14/11/21,19:23:12,5131.8188,N,3.5941,W,1.1727,4.2130,176.1094,-0.0179,0.0698,0.9539,0.7935,0.2441,0.0000,7.4161
14/11/21,19:23:18,5131.8174,N,3.5940,W,1.0671,4.1949,176.1079,-0.0176,0.0698,0.9541,0.6714,0.1831,-0.1221,7.4161
14/11/21,19:23:24,5131.8208,N,3.5983,W,0.9727,4.2546,176.1084,-0.0172,0.0702,0.9528,0.8545,0.3052,-0.0610,7.2742
14/11/21,19:23:30,5131.8208,N,3.5985,W,1.0308,4.1686,176.1057,-0.0171,0.0695,0.9530,0.8545,0.1221,-0.1221,7.4161
14/11/21,19:23:36,5131.8213,N,3.5994,W,1.0077,4.2835,176.1065,-0.0170,0.0703,0.9519,0.7935,0.0610,-0.1221,7.3806
14/11/21,19:23:42,5131.8252,N,3.6030,W,1.0537,4.1909,176.1041,-0.0178,0.0691,0.9526,0.7935,0.0610,-0.0610,7.4161
14/11/21,19:23:48,5131.8296,N,3.6064,W,0.9518,4.1576,176.1006,-0.0166,0.0695,0.9528,0.4883,0.1221,-0.3052,7.4516
14/11/21,19:23:54,5131.8325,N,3.6091,W,1.0638,4.1676,176.0979,-0.0181,0.0693,0.9525,0.5493,0.1831,-0.3052,7.3806
14/11/21,19:24:0,5131.8330,N,3.6090,W,0.9597,4.1883,176.0968,-0.0172,0.0695,0.9524,0.8545,0.5493,-0.1831,7.3806
14/11/21,19:24:6,5131.8320,N,3.6067,W,1.0484,4.1266,176.0922,-0.0173,0.0687,0.9530,0.7324,0.2441,-0.3662,7.3452
14/11/21,19:24:12,5131.8311,N,3.6049,W,1.0483,4.2446,176.0921,-0.0175,0.0699,0.9535,0.8545,0.3662,-0.2441,7.4161
14/11/21,19:24:18,5131.8311,N,3.6044,W,1.0337,4.1424,176.0868,-0.0172,0.0690,0.9525,0.6714,0.1831,-0.3662,7.4161
14/11/21,19:24:24,5131.8306,N,3.6042,W,1.0664,4.2549,176.0867,-0.0175,0.0698,0.9531,0.6714,0.4272,-0.2441,7.3097
14/11/21,19:24:30,5131.8301,N,3.6041,W,1.0045,4.1739,176.0824,-0.0167,0.0695,0.9531,0.7935,0.3052,-0.3052,7.3452
14/11/21,19:24:36,5131.8296,N,3.6043,W,0.9259,4.1083,176.0802,-0.0159,0.0687,0.9526,0.8545,0.3052,-0.1221,7.3452
14/11/21,19:24:42,5131.8286,N,3.6039,W,1.0078,4.1872,176.0804,-0.0172,0.0701,0.9525,0.4272,0.1221,-0.1221,7.3452
14/11/21,19:24:48,5131.8262,N,3.6019,W,0.9040,4.1589,176.0780,-0.0156,0.0695,0.9542,0.6714,0.0610,-0.1831,7.3097
14/11/21,19:24:54,5131.8223,N,3.5991,W,1.0139,4.1494,176.0761,-0.0167,0.0691,0.9534,0.6104,0.0610,-0.1831,7.3806
14/11/21,19:25:0,5131.8218,N,3.6010,W,0.9789,4.0511,176.0732,-0.0167,0.0686,0.9525,0.5493,0.1831,-0.1221,7.3452
14/11/21,19:25:6,5131.8247,N,3.6060,W,0.9996,4.1664,176.0729,-0.0167,0.0698,0.9517,0.7324,0.1831,-0.2441,7.3806
14/11/21,19:25:12,5131.8262,N,3.6079,W,1.0540,4.2642,176.0710,-0.0167,0.0695,0.9518,0.3052,-0.1221,-0.3662,7.3452
14/11/21,19:25:18,5131.8262,N,3.6086,W,1.0335,4.1598,176.0644,-0.0171,0.0686,0.9524,0.3662,0.0610,-0.4883,7.3806
14/11/21,19:25:24,5131.8267,N,3.6087,W,0.9254,4.1615,176.0621,-0.0162,0.0693,0.9539,0.6104,0.1831,-0.2441,7.4161
14/11/21,19:25:30,5131.8262,N,3.6082,W,1.0373,4.1799,176.0613,-0.0161,0.0695,0.9536,0.6714,0.2441,-0.1221,7.4161
14/11/21,19:25:36,5131.8208,N,3.6002,W,0.9343,4.1503,176.0625,-0.0164,0.0693,0.9532,0.6714,0.1221,0.1831,7.2742
14/11/21,19:25:42,5131.8140,N,3.5919,W,1.0466,4.1448,176.0584,-0.0171,0.0690,0.9525,0.5493,0.2441,-0.4272,7.2742
14/11/21,19:25:48,5131.8091,N,3.5854,W,0.9864,4.2436,176.0595,-0.0171,0.0696,0.9526,0.7324,0.0610,-0.0610,7.4516
14/11/21,19:25:54,5131.8062,N,3.5808,W,1.0241,4.1462,176.0561,-0.0171,0.0688,0.9535,0.7324,0.3052,-0.1831,7.4161
14/11/21,19:26:0,5131.8086,N,3.5825,W,1.0285,4.2649,176.0588,-0.0171,0.0698,0.9524,0.9155,0.1831,0.0610,7.2742
14/11/21,19:26:6,5131.8091,N,3.5818,W,1.0147,4.1647,176.0560,-0.0170,0.0699,0.9528,0.8545,0.4272,-0.1221,7.3806
14/11/21,19:26:12,5131.8110,N,3.5831,W,1.0914,4.2495,176.0546,-0.0172,0.0697,0.9531,0.5493,0.0610,-0.3052,7.4516
14/11/21,19:26:18,5131.8130,N,3.5846,W,1.0220,4.1679,176.0513,-0.0171,0.0695,0.9532,0.3662,0.0000,-0.1831,7.4161
14/11/21,19:26:24,5131.8145,N,3.5854,W,1.0957,4.2592,176.0529,-0.0177,0.0702,0.9528,0.8545,0.1831,0.0000,7.3452
14/11/21,19:26:30,5131.8179,N,3.5895,W,1.0067,4.2060,176.0497,-0.0164,0.0697,0.9528,0.7324,0.3052,-0.2441,7.5226
14/11/21,19:26:36,5131.8213,N,3.5903,W,1.0867,4.1379,176.0471,-0.0177,0.0692,0.9526,0.6714,-0.1221,-0.1221,7.3806
14/11/21,19:26:42,5131.8223,N,3.5916,W,1.0512,4.2492,176.0479,-0.0179,0.0695,0.9530,0.7935,0.1221,-0.1221,7.3452
14/11/21,19:26:48,5131.8228,N,3.5914,W,0.9719,4.1813,176.0448,-0.0164,0.0696,0.9513,0.8545,0.0000,-0.1831,7.3097
14/11/21,19:26:54,5131.8232,N,3.5920,W,1.0590,4.2592,176.0446,-0.0167,0.0701,0.9524,0.7324,0.3052,-0.1831,7.3097
14/11/21,19:27:0,5131.8237,N,3.5918,W,0.9724,4.1992,176.0418,-0.0157,0.0696,0.9534,0.5493,0.1831,-0.1831,7.3452
14/11/21,19:27:6,5131.8242,N,3.5909,W,1.0816,4.1768,176.0397,-0.0175,0.0696,0.9524,0.7324,0.3052,-0.1831,7.4516
14/11/21,19:27:12,5131.8242,N,3.5907,W,0.9762,4.1561,176.0381,-0.0173,0.0695,0.9536,0.6714,0.1221,-0.1221,7.4161
14/11/21,19:27:18,5131.8242,N,3.5910,W,1.0631,4.0936,176.0359,-0.0171,0.0686,0.9534,0.8545,0.2441,-0.1221,7.2742
14/11/21,19:27:24,5131.8237,N,3.5913,W,1.0146,4.1968,176.0384,-0.0168,0.0698,0.9524,0.6104,0.3052,0.0610,7.2742
14/11/21,19:27:30,5131.8232,N,3.5913,W,0.9254,4.1399,176.0346,-0.0162,0.0695,0.9529,0.4883,0.1831,-0.3052,7.3452
14/11/21,19:27:36,5131.8228,N,3.5913,W,1.0050,4.2271,176.0349,-0.0164,0.0699,0.9535,0.9155,0.2441,-0.1221,7.4516
14/11/21,19:27:42,5131.8223,N,3.5913,W,0.9530,4.1379,176.0316,-0.0159,0.0688,0.9536,0.7324,0.1221,-0.1831,7.3452
14/11/21,19:27:48,5131.8218,N,3.5912,W,1.0636,4.1655,176.0298,-0.0164,0.0690,0.9520,0.6714,0.2441,-0.2441,7.3806
14/11/21,19:27:54,5131.8218,N,3.5917,W,1.0868,4.2790,176.0302,-0.0178,0.0698,0.9521,0.6104,0.1221,-0.1831,7.4516
14/11/21,19:28:0,5131.8213,N,3.5922,W,1.0041,4.2144,176.0271,-0.0164,0.0698,0.9537,0.7324,0.0610,-0.1831,7.3452
14/11/21,19:28:6,5131.8242,N,3.5929,W,0.9907,4.1144,176.0254,-0.0166,0.0692,0.9530,0.9155,0.2441,0.0000,7.2742
14/11/21,19:28:12,5131.8247,N,3.5935,W,1.0569,4.2082,176.0258,-0.0172,0.0695,0.9528,0.6104,0.0000,-0.1221,7.3452
14/11/21,19:28:18,5131.8262,N,3.5932,W,0.9657,4.1541,176.0224,-0.0164,0.0693,0.9539,0.6714,0.0610,-0.2441,7.5226
14/11/21,19:28:24,5131.8267,N,3.5933,W,1.0472,4.2393,176.0240,-0.0166,0.0697,0.9530,0.8545,0.3052,0.0000,7.3452
14/11/21,19:28:30,5131.8281,N,3.5953,W,1.0003,4.1463,176.0229,-0.0166,0.0688,0.9528,0.6104,0.1221,0.0610,7.3452
14/11/21,19:28:36,5131.8276,N,3.5936,W,1.0795,4.2224,176.0216,-0.0170,0.0693,0.9530,0.3662,-0.3662,-0.2441,7.3806
14/11/21,19:28:42,5131.8281,N,3.5935,W,0.9769,4.1921,176.0193,-0.0164,0.0697,0.9518,0.6104,0.1221,-0.1831,7.2742
14/11/21,19:28:48,5131.8276,N,3.5929,W,0.9199,4.1045,176.0151,-0.0161,0.0696,0.9530,0.4272,0.3662,-0.3052,7.3452
14/11/21,19:28:54,5131.8271,N,3.5922,W,1.0003,4.1892,176.0126,-0.0162,0.0693,0.9535,0.6104,0.3662,-0.4272,7.3097
14/11/21,19:29:0,5131.8242,N,3.5898,W,1.0391,4.0911,176.0080,-0.0168,0.0696,0.9550,0.6104,0.2441,-0.3052,7.4516
14/11/21,19:29:6,5131.8232,N,3.5897,W,0.9579,4.1708,176.0087,-0.0162,0.0691,0.9518,0.4272,-0.1221,-0.0610,7.4161
14/11/21,19:29:12,5131.8232,N,3.5903,W,1.0558,4.1243,176.0060,-0.0175,0.0687,0.9532,0.5493,0.0610,-0.1831,7.3806
14/11/21,19:29:18,5131.8208,N,3.5895,W,0.9814,4.2039,176.0038,-0.0171,0.0692,0.9534,0.6714,0.7935,-0.4272,7.3452
14/11/21,19:29:24,5131.8208,N,3.5903,W,1.0334,4.1124,176.0009,-0.0167,0.0693,0.9526,0.6104,0.0610,-0.1221,7.3097
14/11/21,19:29:30,5131.8198,N,3.5896,W,0.9609,4.2017,176.0013,-0.0162,0.0696,0.9526,0.8545,0.1831,-0.1221,7.4516
14/11/21,19:29:36,5131.8169,N,3.5896,W,1.0273,4.1172,175.9982,-0.0170,0.0687,0.9537,0.6104,0.3662,-0.1831,7.3097
14/11/21,19:29:42,5131.8184,N,3.5920,W,0.9596,4.2094,175.9986,-0.0164,0.0696,0.9531,0.6714,0.1221,-0.1221,7.3097
14/11/21,19:29:48,5131.8179,N,3.5923,W,1.0241,4.1239,175.9955,-0.0167,0.0692,0.9545,0.6104,0.3052,-0.1831,7.3806
14/11/21,19:29:54,5131.8179,N,3.5926,W,0.9785,4.0318,175.9928,-0.0170,0.0685,0.9529,0.6714,0.3052,-0.1221,7.4871
14/11/21,19:30:0,5131.8179,N,3.5930,W,1.0054,4.1449,175.9949,-0.0170,0.0701,0.9532,0.6104,0.3052,0.0000,7.2742
14/11/21,19:30:6,5131.8179,N,3.5929,W,1.0211,4.2599,175.9953,-0.0168,0.0697,0.9532,0.6104,0.3052,-0.1831,7.3806
14/11/21,19:30:12,5131.8179,N,3.5928,W,1.0218,4.1588,175.9912,-0.0170,0.0688,0.9528,0.9155,0.3662,-0.2441,7.3452
14/11/21,19:30:18,5131.8184,N,3.5932,W,0.9548,4.2515,175.9935,-0.0164,0.0702,0.9536,0.7935,0.3052,0.0610,7.3452
14/11/21,19:30:24,5131.8184,N,3.5934,W,0.9961,4.1564,175.9912,-0.0167,0.0688,0.9531,0.7324,0.0610,-0.0610,7.3452
14/11/21,19:30:30,5131.8188,N,3.5929,W,1.1081,4.1528,175.9918,-0.0175,0.0692,0.9535,0.6714,0.2441,0.0610,7.3097
14/11/21,19:30:36,5131.8193,N,3.5924,W,1.0009,4.1479,175.9895,-0.0165,0.0690,0.9521,0.4272,0.2441,-0.2441,7.5226
14/11/21,19:30:42,5131.8193,N,3.5914,W,0.8920,4.1560,175.9878,-0.0161,0.0691,0.9526,0.7324,0.1221,-0.1831,7.3452
14/11/21,19:30:48,5131.8198,N,3.5915,W,1.0017,4.1859,175.9871,-0.0177,0.0698,0.9529,0.7935,0.1831,-0.1221,7.4161
14/11/21,19:30:54,5131.8198,N,3.5908,W,0.8938,4.2060,175.9851,-0.0165,0.0698,0.9536,0.6104,0.1221,-0.2441,7.2742
14/11/21,19:31:0,5131.8198,N,3.5905,W,0.9892,4.1567,175.9837,-0.0166,0.0690,0.9523,0.9155,0.1831,-0.0610,7.3806
14/11/21,19:31:6,5131.8208,N,3.5904,W,1.0982,4.1963,175.9834,-0.0176,0.0696,0.9529,0.7935,0.3662,-0.1221,7.3452
14/11/21,19:31:12,5131.8213,N,3.5904,W,0.9918,4.2186,175.9815,-0.0164,0.0703,0.9542,0.6104,0.2441,-0.2441,7.3452
14/11/21,19:31:18,5131.8218,N,3.5907,W,1.0396,4.1230,175.9770,-0.0167,0.0699,0.9535,0.4883,0.2441,-0.3052,7.4516
14/11/21,19:31:24,5131.8223,N,3.5916,W,1.0852,4.2302,175.9778,-0.0178,0.0698,0.9535,0.6714,0.1831,-0.1221,7.3097
14/11/21,19:31:30,5131.8228,N,3.5918,W,0.9897,4.1891,175.9776,-0.0170,0.0698,0.9518,0.9766,0.2441,0.0610,7.4516
14/11/21,19:31:36,5131.8228,N,3.5916,W,1.0626,4.1104,175.9734,-0.0167,0.0696,0.9535,0.7324,0.3662,-0.3052,7.2742
14/11/21,19:31:42,5131.8228,N,3.5921,W,0.9999,4.2075,175.9722,-0.0168,0.0697,0.9529,0.7935,0.1221,-0.3052,7.4161
14/11/21,19:31:48,5131.8228,N,3.5926,W,1.0853,4.1449,175.9722,-0.0172,0.0697,0.9535,0.8545,0.1221,0.1221,7.3806
14/11/21,19:31:54,5131.8232,N,3.5927,W,0.9790,4.1431,175.9700,-0.0170,0.0690,0.9526,0.4883,0.3662,-0.2441,7.3452
14/11/21,19:32:0,5131.8232,N,3.5928,W,1.0573,4.2280,175.9692,-0.0173,0.0701,0.9529,0.6104,0.1831,-0.2441,7.4161
14/11/21,19:32:6,5131.8242,N,3.5935,W,0.9620,4.1761,175.9668,-0.0172,0.0702,0.9530,0.6104,-0.1831,-0.1221,7.2742
14/11/21,19:32:12,5131.8242,N,3.5940,W,1.0721,4.1563,175.9625,-0.0166,0.0693,0.9514,0.4883,0.2441,-0.4272,7.4161
14/11/21,19:32:18,5131.8247,N,3.5938,W,0.9677,4.1894,175.9620,-0.0160,0.0697,0.9531,0.8545,0.3052,-0.1221,7.4516
14/11/21,19:32:24,5131.8252,N,3.5932,W,1.0788,4.1884,175.9613,-0.0168,0.0697,0.9524,0.8545,0.1221,-0.0610,7.3806
14/11/21,19:32:30,5131.8247,N,3.5924,W,0.9744,4.1679,175.9586,-0.0157,0.0691,0.9517,0.8545,0.1831,-0.2441,7.4516
14/11/21,19:32:36,5131.8242,N,3.5913,W,1.0045,4.2813,175.9600,-0.0165,0.0703,0.9520,0.7324,0.2441,-0.0610,7.3806
14/11/21,19:32:42,5131.8237,N,3.5893,W,0.9776,4.1819,175.9582,-0.0162,0.0693,0.9532,0.7324,0.0610,0.0000,7.3806
14/11/21,19:32:48,5131.8228,N,3.5861,W,1.0890,4.1673,175.9545,-0.0171,0.0696,0.9536,0.6104,0.3052,-0.3662,7.3452
14/11/21,19:32:54,5131.8228,N,3.5847,W,1.0237,4.2620,175.9539,-0.0172,0.0706,0.9518,0.7935,0.1831,-0.2441,7.4161
14/11/21,19:33:0,5131.8228,N,3.5839,W,1.0657,4.1670,175.9511,-0.0178,0.0691,0.9531,0.7935,0.2441,-0.1221,7.3806
14/11/21,19:33:6,5131.8218,N,3.5835,W,0.9589,4.1886,175.9521,-0.0168,0.0696,0.9532,0.6714,0.2441,0.0610,7.3452
14/11/21,19:33:12,5131.8218,N,3.5841,W,1.0660,4.1741,175.9510,-0.0167,0.0697,0.9536,0.6104,-0.1221,-0.0610,7.3806
14/11/21,19:33:18,5131.8223,N,3.5853,W,1.0447,4.2892,175.9526,-0.0176,0.0706,0.9534,0.7935,0.1831,-0.0610,7.4161
14/11/21,19:33:24,5131.8237,N,3.5878,W,1.0007,4.1975,175.9508,-0.0171,0.0707,0.9519,0.9155,0.0610,0.0000,7.5226
14/11/21,19:33:30,5131.8257,N,3.5919,W,0.9448,4.1111,175.9483,-0.0161,0.0690,0.9517,0.6714,0.3052,-0.1221,7.3806
14/11/21,19:33:36,5131.8267,N,3.5937,W,1.0410,4.1710,175.9481,-0.0177,0.0696,0.9525,0.5493,0.0610,-0.1221,7.3452
14/11/21,19:33:42,5131.8267,N,3.5943,W,0.9753,4.0911,175.9445,-0.0171,0.0692,0.9541,0.6104,0.3052,-0.2441,7.2742
14/11/21,19:33:48,5131.8271,N,3.5954,W,1.0610,4.1718,175.9461,-0.0176,0.0693,0.9528,0.7324,0.4272,0.0000,7.2387
14/11/21,19:33:54,5131.8262,N,3.5983,W,0.9576,4.2060,175.9456,-0.0166,0.0698,0.9532,0.6104,0.3052,-0.1221,7.3452
14/11/21,19:34:0,5131.8257,N,3.6012,W,1.0696,4.2012,175.9438,-0.0177,0.0698,0.9520,0.7324,0.2441,-0.1831,7.3452
14/11/21,19:34:6,5131.8252,N,3.6024,W,0.9760,4.1541,175.9407,-0.0165,0.0692,0.9525,0.6714,0.2441,-0.2441,7.3806
14/11/21,19:34:12,5131.8247,N,3.6031,W,1.0862,4.1666,175.9373,-0.0173,0.0693,0.9539,0.6714,0.0000,-0.3662,7.3806
14/11/21,19:34:18,5131.8247,N,3.6031,W,0.9930,4.2276,175.9355,-0.0171,0.0699,0.9524,0.7935,0.3052,-0.3052,7.3097
14/11/21,19:34:24,5131.8247,N,3.6024,W,0.9976,4.1248,175.9320,-0.0166,0.0687,0.9524,0.7324,0.1221,-0.1831,7.2742
14/11/21,19:34:30,5131.8242,N,3.6001,W,1.0536,4.2274,175.9325,-0.0187,0.0723,0.9539,0.7935,0.0610,-0.1221,7.4161
14/11/21,19:34:36,5131.8232,N,3.5992,W,1.0762,4.3423,175.9335,-0.0200,0.0831,0.9508,0.7324,0.1831,-0.1221,7.3806
14/11/21,19:34:42,5131.8228,N,3.5973,W,1.0293,4.2535,175.9295,-0.0166,0.0697,0.9536,0.9766,0.2441,-0.2441,7.4161
14/11/21,19:34:48,5131.8232,N,3.5958,W,1.0711,4.1575,175.9266,-0.0178,0.0691,0.9521,0.6714,0.1831,-0.1221,7.4161
14/11/21,19:34:54,5131.8228,N,3.5947,W,0.9638,4.1564,175.9243,-0.0165,0.0692,0.9536,0.7324,0.2441,-0.2441,7.2742
14/11/21,19:35:0,5131.8208,N,3.5982,W,1.0618,4.2062,175.9215,-0.0172,0.0698,0.9535,0.3052,-0.1831,-0.3662,7.4161
14/11/21,19:35:6,5131.8193,N,3.5920,W,0.9691,4.1521,175.9180,-0.0172,0.0698,0.9540,0.6104,-0.0610,-0.2441,7.2742
14/11/21,19:35:12,5131.8198,N,3.5839,W,0.9776,4.2701,175.9178,-0.0162,0.0708,0.9523,0.8545,0.3052,-0.2441,7.3452
14/11/21,19:35:18,5131.8145,N,3.5850,W,1.0190,4.1753,175.9164,-0.0172,0.0691,0.9530,0.6104,-0.3052,0.0610,7.2387
14/11/21,19:35:24,5131.8130,N,3.5834,W,1.1291,4.1596,175.9132,-0.0173,0.0695,0.9525,0.8545,0.2441,-0.3052,7.2742
14/11/21,19:35:30,5131.8135,N,3.5858,W,1.0279,4.2124,175.9110,-0.0170,0.0702,0.9530,0.6104,-0.1831,-0.3052,7.3452
14/11/21,19:35:36,5131.8169,N,3.5885,W,0.9470,4.1435,175.9069,-0.0162,0.0693,0.9524,0.4883,0.0610,-0.3052,7.4161
14/11/21,19:35:42,5131.8179,N,3.5906,W,0.8910,4.2432,175.9074,-0.0128,0.0737,0.9521,0.6714,0.2441,-0.1221,7.3452
14/11/21,19:35:48,5131.8174,N,3.5910,W,0.9953,4.2083,175.9051,-0.0176,0.0697,0.9540,0.6104,0.1831,-0.1831,7.2742
14/11/21,19:35:54,5131.8159,N,3.5937,W,1.0788,4.1397,175.9039,-0.0170,0.0698,0.9535,0.6714,0.3052,0.0000,7.3452
14/11/21,19:36:0,5131.8145,N,3.5984,W,0.9913,4.2098,175.9029,-0.0168,0.0698,0.9532,0.6104,0.1831,-0.2441,7.4161
14/11/21,19:36:6,5131.8096,N,3.6017,W,0.8854,4.1874,175.9025,-0.0159,0.0699,0.9526,0.6104,0.0610,0.0000,7.3452
14/11/21,19:36:12,5131.8057,N,3.6027,W,0.9950,4.2222,175.9008,-0.0167,0.0703,0.9532,0.6714,0.3052,-0.2441,7.3452
14/11/21,19:36:17,5131.8052,N,3.6028,W,0.9500,4.1290,175.8984,-0.0164,0.0698,0.9535,0.7935,-0.1221,-0.0610,7.3097
