Date,Time,Latitude,Hemisphere (N-S),Longitude,Hemisphere (E-W),Pitch,Roll,Heading,x_Acc,y_Acc,z_Acc,x_Gyro,y_Gyro,z_Gyro,Voltage
15/11/21,9:16:32,5131.8032,N,3.5922,W,0.0791,-0.0720,179.9964,-0.0333,-0.0343,0.9545,0.7324,0.2441,-0.3662,7.3097
15/11/21,9:16:36,5131.8022,N,3.5960,W,0.1585,-0.1431,179.9928,-0.0344,-0.0345,0.9554,0.7324,0.1831,-0.3662,7.3806
15/11/21,9:16:39,5131.8018,N,3.5981,W,0.2363,-0.2170,179.9884,-0.0337,-0.0349,0.9559,0.6104,0.1831,-0.4272,7.3806
15/11/21,9:16:42,5131.8013,N,3.6002,W,0.3157,-0.2898,179.9850,-0.0333,-0.0350,0.9561,0.7935,0.4272,-0.3052,7.3097
15/11/21,9:16:46,5131.8013,N,3.6012,W,0.3950,-0.3610,179.9816,-0.0343,-0.0345,0.9545,0.7935,0.2441,-0.3052,7.3806
15/11/21,9:16:48,5131.8008,N,3.6015,W,0.4740,-0.4320,179.9781,-0.0342,-0.0345,0.9557,0.8545,0.2441,-0.3052,7.3097
15/11/21,9:16:52,5131.8008,N,3.6019,W,0.5525,-0.5034,179.9756,-0.0343,-0.0348,0.9565,0.8545,0.2441,-0.1831,7.2742
15/11/21,9:16:56,5131.8008,N,3.6022,W,0.6306,-0.5774,179.9712,-0.0331,-0.0347,0.9559,0.7935,0.4272,-0.3662,7.2032
15/11/21,9:17:0,5131.8008,N,3.6024,W,0.7078,-0.6516,179.9672,-0.0328,-0.0352,0.9552,0.9155,0.4883,-0.3052,7.4871
15/11/21,9:17:3,5131.8013,N,3.6018,W,0.7854,-0.7227,179.9644,-0.0339,-0.0342,0.9570,0.9155,0.1831,-0.1831,7.2742
15/11/21,9:17:6,5131.8013,N,3.6012,W,0.8634,-0.7945,179.9591,-0.0334,-0.0342,0.9562,0.9766,0.3662,-0.4272,7.4161
15/11/21,9:17:10,5131.8008,N,3.6017,W,0.9402,-0.8680,179.9554,-0.0328,-0.0339,0.9548,0.9155,0.3662,-0.2441,7.2387
15/11/21,9:17:12,5131.7998,N,3.6027,W,1.0134,-0.9436,179.9510,-0.0328,-0.0345,0.9545,0.8545,0.1831,-0.3052,7.2387
15/11/21,9:17:16,5131.7993,N,3.6037,W,1.0895,-1.0172,179.9460,-0.0337,-0.0341,0.9543,0.7935,0.1831,-0.3662,7.3452
15/11/21,9:17:18,5131.7993,N,3.6050,W,1.1645,-1.0918,179.9431,-0.0337,-0.0349,0.9550,0.9155,0.3052,-0.1221,7.3097
15/11/21,9:17:22,5131.7988,N,3.6061,W,1.2399,-1.1663,179.9413,-0.0333,-0.0345,0.9557,0.9766,0.4272,0.0000,7.2387
15/11/21,9:17:26,5131.7983,N,3.6080,W,1.3175,-1.2402,179.9377,-0.0344,-0.0345,0.9558,0.7935,0.3662,-0.1831,7.3452
15/11/21,9:17:29,5131.7979,N,3.6089,W,1.3890,-1.3182,179.9332,-0.0330,-0.0347,0.9551,0.9155,0.3662,-0.2441,7.3452
15/11/21,9:17:33,5131.7969,N,3.6110,W,1.4631,-1.3944,179.9281,-0.0328,-0.0337,0.9563,0.9155,0.4272,-0.3052,7.2742
15/11/21,9:17:36,5131.7959,N,3.6122,W,1.5379,-1.4702,179.9234,-0.0338,-0.0343,0.9557,0.8545,0.3662,-0.2441,7.5581
15/11/21,9:17:40,5131.7954,N,3.6138,W,1.6016,-1.5527,179.9191,-0.0330,-0.0355,0.9557,0.9766,0.3052,-0.1831,7.3452
15/11/21,9:17:42,5131.7954,N,3.6143,W,1.6754,-1.6298,179.9124,-0.0338,-0.0345,0.9548,0.8545,0.4272,-0.4272,7.3097
15/11/21,9:17:46,5131.7944,N,3.6153,W,1.7323,-1.7193,179.9072,-0.0325,-0.0352,0.9563,0.6714,0.3052,-0.2441,7.2032
15/11/21,9:17:48,5131.7944,N,3.6165,W,1.7858,-1.8114,179.9011,-0.0320,-0.0348,0.9552,0.6714,0.4272,-0.3052,7.2742
15/11/21,9:17:52,5131.7954,N,3.6271,W,1.8556,-1.8912,179.8947,-0.0325,-0.0337,0.9550,0.7935,0.3052,-0.3662,7.2742
15/11/21,9:17:55,5131.7964,N,3.6347,W,1.9356,-1.9598,179.8904,-0.0341,-0.0345,0.9551,0.8545,0.1221,-0.1831,7.3097
15/11/21,9:17:58,5131.7974,N,3.6398,W,2.0078,-2.0351,179.8856,-0.0341,-0.0348,0.9553,0.9766,0.1831,-0.1831,7.3806
15/11/21,9:18:2,5131.7988,N,3.6434,W,1.9292,-2.0986,179.8824,-0.0326,-0.0348,0.9558,0.9766,0.4272,-0.0610,7.3097
15/11/21,9:18:6,5131.7998,N,3.6440,W,2.0418,-2.0831,179.8797,-0.0337,-0.0349,0.9561,0.6714,0.3052,-0.3052,7.3097
15/11/21,9:18:8,5131.8008,N,3.6435,W,1.9350,-2.0600,179.8772,-0.0336,-0.0347,0.9551,0.7935,0.2441,-0.3052,7.3097
15/11/21,9:18:12,5131.8027,N,3.6405,W,2.0476,-2.0428,179.8739,-0.0332,-0.0343,0.9556,0.9155,0.3052,-0.3662,7.3097
15/11/21,9:18:16,5131.8032,N,3.6401,W,1.9482,-2.0752,179.8688,-0.0330,-0.0345,0.9550,0.9155,0.3052,-0.3662,7.3806
15/11/21,9:18:19,5131.8032,N,3.6402,W,2.0517,-2.0254,179.8673,-0.0334,-0.0342,0.9546,0.6714,0.2441,-0.3052,7.3806
15/11/21,9:18:23,5131.8032,N,3.6403,W,1.9817,-2.1017,179.8619,-0.0333,-0.0348,0.9546,0.7324,0.2441,-0.2441,7.3806
15/11/21,9:18:27,5131.8032,N,3.6402,W,1.8910,-2.0374,179.8591,-0.0319,-0.0343,0.9552,0.6714,0.3052,-0.4883,7.3097
15/11/21,9:18:31,5131.8032,N,3.6405,W,1.9958,-1.9896,179.8580,-0.0330,-0.0334,0.9556,0.7935,0.2441,-0.2441,7.2742
15/11/21,9:18:34,5131.8032,N,3.6408,W,1.9990,-2.0910,179.8518,-0.0333,-0.0347,0.9553,0.9155,0.2441,-0.2441,7.4516
15/11/21,9:18:38,5131.8032,N,3.6413,W,2.1080,-2.1102,179.8507,-0.0337,-0.0350,0.9579,0.8545,0.2441,0.0000,7.2387
15/11/21,9:18:42,5131.8027,N,3.6420,W,2.0146,-2.0504,179.8507,-0.0326,-0.0338,0.9559,0.7935,0.3662,-0.1831,7.2742
15/11/21,9:18:46,5131.8027,N,3.6434,W,1.9209,-2.0988,179.8458,-0.0331,-0.0345,0.9558,0.7324,0.1831,-0.3052,7.3452
15/11/21,9:18:49,5131.8027,N,3.6443,W,2.0332,-2.1043,179.8452,-0.0331,-0.0352,0.9561,0.7935,0.3052,0.0000,7.4161
15/11/21,9:18:53,5131.8018,N,3.6456,W,1.9565,-2.0213,179.8466,-0.0331,-0.0343,0.9567,0.7935,0.3662,-0.1221,7.3452
15/11/21,9:18:57,5131.8022,N,3.6456,W,2.0496,-2.0764,179.8436,-0.0338,-0.0345,0.9558,0.9155,0.3662,-0.0610,7.3452
15/11/21,9:19:1,5131.8022,N,3.6454,W,1.9420,-2.0817,179.8407,-0.0332,-0.0348,0.9561,0.8545,0.1831,-0.2441,7.3452
15/11/21,9:19:4,5131.8022,N,3.6460,W,2.0536,-2.0813,179.8376,-0.0336,-0.0348,0.9556,0.6104,0.1831,-0.3052,7.3097
15/11/21,9:19:8,5131.8018,N,3.6466,W,1.9568,-2.1243,179.8328,-0.0331,-0.0353,0.9546,0.6714,0.1831,-0.3052,7.2387
15/11/21,9:19:12,5131.8018,N,3.6464,W,1.9434,-2.0061,179.8341,-0.0325,-0.0344,0.9540,0.9766,0.3052,-0.2441,7.2742
15/11/21,9:19:16,5131.8022,N,3.6458,W,2.0193,-2.0814,179.8282,-0.0330,-0.0341,0.9558,0.7935,0.3662,-0.3052,7.2387
15/11/21,9:19:19,5131.8027,N,3.6453,W,1.9130,-2.0883,179.8246,-0.0331,-0.0348,0.9550,0.8545,0.3052,-0.3052,7.3097
15/11/21,9:19:23,5131.8057,N,3.6405,W,2.0191,-2.0414,179.8229,-0.0337,-0.0342,0.9559,0.7324,0.3662,-0.3052,7.3097
15/11/21,9:19:27,5131.8091,N,3.6358,W,1.9531,-2.1188,179.8169,-0.0333,-0.0347,0.9572,0.9155,0.3052,-0.3052,7.2742
15/11/21,9:19:31,5131.8105,N,3.6336,W,1.8870,-2.0244,179.8173,-0.0323,-0.0350,0.9543,0.8545,0.2441,-0.2441,7.4516
15/11/21,9:19:34,5131.8115,N,3.6322,W,1.9934,-2.0531,179.8137,-0.0331,-0.0343,0.9550,0.7324,0.2441,-0.2441,7.3097
15/11/21,9:19:38,5131.8125,N,3.6301,W,2.0621,-2.1337,179.8075,-0.0337,-0.0348,0.9569,0.7935,0.3052,-0.3052,7.4161
15/11/21,9:19:42,5131.8140,N,3.6278,W,1.9927,-2.0410,179.8069,-0.0333,-0.0343,0.9550,0.9155,0.1831,-0.3662,7.3097
15/11/21,9:19:46,5131.8149,N,3.6261,W,1.9307,-2.1220,179.7997,-0.0330,-0.0344,0.9548,0.9155,0.2441,-0.4272,7.2742
15/11/21,9:19:49,5131.8164,N,3.6236,W,2.0292,-2.0592,179.7991,-0.0333,-0.0348,0.9557,0.8545,0.3052,-0.2441,7.3806
15/11/21,9:19:53,5131.8174,N,3.6210,W,2.1331,-2.0091,179.7976,-0.0344,-0.0342,0.9565,0.7935,0.2441,-0.3052,7.4161
15/11/21,9:19:57,5131.8179,N,3.6197,W,2.0308,-2.0318,179.7952,-0.0322,-0.0344,0.9537,0.8545,0.3662,-0.1221,7.2387
15/11/21,9:20:1,5131.8188,N,3.6184,W,2.0561,-2.1325,179.7883,-0.0342,-0.0352,0.9557,0.7324,0.2441,-0.3052,7.2387
15/11/21,9:20:4,5131.8198,N,3.6175,W,1.9550,-2.0889,179.7872,-0.0321,-0.0348,0.9547,0.7935,0.3052,-0.2441,7.4516
15/11/21,9:20:8,5131.8203,N,3.6167,W,2.0666,-2.0753,179.7856,-0.0332,-0.0348,0.9547,0.7935,0.1831,-0.1831,7.3097
15/11/21,9:20:12,5131.8213,N,3.6152,W,1.9601,-2.0781,179.7832,-0.0328,-0.0348,0.9548,1.0376,0.3052,-0.1831,7.2742
15/11/21,9:20:15,5131.8218,N,3.6142,W,1.8976,-2.1597,179.7778,-0.0325,-0.0349,0.9541,0.9155,0.0610,-0.2441,7.3452
15/11/21,9:20:18,5131.8223,N,3.6128,W,1.9941,-2.0928,179.7756,-0.0338,-0.0347,0.9552,0.8545,0.3662,-0.4272,7.4161
15/11/21,9:20:22,5131.8228,N,3.6111,W,1.9110,-2.0158,179.7767,-0.0328,-0.0345,0.9552,0.7935,0.2441,-0.1221,7.3097
15/11/21,9:20:26,5131.8228,N,3.6101,W,1.9669,-2.1052,179.7704,-0.0323,-0.0344,0.9553,0.6714,0.1831,-0.3052,7.2387
15/11/21,9:20:29,5131.8228,N,3.6094,W,1.9914,-1.9883,179.7718,-0.0330,-0.0345,0.9554,0.9766,0.1221,-0.2441,7.3097
15/11/21,9:20:33,5131.8232,N,3.6088,W,1.9753,-2.0888,179.7656,-0.0330,-0.0349,0.9557,0.8545,0.2441,-0.2441,7.3097
15/11/21,9:20:37,5131.8232,N,3.6085,W,2.0847,-2.0609,179.7651,-0.0334,-0.0348,0.9562,0.7935,0.1221,-0.1221,7.3452
15/11/21,9:20:41,5131.8237,N,3.6083,W,1.9828,-2.0887,179.7608,-0.0330,-0.0350,0.9558,0.8545,0.2441,-0.3052,7.2387
15/11/21,9:20:44,5131.8237,N,3.6082,W,2.0955,-2.0741,179.7574,-0.0337,-0.0348,0.9551,0.7324,0.3052,-0.3662,7.3097
15/11/21,9:20:48,5131.8237,N,3.6080,W,1.9880,-2.0752,179.7547,-0.0321,-0.0349,0.9572,0.8545,0.2441,-0.2441,7.3452
15/11/21,9:20:52,5131.8242,N,3.6078,W,1.8816,-2.0766,179.7501,-0.0325,-0.0347,0.9551,0.8545,0.3662,-0.4272,7.4516
15/11/21,9:20:55,5131.8242,N,3.6076,W,1.9830,-2.1174,179.7460,-0.0330,-0.0354,0.9548,0.8545,0.3052,-0.2441,7.3097
15/11/21,9:20:58,5131.8242,N,3.6073,W,2.0127,-2.2173,179.7398,-0.0332,-0.0358,0.9550,0.7324,0.3052,-0.2441,7.3452
15/11/21,9:21:2,5131.8247,N,3.6070,W,1.9843,-2.1047,179.7422,-0.0328,-0.0344,0.9554,0.7324,0.3052,-0.1221,7.3452
15/11/21,9:21:6,5131.8252,N,3.6067,W,1.9844,-1.9852,179.7448,-0.0331,-0.0345,0.9546,0.9766,0.3052,-0.1221,7.3097
15/11/21,9:21:9,5131.8252,N,3.6063,W,1.9289,-2.0711,179.7403,-0.0322,-0.0345,0.9553,0.7935,0.3052,-0.1221,7.3452
15/11/21,9:21:12,5131.8252,N,3.6059,W,1.9637,-2.1690,179.7337,-0.0323,-0.0350,0.9556,0.7935,0.3052,-0.3052,7.2387
15/11/21,9:21:16,5131.8257,N,3.6056,W,1.9874,-2.0520,179.7337,-0.0330,-0.0352,0.9551,0.9155,0.3662,-0.3662,7.3097
15/11/21,9:21:19,5131.8257,N,3.6054,W,1.8806,-2.0628,179.7313,-0.0322,-0.0344,0.9561,0.8545,0.1831,-0.1831,7.3452
15/11/21,9:21:23,5131.8257,N,3.6051,W,1.9925,-2.0409,179.7276,-0.0323,-0.0343,0.9559,0.7324,0.3052,-0.4272,7.3452
15/11/21,9:21:27,5131.8257,N,3.6051,W,2.0967,-2.0753,179.7232,-0.0336,-0.0342,0.9559,0.6104,0.1831,-0.3052,7.3806
15/11/21,9:21:31,5131.8257,N,3.6054,W,1.9922,-2.0426,179.7204,-0.0326,-0.0341,0.9550,0.8545,0.3052,-0.3662,7.3452
15/11/21,9:21:34,5131.8257,N,3.6055,W,1.8890,-2.0627,179.7188,-0.0328,-0.0342,0.9553,0.7935,0.3662,-0.0610,7.3806
15/11/21,9:21:38,5131.8257,N,3.6058,W,2.0020,-2.0416,179.7184,-0.0325,-0.0343,0.9552,0.9766,0.3662,-0.0610,7.3452
15/11/21,9:21:42,5131.8257,N,3.6062,W,2.0752,-2.1193,179.7124,-0.0338,-0.0345,0.9545,0.7935,0.3662,-0.3052,7.2032
15/11/21,9:21:46,5131.8252,N,3.6068,W,1.9678,-2.0958,179.7093,-0.0321,-0.0350,0.9565,0.8545,0.1831,-0.3662,7.3097
15/11/21,9:21:49,5131.8262,N,3.6059,W,1.8958,-2.1708,179.7041,-0.0326,-0.0353,0.9558,0.7324,0.1831,-0.2441,7.3806
15/11/21,9:21:53,5131.8271,N,3.6046,W,1.9499,-2.0654,179.7044,-0.0328,-0.0341,0.9562,0.8545,0.2441,-0.3052,7.3097
15/11/21,9:21:57,5131.8271,N,3.6047,W,1.9439,-2.1677,179.6994,-0.0325,-0.0353,0.9551,0.7935,0.3052,-0.1221,7.3806
15/11/21,9:22:1,5131.8267,N,3.6049,W,1.9909,-2.0600,179.6992,-0.0331,-0.0348,0.9554,0.7935,0.1221,-0.3662,7.3097
15/11/21,9:22:4,5131.8267,N,3.6054,W,1.9254,-1.9667,179.7009,-0.0331,-0.0342,0.9550,0.7935,0.3662,-0.1221,7.2742
15/11/21,9:22:8,5131.8267,N,3.6055,W,1.9383,-2.0686,179.6930,-0.0325,-0.0353,0.9570,0.7935,0.0610,-0.4272,7.3097
15/11/21,9:22:12,5131.8267,N,3.6057,W,1.9975,-2.1550,179.6886,-0.0326,-0.0349,0.9546,0.7935,0.1831,-0.1221,7.3097
15/11/21,9:22:16,5131.8267,N,3.6062,W,1.9344,-2.0604,179.6897,-0.0325,-0.0348,0.9548,0.6714,0.3052,-0.1831,7.3452
15/11/21,9:22:19,5131.8252,N,3.6080,W,2.0444,-2.0347,179.6880,-0.0332,-0.0342,0.9548,0.6104,0.1831,-0.2441,7.2387
15/11/21,9:22:23,5131.8228,N,3.6130,W,1.9457,-2.0677,179.6841,-0.0325,-0.0345,0.9546,0.7324,0.4272,-0.2441,7.3452
15/11/21,9:22:27,5131.8203,N,3.6172,W,2.0273,-2.1364,179.6786,-0.0333,-0.0353,0.9547,0.6714,0.1221,-0.3052,7.3806
15/11/21,9:22:31,5131.8184,N,3.6199,W,1.9807,-2.0302,179.6790,-0.0332,-0.0343,0.9569,0.7935,0.2441,-0.3052,7.2387
15/11/21,9:22:34,5131.8174,N,3.6213,W,1.9655,-2.1332,179.6716,-0.0328,-0.0353,0.9556,0.6104,0.3052,-0.3662,7.2742
15/11/21,9:22:38,5131.8169,N,3.6221,W,1.9786,-2.0160,179.6712,-0.0330,-0.0342,0.9557,0.7935,0.2441,-0.4272,7.2742
15/11/21,9:22:42,5131.8174,N,3.6222,W,1.9747,-2.1197,179.6644,-0.0330,-0.0347,0.9550,0.6714,0.1831,-0.3052,7.4161
15/11/21,9:22:46,5131.8179,N,3.6212,W,2.0403,-2.0213,179.6657,-0.0339,-0.0339,0.9550,0.8545,0.2441,-0.1831,7.3452
15/11/21,9:22:49,5131.8184,N,3.6204,W,1.9614,-2.0885,179.6601,-0.0333,-0.0344,0.9557,0.8545,0.1831,-0.3052,7.3097
15/11/21,9:22:53,5131.8179,N,3.6207,W,1.9912,-1.9726,179.6631,-0.0330,-0.0341,0.9557,0.9766,0.1831,-0.0610,7.2742
15/11/21,9:22:57,5131.8179,N,3.6210,W,1.9912,-2.0764,179.6545,-0.0332,-0.0343,0.9552,0.6714,0.2441,-0.4883,7.2032
15/11/21,9:23:1,5131.8184,N,3.6212,W,2.0321,-2.1730,179.6490,-0.0333,-0.0349,0.9548,0.7324,0.3662,-0.1831,7.4161
15/11/21,9:23:5,5131.8198,N,3.6168,W,1.9552,-2.0914,179.6474,-0.0321,-0.0345,0.9548,0.6714,0.3662,-0.4272,7.3452
15/11/21,9:23:6,5131.8198,N,3.6167,W,2.0532,-2.0306,179.6457,-0.0330,-0.0347,0.9547,0.6714,0.2441,-0.3662,7.3097
15/11/21,9:23:12,5131.8203,N,3.6160,W,1.9739,-2.1008,179.6406,-0.0328,-0.0353,0.9553,0.7324,-0.0610,-0.2441,7.2742
15/11/21,9:23:16,5131.8213,N,3.6146,W,1.9190,-1.9999,179.6419,-0.0325,-0.0343,0.9543,0.7935,0.3662,-0.1831,7.4161
15/11/21,9:23:19,5131.8218,N,3.6136,W,1.9606,-2.0966,179.6347,-0.0323,-0.0343,0.9545,0.7324,0.4883,-0.3662,7.3452
15/11/21,9:23:23,5131.8218,N,3.6139,W,2.0598,-2.0350,179.6335,-0.0332,-0.0348,0.9568,0.8545,0.3052,-0.3052,7.3097
15/11/21,9:23:27,5131.8208,N,3.6154,W,1.9644,-2.0785,179.6299,-0.0321,-0.0352,0.9551,0.9155,0.1831,-0.1831,7.3097
15/11/21,9:23:31,5131.8198,N,3.6168,W,1.8947,-1.9883,179.6285,-0.0325,-0.0343,0.9558,0.7324,0.2441,-0.4272,7.4871
15/11/21,9:23:34,5131.8198,N,3.6171,W,1.9464,-2.0811,179.6227,-0.0325,-0.0349,0.9557,0.6714,0.4272,-0.2441,7.3452
15/11/21,9:23:38,5131.8198,N,3.6174,W,2.0586,-2.0879,179.6198,-0.0331,-0.0348,0.9554,0.6714,0.3052,-0.2441,7.3452
15/11/21,9:23:42,5131.8198,N,3.6173,W,1.9555,-2.1067,179.6158,-0.0328,-0.0352,0.9545,0.7324,0.4272,-0.3052,7.3452
15/11/21,9:23:46,5131.8198,N,3.6173,W,1.9757,-1.9904,179.6159,-0.0327,-0.0344,0.9543,0.7935,0.3052,-0.3662,7.2742
15/11/21,9:23:49,5131.8198,N,3.6174,W,1.8937,-2.0543,179.6105,-0.0317,-0.0342,0.9548,0.6104,0.3662,-0.3052,7.3097
15/11/21,9:23:53,5131.8198,N,3.6178,W,1.9928,-2.1026,179.6045,-0.0326,-0.0348,0.9540,0.5493,0.3052,-0.4272,7.4161
15/11/21,9:23:57,5131.8198,N,3.6185,W,1.8916,-2.0543,179.6034,-0.0326,-0.0348,0.9546,0.7935,0.1221,-0.2441,7.4161
15/11/21,9:24:1,5131.8184,N,3.6200,W,1.9617,-2.1351,179.5969,-0.0323,-0.0353,0.9542,0.6714,0.3052,-0.3662,7.3097
15/11/21,9:24:4,5131.8174,N,3.6216,W,1.9195,-2.0300,179.5954,-0.0325,-0.0350,0.9556,0.6104,0.5493,-0.4883,7.3452
15/11/21,9:24:8,5131.8164,N,3.6226,W,1.9585,-2.1280,179.5877,-0.0326,-0.0354,0.9557,0.6104,0.2441,-0.4272,7.3097
15/11/21,9:24:11,5131.8159,N,3.6234,W,2.0086,-2.0213,179.5875,-0.0333,-0.0339,0.9535,0.7324,0.3662,-0.3662,7.2742
15/11/21,9:24:14,5131.8179,N,3.6206,W,1.9178,-2.0729,179.5824,-0.0326,-0.0343,0.9552,0.7935,0.2441,-0.3052,7.3806
15/11/21,9:24:18,5131.8169,N,3.6228,W,1.9771,-2.1615,179.5751,-0.0326,-0.0355,0.9553,0.5493,0.1831,-0.4272,7.2387
15/11/21,9:24:22,5131.8120,N,3.6307,W,1.8907,-2.0888,179.5748,-0.0321,-0.0354,0.9554,0.7935,0.2441,-0.2441,7.3452
15/11/21,9:24:26,5131.8086,N,3.6361,W,1.9961,-2.0483,179.5730,-0.0325,-0.0345,0.9556,0.5493,0.1221,-0.3052,7.3452
15/11/21,9:24:29,5131.8076,N,3.6371,W,1.9179,-2.1180,179.5669,-0.0326,-0.0348,0.9543,0.6714,0.1831,-0.3662,7.3452
15/11/21,9:24:33,5131.8105,N,3.6329,W,1.9993,-2.0349,179.5676,-0.0328,-0.0345,0.9552,0.7935,0.1221,-0.1831,7.3452
15/11/21,9:24:37,5131.8145,N,3.6267,W,1.8971,-2.0613,179.5635,-0.0327,-0.0342,0.9559,0.7324,0.3052,-0.3052,7.3806
15/11/21,9:24:41,5131.8164,N,3.6250,W,1.9898,-2.1139,179.5591,-0.0325,-0.0349,0.9554,0.7935,0.0610,-0.2441,7.3452
15/11/21,9:24:44,5131.8198,N,3.6186,W,1.9116,-2.0312,179.5587,-0.0322,-0.0343,0.9562,0.6104,0.0610,-0.3052,7.3097
15/11/21,9:24:48,5131.8237,N,3.6122,W,1.9567,-2.1272,179.5516,-0.0323,-0.0350,0.9546,0.6714,0.4883,-0.3662,7.3452
15/11/21,9:24:52,5131.8262,N,3.6075,W,1.9077,-2.0220,179.5507,-0.0322,-0.0347,0.9547,0.7935,0.1831,-0.4272,7.3452
15/11/21,9:24:56,5131.8286,N,3.6026,W,1.9430,-2.1226,179.5436,-0.0322,-0.0349,0.9552,0.4272,0.1221,-0.3662,7.3452
15/11/21,9:24:59,5131.8301,N,3.6000,W,1.9376,-2.0063,179.5444,-0.0323,-0.0345,0.9543,0.6714,0.1221,-0.3052,7.3097
15/11/21,9:25:3,5131.8301,N,3.5994,W,1.9910,-2.0963,179.5380,-0.0328,-0.0344,0.9550,0.7935,0.2441,-0.3052,7.3452
15/11/21,9:25:7,5131.8286,N,3.6015,W,1.8837,-2.1000,179.5352,-0.0323,-0.0350,0.9547,0.7935,0.2441,-0.2441,7.3097
15/11/21,9:25:11,5131.8262,N,3.6059,W,1.9966,-2.1050,179.5323,-0.0326,-0.0352,0.9553,0.7324,0.3662,-0.2441,7.4161
15/11/21,9:25:13,5131.8247,N,3.6081,W,1.8911,-2.1173,179.5269,-0.0322,-0.0353,0.9552,0.4883,0.3662,-0.4883,7.2032
15/11/21,9:25:17,5131.8237,N,3.6099,W,1.9899,-2.0508,179.5252,-0.0327,-0.0345,0.9546,0.7935,0.6104,-0.3662,7.3097
15/11/21,9:25:21,5131.8237,N,3.6097,W,1.9006,-2.1051,179.5189,-0.0319,-0.0350,0.9542,0.6714,0.3052,-0.4272,7.2032
15/11/21,9:25:24,5131.8237,N,3.6096,W,1.9944,-2.0351,179.5180,-0.0321,-0.0348,0.9543,0.7324,0.3662,-0.3052,7.3097
15/11/21,9:25:28,5131.8232,N,3.6097,W,1.8866,-2.0283,179.5167,-0.0320,-0.0339,0.9550,0.7324,0.2441,-0.1221,7.3452
15/11/21,9:25:31,5131.8232,N,3.6100,W,1.9468,-2.1146,179.5124,-0.0319,-0.0344,0.9554,0.7324,0.1831,-0.1221,7.3097
15/11/21,9:25:34,5131.8218,N,3.6118,W,2.0181,-2.0232,179.5100,-0.0330,-0.0347,0.9551,0.5493,0.3052,-0.5493,7.3097
15/11/21,9:25:38,5131.8193,N,3.6160,W,1.9408,-2.0901,179.5055,-0.0326,-0.0349,0.9570,0.9766,0.2441,-0.1831,7.2387
15/11/21,9:25:41,5131.8164,N,3.6206,W,1.8328,-2.1013,179.4996,-0.0319,-0.0349,0.9546,0.4883,0.1221,-0.5493,7.2387
15/11/21,9:25:44,5131.8149,N,3.6230,W,1.9439,-2.0717,179.4967,-0.0336,-0.0344,0.9553,0.7324,0.3662,-0.3662,7.3452
15/11/21,9:25:48,5131.8130,N,3.6271,W,2.0287,-2.1376,179.4900,-0.0327,-0.0348,0.9547,0.7324,0.2441,-0.4272,7.3806
15/11/21,9:25:52,5131.8179,N,3.6191,W,1.9268,-2.0976,179.4858,-0.0327,-0.0353,0.9552,0.6104,0.3052,-0.5493,7.3806
15/11/21,9:25:56,5131.8184,N,3.6190,W,1.8980,-1.9856,179.4857,-0.0321,-0.0347,0.9570,0.6714,0.2441,-0.3662,7.4161
15/11/21,9:25:59,5131.8179,N,3.6194,W,1.9959,-2.0310,179.4798,-0.0338,-0.0343,0.9570,0.7324,0.1221,-0.4272,7.3097
15/11/21,9:26:3,5131.8169,N,3.6214,W,1.9129,-2.0934,179.4733,-0.0330,-0.0342,0.9556,0.7324,0.3052,-0.4272,7.2387
15/11/21,9:26:7,5131.8159,N,3.6229,W,1.9394,-1.9780,179.4750,-0.0321,-0.0343,0.9564,0.7935,0.3662,-0.1831,7.2387
15/11/21,9:26:10,5131.8140,N,3.6260,W,1.9641,-2.0784,179.4694,-0.0327,-0.0347,0.9556,0.7935,0.3052,-0.1831,7.2742
15/11/21,9:26:11,5131.8140,N,3.6262,W,2.0325,-1.9822,179.4695,-0.0331,-0.0343,0.9557,0.8545,0.2441,-0.3052,7.2387
15/11/21,9:26:17,5131.8110,N,3.6307,W,1.9726,-2.0670,179.4645,-0.0323,-0.0353,0.9546,0.6104,0.3052,-0.1831,7.3452
15/11/21,9:26:21,5131.8110,N,3.6318,W,1.8890,-1.9890,179.4633,-0.0320,-0.0337,0.9564,0.7324,0.0610,-0.3662,7.2032
15/11/21,9:26:24,5131.8105,N,3.6325,W,1.8856,-2.0934,179.4555,-0.0315,-0.0350,0.9568,0.6104,0.1831,-0.4272,7.3452
15/11/21,9:26:28,5131.8105,N,3.6320,W,1.9772,-2.0217,179.4570,-0.0322,-0.0344,0.9558,0.9155,0.1221,-0.0610,7.3097
15/11/21,9:26:32,5131.8101,N,3.6320,W,1.9044,-2.0944,179.4518,-0.0322,-0.0347,0.9570,0.7935,0.3052,-0.2441,7.3097
15/11/21,9:26:36,5131.8110,N,3.6308,W,1.9889,-2.0149,179.4490,-0.0322,-0.0347,0.9570,0.7935,0.1221,-0.5493,7.2742
15/11/21,9:26:39,5131.8110,N,3.6307,W,1.9537,-2.1092,179.4442,-0.0328,-0.0347,0.9558,0.9766,0.2441,-0.1221,7.3452
15/11/21,9:26:43,5131.8110,N,3.6304,W,1.9883,-1.9961,179.4465,-0.0327,-0.0350,0.9567,0.7935,0.3052,-0.1221,7.2032
15/11/21,9:26:47,5131.8110,N,3.6302,W,1.9462,-2.0902,179.4412,-0.0322,-0.0354,0.9543,0.7324,0.1831,-0.1831,7.4161
15/11/21,9:26:51,5131.8110,N,3.6300,W,1.9374,-2.1930,179.4321,-0.0325,-0.0350,0.9554,0.7324,0.3052,-0.5493,7.2387
15/11/21,9:26:54,5131.8110,N,3.6298,W,1.9757,-2.0810,179.4314,-0.0330,-0.0348,0.9558,0.7935,0.3662,-0.4272,7.4516
15/11/21,9:26:58,5131.8110,N,3.6295,W,1.8679,-2.0700,179.4280,-0.0322,-0.0347,0.9550,0.6714,0.2441,-0.3662,7.3097
15/11/21,9:27:2,5131.8115,N,3.6294,W,1.9459,-2.1429,179.4229,-0.0321,-0.0355,0.9559,0.7935,0.3052,-0.2441,7.2742
15/11/21,9:27:6,5131.8115,N,3.6294,W,1.8990,-2.0368,179.4237,-0.0319,-0.0345,0.9541,0.7935,0.2441,-0.2441,7.2387
15/11/21,9:27:9,5131.8120,N,3.6291,W,1.8949,-2.1400,179.4153,-0.0316,-0.0349,0.9546,0.7324,0.2441,-0.4883,7.2742
15/11/21,9:27:13,5131.8125,N,3.6286,W,1.9350,-2.0280,179.4158,-0.0320,-0.0348,0.9557,0.9155,0.1831,-0.3052,7.2742
15/11/21,9:27:17,5131.8125,N,3.6279,W,1.9559,-2.1297,179.4090,-0.0326,-0.0356,0.9551,0.7324,0.3052,-0.3052,7.3452
15/11/21,9:27:20,5131.8149,N,3.6246,W,1.8491,-2.1216,179.4043,-0.0319,-0.0355,0.9558,0.5493,0.3662,-0.4883,7.2387
15/11/21,9:27:21,5131.8159,N,3.6235,W,1.9461,-2.0611,179.4025,-0.0330,-0.0342,0.9548,0.6714,0.1221,-0.3662,7.3806
15/11/21,9:27:27,5131.8193,N,3.6186,W,2.0233,-2.1330,179.3962,-0.0334,-0.0354,0.9561,0.8545,0.1831,-0.3662,7.3452
15/11/21,9:27:31,5131.8208,N,3.6150,W,1.9147,-2.1445,179.3938,-0.0326,-0.0358,0.9550,0.7324,0.0000,-0.1831,7.2387
15/11/21,9:27:34,5131.8223,N,3.6131,W,1.9554,-2.0315,179.3942,-0.0322,-0.0350,0.9557,0.9155,0.5493,-0.3052,7.2387
15/11/21,9:27:38,5131.8232,N,3.6109,W,1.9712,-2.1334,179.3868,-0.0328,-0.0356,0.9550,0.7935,0.3052,-0.3662,7.2742
15/11/21,9:27:41,5131.8242,N,3.6091,W,1.9993,-2.0189,179.3869,-0.0331,-0.0347,0.9542,0.7935,0.1831,-0.3662,7.4516
15/11/21,9:27:44,5131.8247,N,3.6077,W,1.9082,-2.0699,179.3831,-0.0319,-0.0345,0.9540,0.7935,0.2441,-0.1831,7.2742
15/11/21,9:27:48,5131.8252,N,3.6067,W,1.9633,-2.1595,179.3774,-0.0322,-0.0353,0.9528,0.7324,0.2441,-0.2441,7.3806
15/11/21,9:27:52,5131.8252,N,3.6061,W,1.9737,-2.0421,179.3769,-0.0328,-0.0347,0.9546,0.7935,0.3052,-0.4272,7.3452
15/11/21,9:27:56,5131.8252,N,3.6059,W,1.9323,-2.1372,179.3705,-0.0323,-0.0355,0.9558,0.6714,0.1831,-0.3052,7.2387
15/11/21,9:27:59,5131.8252,N,3.6058,W,2.0417,-2.1075,179.3683,-0.0328,-0.0355,0.9552,0.7324,0.1831,-0.3052,7.3806
15/11/21,9:28:3,5131.8252,N,3.6058,W,1.9366,-2.0792,179.3642,-0.0334,-0.0350,0.9556,0.6714,0.3052,-0.4883,7.5935
15/11/21,9:28:7,5131.8252,N,3.6063,W,1.9790,-1.9687,179.3636,-0.0323,-0.0345,0.9547,0.8545,0.1831,-0.4272,7.2387
15/11/21,9:28:11,5131.8247,N,3.6069,W,1.9396,-2.0634,179.3582,-0.0320,-0.0355,0.9559,0.7935,0.1831,-0.1831,7.3452
15/11/21,9:28:14,5131.8247,N,3.6074,W,2.0165,-2.1380,179.3525,-0.0330,-0.0350,0.9551,0.5493,0.1221,-0.3052,7.2742
15/11/21,9:28:18,5131.8247,N,3.6079,W,1.9137,-2.0965,179.3507,-0.0332,-0.0355,0.9557,0.7324,0.1831,-0.3052,7.2742
15/11/21,9:28:22,5131.8247,N,3.6086,W,2.0141,-2.0390,179.3494,-0.0331,-0.0344,0.9559,0.7935,0.2441,-0.3052,7.3806
15/11/21,9:28:26,5131.8247,N,3.6091,W,1.9066,-2.0486,179.3464,-0.0325,-0.0342,0.9547,0.9155,0.1221,-0.2441,7.3452
15/11/21,9:28:29,5131.8247,N,3.6096,W,1.9988,-2.1040,179.3424,-0.0327,-0.0348,0.9543,0.8545,0.2441,-0.1831,7.2742
15/11/21,9:28:33,5131.8247,N,3.6100,W,1.8921,-2.0853,179.3397,-0.0320,-0.0349,0.9542,0.7324,0.3052,-0.3052,7.2387
15/11/21,9:28:37,5131.8247,N,3.6102,W,2.0029,-2.0870,179.3364,-0.0332,-0.0349,0.9551,0.7935,0.1221,-0.3052,7.3097
15/11/21,9:28:41,5131.8242,N,3.6103,W,1.9157,-2.0150,179.3373,-0.0323,-0.0341,0.9556,0.9155,0.3052,-0.1221,7.3806
15/11/21,9:28:44,5131.8242,N,3.6104,W,1.9614,-2.1101,179.3308,-0.0325,-0.0348,0.9552,0.6714,0.3052,-0.3052,7.3806
15/11/21,9:28:48,5131.8242,N,3.6101,W,1.8682,-2.0494,179.3319,-0.0322,-0.0349,0.9548,0.8545,0.3662,-0.0610,7.2387
15/11/21,9:28:52,5131.8242,N,3.6100,W,1.9758,-2.0730,179.3272,-0.0328,-0.0347,0.9547,0.8545,0.2441,-0.3662,7.2387
15/11/21,9:28:56,5131.8242,N,3.6108,W,2.0569,-2.1428,179.3228,-0.0332,-0.0348,0.9547,0.6104,0.1221,-0.1831,7.2387
15/11/21,9:28:58,5131.8242,N,3.6106,W,1.9716,-2.0696,179.3215,-0.0325,-0.0343,0.9554,0.6104,0.1831,-0.3662,7.2742
15/11/21,9:29:2,5131.8242,N,3.6105,W,1.8788,-2.1159,179.3161,-0.0320,-0.0350,0.9552,0.7935,0.3662,-0.3662,7.3097
15/11/21,9:29:6,5131.8242,N,3.6103,W,1.9611,-2.0345,179.3150,-0.0326,-0.0342,0.9556,0.7324,0.1221,-0.3662,7.3452
15/11/21,9:29:9,5131.8242,N,3.6100,W,1.9385,-2.1348,179.3066,-0.0325,-0.0349,0.9546,0.7324,0.3052,-0.4883,7.4516
15/11/21,9:29:13,5131.8247,N,3.6097,W,1.8895,-2.0317,179.3056,-0.0322,-0.0354,0.9542,0.6714,0.3662,-0.4272,7.2032
15/11/21,9:29:17,5131.8247,N,3.6095,W,1.9375,-2.1247,179.2993,-0.0321,-0.0350,0.9565,0.6714,0.0610,-0.3052,7.3097
15/11/21,9:29:21,5131.8247,N,3.6095,W,1.9991,-2.0233,179.3000,-0.0327,-0.0348,0.9547,0.8545,0.3052,-0.2441,7.3097
15/11/21,9:29:23,5131.8247,N,3.6096,W,1.9612,-2.1186,179.2941,-0.0327,-0.0354,0.9550,0.7935,0.1831,-0.2441,7.2032
15/11/21,9:29:27,5131.8247,N,3.6094,W,2.0225,-2.0182,179.2943,-0.0332,-0.0345,0.9545,0.8545,0.1221,-0.3052,7.3097
15/11/21,9:29:31,5131.8247,N,3.6089,W,1.9274,-2.0615,179.2913,-0.0321,-0.0345,0.9559,0.7324,0.3052,-0.1221,7.2742
15/11/21,9:29:34,5131.8247,N,3.6087,W,1.9665,-2.1576,179.2853,-0.0325,-0.0353,0.9551,0.8545,0.3662,-0.2441,7.2742
15/11/21,9:29:38,5131.8247,N,3.6083,W,1.9669,-2.0388,179.2854,-0.0328,-0.0352,0.9565,0.9155,0.4272,-0.3662,7.4161
15/11/21,9:29:42,5131.8252,N,3.6079,W,1.9387,-2.1383,179.2793,-0.0325,-0.0353,0.9554,0.6714,0.2441,-0.2441,7.3452
15/11/21,9:29:46,5131.8252,N,3.6077,W,2.0036,-2.0397,179.2788,-0.0330,-0.0348,0.9553,0.7935,0.3052,-0.3662,7.3097
15/11/21,9:29:49,5131.8252,N,3.6075,W,2.0361,-2.1372,179.2738,-0.0336,-0.0345,0.9547,0.9155,0.3662,-0.1221,7.2387
15/11/21,9:29:53,5131.8257,N,3.6069,W,1.9486,-2.0679,179.2735,-0.0322,-0.0344,0.9552,0.6714,0.3052,-0.2441,7.2032
15/11/21,9:29:57,5131.8257,N,3.6066,W,1.9432,-2.1708,179.2673,-0.0325,-0.0350,0.9550,0.7324,0.3052,-0.2441,7.2387
15/11/21,9:30:1,5131.8257,N,3.6062,W,1.9703,-2.0557,179.2674,-0.0328,-0.0345,0.9562,0.7935,0.3662,-0.3662,7.3452
15/11/21,9:30:4,5131.8257,N,3.6060,W,1.8636,-2.0645,179.2626,-0.0325,-0.0343,0.9541,0.7935,0.2441,-0.4272,7.3806
15/11/21,9:30:8,5131.8262,N,3.6058,W,1.9487,-2.1299,179.2572,-0.0321,-0.0353,0.9531,0.6714,0.1831,-0.3052,7.3097
15/11/21,9:30:11,5131.8262,N,3.6055,W,1.9739,-2.0134,179.2579,-0.0327,-0.0344,0.9542,0.9155,0.2441,-0.3052,7.4161
15/11/21,9:30:14,5131.8262,N,3.6052,W,2.0203,-2.1064,179.2508,-0.0336,-0.0350,0.9552,0.8545,0.3052,-0.3662,7.2032
15/11/21,9:30:18,5131.8262,N,3.6048,W,1.9136,-2.0707,179.1015,-0.0319,-0.0345,0.9543,0.9155,0.4272,-15.6250,7.3452
15/11/21,9:30:22,5131.8262,N,3.6044,W,2.0084,-2.1245,179.0964,-0.0327,-0.0350,0.9550,0.6104,0.2441,-0.3052,7.3452
15/11/21,9:30:26,5131.8262,N,3.6040,W,1.9481,-2.0289,179.0972,-0.0331,-0.0348,0.9553,0.4883,0.1831,-0.2441,7.3452
15/11/21,9:30:29,5131.8262,N,3.6036,W,1.8948,-2.1150,179.0915,-0.0316,-0.0355,0.9570,0.9155,0.3052,-0.2441,7.3097
15/11/21,9:30:33,5131.8262,N,3.6035,W,1.9826,-2.1800,179.0855,-0.0323,-0.0359,0.9557,0.6104,0.3662,-0.3662,7.3452
15/11/21,9:30:37,5131.8262,N,3.6035,W,1.8829,-2.1347,179.0825,-0.0317,-0.0359,0.9557,0.8545,0.4272,-0.4272,7.2742
15/11/21,9:30:41,5131.8262,N,3.6035,W,1.9938,-2.1197,179.0804,-0.0323,-0.0355,0.9548,0.7324,0.1221,-0.2441,7.4161
15/11/21,9:30:44,5131.8267,N,3.6034,W,1.8857,-2.1056,179.0770,-0.0321,-0.0353,0.9556,0.6104,0.1831,-0.3662,7.3097
15/11/21,9:30:48,5131.8262,N,3.6037,W,1.9955,-2.0794,179.0748,-0.0333,-0.0348,0.9557,0.6104,0.1831,-0.3052,7.3452
15/11/21,9:30:52,5131.8262,N,3.6050,W,1.9301,-2.1584,179.0693,-0.0332,-0.0348,0.9550,0.7935,0.3052,-0.2441,7.2742
15/11/21,9:30:56,5131.8262,N,3.6053,W,1.9297,-2.0425,179.0689,-0.0322,-0.0353,0.9559,0.6104,0.1221,-0.4272,7.4161
15/11/21,9:30:59,5131.8262,N,3.6055,W,2.0371,-2.0696,179.0658,-0.0332,-0.0344,0.9563,0.7935,0.3052,-0.1831,7.2387
15/11/21,9:31:3,5131.8257,N,3.6060,W,1.9351,-2.0997,179.0609,-0.0326,-0.0350,0.9553,0.7935,0.1831,-0.3662,7.3097
15/11/21,9:31:6,5131.8257,N,3.6063,W,1.9875,-2.1917,179.0540,-0.0326,-0.0355,0.9576,0.6104,0.1831,-0.3662,7.2742
15/11/21,9:31:9,5131.8257,N,3.6065,W,1.9134,-2.1037,179.0532,-0.0319,-0.0352,0.9562,0.7935,0.1221,-0.3662,7.3097
15/11/21,9:31:13,5131.8257,N,3.6068,W,1.9418,-1.9906,179.0538,-0.0320,-0.0349,0.9553,0.6714,0.1221,-0.3052,7.3097
15/11/21,9:31:17,5131.8252,N,3.6071,W,1.8886,-2.0792,179.0488,-0.0314,-0.0350,0.9556,0.7324,0.1831,-0.1831,7.2742
15/11/21,9:31:21,5131.8252,N,3.6076,W,1.9653,-2.1523,179.0426,-0.0319,-0.0350,0.9547,0.6714,0.0610,-0.3662,7.2742
15/11/21,9:31:24,5131.8252,N,3.6079,W,1.9435,-2.0382,179.0438,-0.0326,-0.0350,0.9543,0.6714,0.1221,-0.2441,7.4161
15/11/21,9:31:28,5131.8252,N,3.6080,W,1.8702,-2.1115,179.0381,-0.0316,-0.0349,0.9557,0.7935,0.1831,-0.3052,7.3806
15/11/21,9:31:32,5131.8257,N,3.6077,W,1.9819,-2.1078,179.0333,-0.0323,-0.0353,0.9563,0.6104,0.1831,-0.4883,7.2032
15/11/21,9:31:36,5131.8257,N,3.6071,W,1.9052,-2.1801,179.0271,-0.0327,-0.0355,0.9551,0.7324,0.0000,-0.3662,7.2387
15/11/21,9:31:39,5131.8257,N,3.6064,W,1.9199,-2.0636,179.0283,-0.0319,-0.0356,0.9548,0.7324,0.3052,-0.2441,7.3097
15/11/21,9:31:43,5131.8257,N,3.6060,W,1.9911,-2.1415,179.0236,-0.0323,-0.0348,0.9554,0.7324,0.1221,-0.1831,7.2032
15/11/21,9:31:47,5131.8252,N,3.6057,W,1.9801,-2.0244,179.0250,-0.0331,-0.0341,0.9561,0.7935,0.0610,-0.2441,7.2387
15/11/21,9:31:51,5131.8252,N,3.6054,W,2.0142,-2.1225,179.0190,-0.0334,-0.0349,0.9569,0.7324,0.1221,-0.2441,7.2742
15/11/21,9:31:54,5131.8257,N,3.6055,W,1.9064,-2.1241,179.0146,-0.0319,-0.0355,0.9558,0.4883,0.2441,-0.4272,7.2742
15/11/21,9:31:58,5131.8257,N,3.6058,W,1.9447,-2.0121,179.0163,-0.0321,-0.0347,0.9556,0.8545,0.1221,-0.1831,7.2387
15/11/21,9:32:2,5131.8257,N,3.6060,W,2.0044,-2.0993,179.0107,-0.0334,-0.0352,0.9552,0.6714,0.1831,-0.2441,7.3806
15/11/21,9:32:6,5131.8257,N,3.6062,W,1.8966,-2.0957,179.0069,-0.0325,-0.0350,0.9550,0.7324,0.2441,-0.3662,7.2742
15/11/21,9:32:9,5131.8252,N,3.6064,W,2.0012,-2.0509,179.0047,-0.0331,-0.0344,0.9554,0.6104,0.1831,-0.3662,7.2742
15/11/21,9:32:13,5131.8252,N,3.6070,W,1.8942,-2.0651,179.0004,-0.0317,-0.0345,0.9556,0.7324,0.1221,-0.3662,7.3452
15/11/21,9:32:16,5131.8252,N,3.6072,W,1.9555,-2.1530,178.9948,-0.0323,-0.0356,0.9546,0.6104,0.3662,-0.2441,7.3452
15/11/21,9:32:19,5131.8247,N,3.6074,W,1.9237,-2.0417,178.9959,-0.0322,-0.0345,0.9564,0.6714,0.1831,-0.2441,7.3097
15/11/21,9:32:23,5131.8247,N,3.6072,W,2.0211,-2.0841,178.9935,-0.0332,-0.0347,0.9564,1.0376,0.0610,-0.0610,7.3452
15/11/21,9:32:27,5131.8247,N,3.6073,W,1.9144,-2.0642,178.9903,-0.0332,-0.0347,0.9541,0.8545,0.3052,-0.3662,7.2032
15/11/21,9:32:31,5131.8247,N,3.6072,W,2.0131,-2.1109,178.9865,-0.0334,-0.0353,0.9553,0.7935,0.3052,-0.1831,7.3452
15/11/21,9:32:34,5131.8247,N,3.6070,W,1.9308,-2.0336,178.9853,-0.0323,-0.0342,0.9546,0.7935,0.3052,-0.3662,7.2032
15/11/21,9:32:38,5131.8252,N,3.6065,W,2.0273,-2.0868,178.9815,-0.0328,-0.0343,0.9556,0.4883,0.3052,-0.1831,7.3097
15/11/21,9:32:42,5131.8252,N,3.6062,W,1.9331,-2.1294,178.9801,-0.0332,-0.0352,0.9554,0.9766,0.3052,0.0610,7.3806
15/11/21,9:32:46,5131.8252,N,3.6060,W,2.0214,-2.0523,178.9789,-0.0331,-0.0349,0.9562,0.7935,0.3052,-0.3662,7.2742
15/11/21,9:32:49,5131.8252,N,3.6059,W,1.9380,-2.1147,178.9723,-0.0321,-0.0355,0.9551,0.6714,0.3052,-0.4272,7.3097
15/11/21,9:32:53,5131.8252,N,3.6058,W,1.9917,-2.0088,178.9720,-0.0326,-0.0348,0.9553,0.7935,0.4272,-0.3662,7.2387
15/11/21,9:32:57,5131.8252,N,3.6057,W,1.9040,-2.0671,178.9657,-0.0321,-0.0343,0.9548,0.6714,0.1831,-0.4272,7.2387
15/11/21,9:33:1,5131.8252,N,3.6057,W,1.7988,-2.0449,178.9613,-0.0316,-0.0344,0.9542,0.7935,0.4272,-0.4883,7.2032
15/11/21,9:33:4,5131.8257,N,3.6055,W,1.9014,-2.0838,178.9556,-0.0333,-0.0356,0.9553,0.7935,0.3052,-0.4272,7.3097
15/11/21,9:33:8,5131.8252,N,3.6055,W,1.7987,-2.0443,178.9542,-0.0316,-0.0347,0.9532,0.6714,0.2441,-0.2441,7.3452
15/11/21,9:33:12,5131.8252,N,3.6054,W,1.9104,-2.0523,178.9506,-0.0331,-0.0345,0.9546,0.9155,0.3052,-0.3052,7.2742
15/11/21,9:33:16,5131.8257,N,3.6050,W,1.9952,-2.1174,178.9452,-0.0331,-0.0353,0.9569,0.7324,0.1831,-0.3052,7.2387
15/11/21,9:33:19,5131.8252,N,3.6048,W,1.8886,-2.0945,178.9427,-0.0323,-0.0352,0.9547,0.6714,0.2441,-0.3052,7.3097
15/11/21,9:33:23,5131.8247,N,3.6049,W,1.9910,-2.1380,178.9374,-0.0327,-0.0355,0.9547,0.6104,0.4272,-0.3662,7.2742
15/11/21,9:33:27,5131.8247,N,3.6048,W,1.9014,-2.0708,178.9352,-0.0319,-0.0348,0.9562,0.7935,0.3052,-0.4272,7.2742
15/11/21,9:33:31,5131.8252,N,3.6047,W,1.9381,-2.1684,178.9298,-0.0319,-0.0349,0.9554,0.7324,0.2441,-0.1831,7.3097
15/11/21,9:33:34,5131.8257,N,3.6043,W,2.0015,-2.0691,178.9288,-0.0330,-0.0354,0.9568,0.8545,0.1831,-0.4272,7.2387
15/11/21,9:33:38,5131.8262,N,3.6034,W,1.9081,-2.1160,178.9240,-0.0316,-0.0355,0.9559,0.6104,0.3662,-0.3052,7.2387
15/11/21,9:33:42,5131.8262,N,3.6035,W,2.0163,-2.1399,178.9193,-0.0327,-0.0355,0.9547,0.6104,0.2441,-0.3662,7.2032
15/11/21,9:33:46,5131.8267,N,3.6028,W,1.9099,-2.1468,178.9164,-0.0321,-0.0359,0.9552,0.7324,0.3052,-0.2441,7.3097
15/11/21,9:33:49,5131.8267,N,3.6019,W,1.9768,-2.0496,178.9170,-0.0325,-0.0350,0.9559,0.7935,0.3052,-0.2441,7.2742
15/11/21,9:33:53,5131.8267,N,3.6010,W,1.9055,-2.1208,178.9112,-0.0317,-0.0355,0.9552,0.9766,0.4272,-0.3052,7.3097
15/11/21,9:33:57,5131.8271,N,3.6006,W,1.9683,-2.0219,178.9113,-0.0322,-0.0348,0.9561,0.6714,0.3052,-0.3052,7.2742
15/11/21,9:34:1,5131.8271,N,3.6003,W,1.9955,-2.1205,178.9069,-0.0331,-0.0345,0.9568,0.9155,0.2441,-0.0610,7.2032
15/11/21,9:34:4,5131.8271,N,3.6002,W,1.8981,-2.0663,178.9078,-0.0315,-0.0345,0.9563,0.7935,0.2441,-0.0610,7.3452
15/11/21,9:34:8,5131.8271,N,3.6004,W,2.0084,-2.0762,178.9042,-0.0330,-0.0347,0.9552,0.7935,0.1831,-0.3052,7.2387
15/11/21,9:34:12,5131.8271,N,3.6006,W,1.9747,-1.9649,178.9031,-0.0334,-0.0344,0.9551,0.7324,0.1831,-0.4883,7.2032
15/11/21,9:34:16,5131.8271,N,3.6010,W,1.9546,-2.0647,178.8969,-0.0325,-0.0350,0.9548,0.8545,0.2441,-0.2441,7.3097
15/11/21,9:34:19,5131.8271,N,3.6015,W,1.8945,-2.1502,178.8914,-0.0319,-0.0356,0.9562,0.6104,0.1831,-0.2441,7.3097
15/11/21,9:34:23,5131.8262,N,3.6035,W,1.9993,-2.1041,178.8892,-0.0325,-0.0355,0.9553,0.4883,0.3052,-0.3662,7.3452
15/11/21,9:34:27,5131.8262,N,3.6045,W,1.9207,-2.1707,178.8866,-0.0323,-0.0360,0.9548,0.8545,0.2441,0.0000,7.2742
15/11/21,9:34:31,5131.8262,N,3.6051,W,1.9526,-2.0578,178.8895,-0.0323,-0.0352,0.9550,0.7324,0.1221,-0.0610,7.3097
15/11/21,9:34:34,5131.8262,N,3.6054,W,2.0514,-2.1072,178.8852,-0.0332,-0.0347,0.9552,0.4883,0.3052,-0.2441,7.2387
15/11/21,9:34:38,5131.8262,N,3.6057,W,1.9457,-2.1202,178.8826,-0.0321,-0.0356,0.9568,0.9155,0.2441,-0.1831,7.2032
15/11/21,9:34:42,5131.8262,N,3.6063,W,1.9996,-2.2093,178.8762,-0.0330,-0.0363,0.9569,0.9155,0.3662,-0.3052,7.2742
15/11/21,9:34:46,5131.8257,N,3.6063,W,1.9100,-2.1422,178.8752,-0.0317,-0.0358,0.9551,0.6714,0.2441,-0.3052,7.2742
15/11/21,9:34:49,5131.8262,N,3.6061,W,2.0139,-2.0881,178.8743,-0.0326,-0.0354,0.9551,0.9155,0.3662,-0.2441,7.2742
15/11/21,9:34:53,5131.8262,N,3.6056,W,1.9072,-2.0981,178.8713,-0.0319,-0.0352,0.9568,0.6714,0.2441,-0.2441,7.3452
15/11/21,9:34:57,5131.8262,N,3.6052,W,1.8115,-2.1397,178.8672,-0.0315,-0.0353,0.9575,0.6714,0.3662,-0.2441,7.2032
15/11/21,9:35:1,5131.8262,N,3.6049,W,1.9118,-2.1816,178.8644,-0.0311,-0.0361,0.9552,0.7324,0.1831,-0.1221,7.2387
15/11/21,9:35:4,5131.8262,N,3.6047,W,1.9168,-2.0639,178.8669,-0.0320,-0.0348,0.9558,0.7935,0.1221,-0.1221,7.2387
15/11/21,9:35:8,5131.8267,N,3.6047,W,1.8942,-2.1645,178.8597,-0.0317,-0.0354,0.9545,0.7324,0.1831,-0.3662,7.2742
15/11/21,9:35:12,5131.8267,N,3.6047,W,1.9495,-2.0641,178.8594,-0.0322,-0.0350,0.9551,0.5493,0.0000,-0.3662,7.2387
15/11/21,9:35:16,5131.8267,N,3.6046,W,1.9134,-2.1592,178.8541,-0.0323,-0.0349,0.9551,0.8545,0.2441,-0.1831,7.3452
15/11/21,9:35:19,5131.8271,N,3.6045,W,2.0142,-2.1046,178.8545,-0.0323,-0.0358,0.9542,0.7935,0.1221,-0.1221,7.2032
15/11/21,9:35:23,5131.8271,N,3.6043,W,1.9254,-2.1557,178.8482,-0.0327,-0.0356,0.9552,0.6104,0.6104,-0.4272,7.3452
15/11/21,9:35:27,5131.8271,N,3.6036,W,1.9984,-2.0640,178.8498,-0.0331,-0.0348,0.9546,0.7935,0.1831,-0.1221,7.4161
15/11/21,9:35:31,5131.8271,N,3.6030,W,1.9047,-2.1061,178.8468,-0.0327,-0.0347,0.9537,0.7935,0.4883,-0.1221,7.2742
15/11/21,9:35:34,5131.8271,N,3.6026,W,2.0164,-2.0905,178.8476,-0.0328,-0.0350,0.9545,0.9155,0.1831,0.0610,7.3452
15/11/21,9:35:38,5131.8271,N,3.6023,W,1.9298,-2.1464,178.8446,-0.0332,-0.0352,0.9545,1.0376,0.1831,-0.0610,7.2387
15/11/21,9:35:42,5131.8271,N,3.6023,W,1.8588,-2.2196,178.8400,-0.0320,-0.0360,0.9547,0.8545,0.3662,-0.1831,7.2032
15/11/21,9:35:46,5131.8271,N,3.6029,W,1.9169,-2.1161,178.8408,-0.0323,-0.0348,0.9552,0.9155,0.1831,-0.2441,7.3806
15/11/21,9:35:49,5131.8267,N,3.6033,W,1.9130,-1.9998,178.8408,-0.0320,-0.0347,0.9563,0.6714,0.3662,-0.3662,7.2387
15/11/21,9:35:53,5131.8267,N,3.6039,W,1.8869,-2.0989,178.8348,-0.0314,-0.0355,0.9554,0.7935,0.1831,-0.2441,7.1323
15/11/21,9:35:57,5131.8267,N,3.6043,W,1.9899,-2.0480,178.8339,-0.0322,-0.0347,0.9547,0.7935,0.1831,-0.2441,7.3097
15/11/21,9:36:1,5131.8271,N,3.6044,W,1.8992,-2.0992,178.8295,-0.0320,-0.0349,0.9547,0.8545,0.2441,-0.2441,7.2742
15/11/21,9:36:4,5131.8271,N,3.6043,W,2.0129,-2.0994,178.8272,-0.0328,-0.0352,0.9562,1.0986,0.4272,-0.1831,7.3097
15/11/21,9:36:8,5131.8271,N,3.6042,W,1.9326,-2.1621,178.8228,-0.0331,-0.0354,0.9546,0.7935,0.4883,-0.1831,7.2387
15/11/21,9:36:12,5131.8276,N,3.6036,W,2.0130,-2.0733,178.8237,-0.0337,-0.0347,0.9563,1.0376,0.3662,-0.1831,7.3097
15/11/21,9:36:16,5131.8276,N,3.6029,W,1.9063,-2.0856,178.8206,-0.0326,-0.0348,0.9558,0.7935,0.1831,-0.2441,7.3097
15/11/21,9:36:19,5131.8281,N,3.6025,W,1.9776,-2.1635,178.8153,-0.0322,-0.0353,0.9565,0.7324,0.1221,-0.2441,7.2742
15/11/21,9:36:23,5131.8281,N,3.6024,W,1.9586,-2.0473,178.8166,-0.0327,-0.0347,0.9548,0.8545,0.2441,-0.2441,7.2032
15/11/21,9:36:27,5131.8281,N,3.6024,W,1.9046,-2.1353,178.8098,-0.0321,-0.0352,0.9552,0.7935,0.1221,-0.3662,7.1677
15/11/21,9:36:31,5131.8286,N,3.6025,W,1.9975,-2.0690,178.8077,-0.0328,-0.0349,0.9548,0.6714,0.0610,-0.4272,7.1323
15/11/21,9:36:34,5131.8286,N,3.6026,W,1.9175,-2.1336,178.8033,-0.0323,-0.0354,0.9556,0.8545,0.3052,-0.1831,7.2387
15/11/21,9:36:38,5131.8291,N,3.6025,W,2.0176,-2.0752,178.8033,-0.0323,-0.0354,0.9552,0.6714,0.3052,-0.1831,7.3097
15/11/21,9:36:42,5131.8291,N,3.6025,W,1.9104,-2.0654,178.7998,-0.0325,-0.0345,0.9550,0.4883,0.3052,-0.3662,7.2742
15/11/21,9:36:46,5131.8291,N,3.6022,W,1.9408,-2.1654,178.7921,-0.0321,-0.0353,0.9551,0.6714,0.1831,-0.4272,7.3452
15/11/21,9:36:49,5131.8291,N,3.6019,W,1.9427,-2.0464,178.7945,-0.0323,-0.0348,0.9543,0.9155,0.3052,-0.1221,7.3452
15/11/21,9:36:53,5131.8286,N,3.6019,W,1.8698,-2.1184,178.7894,-0.0315,-0.0350,0.9541,0.8545,0.3052,-0.2441,7.3097
15/11/21,9:36:57,5131.8286,N,3.6013,W,1.9762,-2.0742,178.7882,-0.0322,-0.0349,0.9542,0.6714,0.3052,-0.2441,7.3806
15/11/21,9:37:1,5131.8281,N,3.6007,W,2.0469,-2.1522,178.7839,-0.0333,-0.0350,0.9545,0.8545,0.2441,-0.1221,7.3452
15/11/21,9:37:4,5131.8286,N,3.6003,W,1.9467,-2.1048,178.7824,-0.0326,-0.0353,0.9562,0.6104,0.1831,-0.3052,7.2387
15/11/21,9:37:8,5131.8286,N,3.5998,W,1.8431,-2.1269,178.7772,-0.0317,-0.0353,0.9546,0.6714,0.3052,-0.4272,7.2742
15/11/21,9:37:12,5131.8286,N,3.5996,W,1.9533,-2.0909,178.7757,-0.0328,-0.0349,0.9553,0.7324,0.4272,-0.2441,7.2032
15/11/21,9:37:16,5131.8281,N,3.5992,W,1.8607,-2.1425,178.7708,-0.0321,-0.0353,0.9569,0.6714,0.1221,-0.3052,7.3452
15/11/21,9:37:19,5131.8281,N,3.5991,W,1.9276,-2.0431,178.7713,-0.0323,-0.0341,0.9572,0.9766,0.3662,-0.2441,7.2032
15/11/21,9:37:23,5131.8281,N,3.5989,W,1.9603,-2.1434,178.7641,-0.0326,-0.0354,0.9573,0.6104,0.3052,-0.3662,7.3097
15/11/21,9:37:27,5131.8281,N,3.5984,W,1.9458,-2.0288,178.7642,-0.0327,-0.0354,0.9570,0.6104,0.2441,-0.3662,7.2387
15/11/21,9:37:31,5131.8281,N,3.5976,W,1.9341,-2.1300,178.7569,-0.0323,-0.0350,0.9559,0.8545,0.2441,-0.3662,7.2387
15/11/21,9:37:34,5131.8286,N,3.5967,W,2.0191,-2.0503,178.7593,-0.0330,-0.0350,0.9565,0.8545,0.1221,0.0000,7.3097
15/11/21,9:37:38,5131.8291,N,3.5952,W,1.9240,-2.0951,178.7527,-0.0323,-0.0349,0.9556,0.6104,0.3052,-0.4883,7.2387
15/11/21,9:37:42,5131.8291,N,3.5953,W,1.9259,-2.1983,178.7466,-0.0321,-0.0359,0.9550,0.7324,0.1831,-0.2441,7.2032
15/11/21,9:37:46,5131.8291,N,3.5948,W,1.9706,-2.0886,178.7470,-0.0327,-0.0353,0.9554,0.7935,0.3662,-0.3052,7.2032
15/11/21,9:37:49,5131.8296,N,3.5944,W,2.0128,-2.1841,178.7399,-0.0330,-0.0350,0.9548,0.7324,0.1831,-0.3662,7.3452
15/11/21,9:37:53,5131.8296,N,3.5939,W,1.9447,-2.0943,178.7398,-0.0323,-0.0349,0.9552,0.4883,0.1831,-0.3052,7.3452
15/11/21,9:37:57,5131.8301,N,3.5937,W,1.8512,-2.1374,178.7362,-0.0322,-0.0350,0.9548,0.9766,0.3662,-0.1831,7.3097
15/11/21,9:38:1,5131.8301,N,3.5937,W,1.9576,-2.1660,178.7325,-0.0322,-0.0361,0.9553,0.9155,0.3052,-0.2441,7.3097
15/11/21,9:38:4,5131.8301,N,3.5938,W,1.8747,-2.0856,178.7331,-0.0314,-0.0350,0.9557,0.9766,0.1221,-0.1831,7.2742
15/11/21,9:38:8,5131.8301,N,3.5936,W,1.9869,-2.0908,178.7308,-0.0319,-0.0349,0.9570,0.7935,0.3052,-0.1831,7.1677
15/11/21,9:38:12,5131.8301,N,3.5936,W,1.8972,-2.1458,178.7275,-0.0320,-0.0358,0.9572,0.6104,0.2441,-0.1221,7.2387
15/11/21,9:38:16,5131.8296,N,3.5936,W,1.9617,-2.2310,178.7213,-0.0320,-0.0363,0.9562,0.6714,0.3662,-0.3052,7.2387
15/11/21,9:38:19,5131.8296,N,3.5936,W,1.9596,-2.1158,178.7215,-0.0327,-0.0352,0.9573,0.5493,0.3052,-0.3662,7.2742
15/11/21,9:38:23,5131.8301,N,3.5934,W,1.9206,-2.0084,178.7218,-0.0323,-0.0344,0.9556,0.6104,0.3662,-0.3052,7.3806
15/11/21,9:38:27,5131.8301,N,3.5934,W,1.9827,-2.0927,178.7151,-0.0332,-0.0353,0.9546,0.8545,0.2441,-0.3662,7.2742
15/11/21,9:38:31,5131.8301,N,3.5933,W,1.9394,-2.1858,178.7092,-0.0326,-0.0359,0.9543,0.7324,0.3052,-0.2441,7.2387
15/11/21,9:38:34,5131.8301,N,3.5931,W,1.9988,-2.0832,178.7100,-0.0327,-0.0359,0.9556,0.7324,0.4883,-0.2441,7.3452
15/11/21,9:38:38,5131.8301,N,3.5932,W,1.9106,-2.1430,178.7042,-0.0317,-0.0359,0.9551,0.4272,0.1831,-0.3662,7.3452
15/11/21,9:38:42,5131.8301,N,3.5937,W,1.9526,-2.0339,178.7041,-0.0323,-0.0345,0.9552,0.6714,0.2441,-0.3662,7.2032
15/11/21,9:38:46,5131.8296,N,3.5943,W,1.9475,-2.1363,178.6985,-0.0325,-0.0354,0.9547,0.7935,0.2441,-0.1831,7.3097
15/11/21,9:38:49,5131.8296,N,3.5948,W,2.0272,-2.0475,178.6970,-0.0332,-0.0349,0.9552,1.0376,0.3052,-0.4272,7.2742
15/11/21,9:38:53,5131.8286,N,3.5967,W,1.9512,-2.1144,178.6925,-0.0330,-0.0350,0.9564,0.7935,0.5493,-0.1831,7.3097
15/11/21,9:38:57,5131.8286,N,3.5975,W,1.8512,-2.1419,178.6900,-0.0321,-0.0354,0.9548,0.7324,0.4883,-0.1221,7.3806
15/11/21,9:39:1,5131.8286,N,3.5978,W,1.9591,-2.0994,178.6916,-0.0334,-0.0349,0.9553,0.9155,0.3052,0.0610,7.3452
15/11/21,9:39:4,5131.8286,N,3.5981,W,1.8574,-2.0557,178.6898,-0.0317,-0.0347,0.9553,0.6104,0.1831,-0.3052,7.1677
15/11/21,9:39:8,5131.8281,N,3.5984,W,1.8985,-2.1520,178.6823,-0.0314,-0.0353,0.9545,0.6714,0.1221,-0.4272,7.3806
15/11/21,9:39:12,5131.8281,N,3.5986,W,1.9520,-2.0458,178.6855,-0.0325,-0.0344,0.9553,0.9155,0.1831,0.0000,7.3097
15/11/21,9:39:16,5131.8286,N,3.5987,W,1.9218,-2.1429,178.6789,-0.0322,-0.0353,0.9559,0.7935,0.4883,-0.3052,7.0968
15/11/21,9:39:19,5131.8286,N,3.5988,W,2.0281,-2.0978,178.6760,-0.0334,-0.0353,0.9564,0.6104,0.3662,-0.4272,7.3097
15/11/21,9:39:23,5131.8286,N,3.5988,W,1.9286,-2.0519,178.6737,-0.0323,-0.0344,0.9553,0.7324,0.3662,-0.3662,7.2742
15/11/21,9:39:27,5131.8286,N,3.5985,W,1.9160,-2.1538,178.6676,-0.0320,-0.0353,0.9541,0.7324,0.4272,-0.2441,7.3097
15/11/21,9:39:31,5131.8286,N,3.5984,W,1.9862,-2.0591,178.6675,-0.0326,-0.0352,0.9556,0.7935,0.3052,-0.3052,7.3806
15/11/21,9:39:34,5131.8286,N,3.5987,W,1.9261,-2.1414,178.6607,-0.0325,-0.0353,0.9552,0.7324,0.4883,-0.3662,7.3097
15/11/21,9:39:38,5131.8286,N,3.5994,W,1.9594,-2.0304,178.6590,-0.0323,-0.0350,0.9551,0.6104,0.1221,-0.5493,7.3806
15/11/21,9:39:42,5131.8286,N,3.5999,W,1.9479,-2.1319,178.6534,-0.0325,-0.0356,0.9558,0.7935,0.4272,-0.1831,7.2742
15/11/21,9:39:46,5131.8286,N,3.6003,W,2.0118,-2.0316,178.6541,-0.0327,-0.0352,0.9542,0.8545,0.3662,-0.2441,7.3097
15/11/21,9:39:49,5131.8286,N,3.6006,W,1.9293,-2.0937,178.6498,-0.0320,-0.0352,0.9551,0.7324,0.3662,-0.1831,7.2387
15/11/21,9:39:53,5131.8286,N,3.6006,W,2.0412,-2.0733,178.6478,-0.0327,-0.0349,0.9563,0.9766,0.2441,-0.2441,7.2387
15/11/21,9:39:57,5131.8286,N,3.6007,W,1.9791,-2.1536,178.6410,-0.0333,-0.0356,0.9556,0.9766,0.2441,-0.3662,7.3452
15/11/21,9:40:1,5131.8286,N,3.6010,W,1.9508,-2.0412,178.6410,-0.0326,-0.0344,0.9558,0.7324,0.3662,-0.3662,7.2742
15/11/21,9:40:4,5131.8286,N,3.6013,W,1.8947,-2.1277,178.6342,-0.0317,-0.0353,0.9547,0.6714,0.3662,-0.3662,7.2742
15/11/21,9:40:8,5131.8286,N,3.6014,W,1.9936,-2.0644,178.6342,-0.0326,-0.0349,0.9550,0.8545,0.3662,-0.1831,7.2742
15/11/21,9:40:12,5131.8286,N,3.6016,W,1.9069,-2.1210,178.6313,-0.0320,-0.0354,0.9559,0.7935,0.3052,-0.0610,7.2387
15/11/21,9:40:16,5131.8286,N,3.6016,W,2.0207,-2.1056,178.6297,-0.0328,-0.0353,0.9550,0.6104,0.4272,-0.1831,7.2742
15/11/21,9:40:19,5131.8286,N,3.6015,W,1.9387,-2.1670,178.6243,-0.0320,-0.0365,0.9550,0.7935,0.4272,-0.3052,7.2742
15/11/21,9:40:23,5131.8286,N,3.6011,W,2.0025,-2.0685,178.6267,-0.0330,-0.0353,0.9556,0.7324,0.2441,-0.0610,7.2742
15/11/21,9:40:27,5131.8286,N,3.6009,W,1.9024,-2.0976,178.6224,-0.0319,-0.0350,0.9551,0.7324,0.4272,-0.3052,7.3452
15/11/21,9:40:31,5131.8291,N,3.6012,W,1.9882,-2.1593,178.6176,-0.0321,-0.0353,0.9543,0.9766,0.1831,-0.2441,7.2387
15/11/21,9:40:34,5131.8291,N,3.6013,W,1.9315,-2.0594,178.6172,-0.0325,-0.0349,0.9542,0.7324,0.2441,-0.3662,7.4161
15/11/21,9:40:38,5131.8291,N,3.6012,W,1.8877,-2.1518,178.6113,-0.0316,-0.0356,0.9557,0.6714,0.5493,-0.2441,7.3097
15/11/21,9:40:42,5131.8291,N,3.6011,W,1.9976,-2.1754,178.6050,-0.0323,-0.0361,0.9561,0.4272,0.3662,-0.5493,7.2387
15/11/21,9:40:46,5131.8291,N,3.6005,W,1.9282,-2.0823,178.6038,-0.0322,-0.0349,0.9548,0.7935,0.0000,-0.4272,7.2032
15/11/21,9:40:49,5131.8291,N,3.6001,W,2.0070,-1.9985,178.6024,-0.0325,-0.0344,0.9551,0.5493,0.1831,-0.4272,7.2742
15/11/21,9:40:53,5131.8291,N,3.6000,W,1.9549,-2.0852,178.5972,-0.0323,-0.0353,0.9553,0.8545,0.4272,-0.1831,7.3097
15/11/21,9:40:57,5131.8291,N,3.6000,W,2.0030,-2.1780,178.5906,-0.0327,-0.0350,0.9540,0.8545,0.4272,-0.3052,7.2032
15/11/21,9:41:1,5131.8291,N,3.5999,W,1.9748,-2.0630,178.5924,-0.0328,-0.0342,0.9569,0.9766,0.3052,-0.1831,7.2387
15/11/21,9:41:4,5131.8291,N,3.5999,W,1.8998,-2.1334,178.5879,-0.0323,-0.0350,0.9554,0.7935,0.3052,-0.1831,7.2387
15/11/21,9:41:8,5131.8291,N,3.5995,W,2.0028,-2.0775,178.5870,-0.0331,-0.0349,0.9548,0.9155,0.3662,-0.2441,7.2387
15/11/21,9:41:12,5131.8296,N,3.5993,W,1.8993,-2.0387,178.5839,-0.0322,-0.0343,0.9552,0.8545,0.2441,-0.4272,7.3097
15/11/21,9:41:16,5131.8296,N,3.5993,W,1.9993,-2.0834,178.5785,-0.0332,-0.0348,0.9546,0.7324,0.3052,-0.3662,7.1677
15/11/21,9:41:19,5131.8296,N,3.5993,W,1.9101,-2.1383,178.5722,-0.0321,-0.0355,0.9542,0.6104,0.3052,-0.4272,7.3452
15/11/21,9:41:23,5131.8296,N,3.5989,W,2.0086,-2.0723,178.5717,-0.0325,-0.0354,0.9568,0.9766,0.4272,-0.2441,7.3097
15/11/21,9:41:27,5131.8296,N,3.5983,W,1.9496,-2.1560,178.5643,-0.0327,-0.0356,0.9545,0.6714,0.4883,-0.4272,7.2742
15/11/21,9:41:31,5131.8296,N,3.5981,W,1.9541,-2.0377,178.5667,-0.0326,-0.0350,0.9564,0.8545,0.3052,-0.1221,7.2032
15/11/21,9:41:34,5131.8296,N,3.5977,W,1.9235,-2.1351,178.5596,-0.0323,-0.0352,0.9572,0.8545,0.1221,-0.3662,7.4161
15/11/21,9:41:38,5131.8301,N,3.5975,W,2.0307,-2.0919,178.5578,-0.0327,-0.0354,0.9553,0.6714,0.3662,-0.3052,7.3097
15/11/21,9:41:42,5131.8301,N,3.5979,W,1.9659,-2.1742,178.5517,-0.0331,-0.0359,0.9545,0.5493,0.2441,-0.3052,7.3097
15/11/21,9:41:46,5131.8301,N,3.5985,W,1.8783,-2.1065,178.5502,-0.0319,-0.0356,0.9570,0.6104,0.3662,-0.3662,7.3097
15/11/21,9:41:49,5131.8296,N,3.5988,W,1.9846,-2.0682,178.5494,-0.0322,-0.0349,0.9559,0.7935,0.0610,-0.1831,7.3452
15/11/21,9:41:53,5131.8296,N,3.5990,W,1.8881,-2.1098,178.5459,-0.0326,-0.0348,0.9556,0.9766,0.1221,-0.1831,7.2742
15/11/21,9:41:57,5131.8296,N,3.5985,W,1.9953,-2.0718,178.5416,-0.0331,-0.0347,0.9546,0.5493,0.2441,-0.5493,7.2742
15/11/21,9:42:1,5131.8301,N,3.5972,W,1.8910,-2.0897,178.5372,-0.0322,-0.0348,0.9553,0.5493,0.3662,-0.3662,7.2742
15/11/21,9:42:4,5131.8301,N,3.5963,W,1.9965,-2.1214,178.5334,-0.0322,-0.0352,0.9570,0.8545,0.3052,-0.2441,7.1323
15/11/21,9:42:8,5131.8306,N,3.5955,W,1.8886,-2.1139,178.5304,-0.0325,-0.0354,0.9561,0.6104,0.2441,-0.3052,7.3452
15/11/21,9:42:12,5131.8306,N,3.5947,W,1.9592,-2.1913,178.5258,-0.0317,-0.0355,0.9553,0.7935,0.0610,-0.1831,7.2742
15/11/21,9:42:16,5131.8306,N,3.5939,W,1.9680,-2.0751,178.5242,-0.0328,-0.0350,0.9561,0.6714,0.1221,-0.5493,7.4161
15/11/21,9:42:19,5131.8311,N,3.5934,W,1.9476,-2.1765,178.5187,-0.0328,-0.0347,0.9553,0.6714,0.2441,-0.1831,7.1677
15/11/21,9:42:23,5131.8311,N,3.5930,W,1.8645,-2.1000,178.5181,-0.0319,-0.0358,0.9548,0.6714,0.1831,-0.3052,7.3452
15/11/21,9:42:27,5131.8311,N,3.5930,W,1.9560,-2.1572,178.5135,-0.0320,-0.0356,0.9557,0.6714,0.1831,-0.2441,7.4161
15/11/21,9:42:31,5131.8311,N,3.5931,W,1.9192,-2.0477,178.5117,-0.0321,-0.0345,0.9550,0.6714,0.1831,-0.5493,7.3097
15/11/21,9:42:35,5131.8306,N,3.5929,W,1.9343,-2.1512,178.5050,-0.0322,-0.0355,0.9562,0.6104,0.1831,-0.3052,7.1677
15/11/21,9:42:38,5131.8311,N,3.5927,W,2.0460,-2.1560,178.5004,-0.0341,-0.0361,0.9570,0.7324,0.2441,-0.4272,7.3452
15/11/21,9:42:42,5131.8311,N,3.5925,W,1.9550,-2.0901,178.5016,-0.0320,-0.0347,0.9553,0.9766,0.3662,-0.0610,7.3097
15/11/21,9:42:46,5131.8311,N,3.5927,W,1.8509,-2.0544,178.4973,-0.0322,-0.0348,0.9569,0.5493,0.1831,-0.5493,7.2387
15/11/21,9:42:49,5131.8311,N,3.5928,W,1.9292,-2.1264,178.4905,-0.0323,-0.0358,0.9554,0.7324,0.1831,-0.4272,7.3097
15/11/21,9:42:53,5131.8311,N,3.5927,W,1.9163,-2.0086,178.4924,-0.0321,-0.0349,0.9547,0.9155,0.2441,-0.1831,7.2032
15/11/21,9:42:56,5131.8306,N,3.5926,W,1.9583,-2.1063,178.4852,-0.0327,-0.0354,0.9557,0.5493,0.3052,-0.3662,7.2387
15/11/21,9:43:0,5131.8306,N,3.5925,W,1.9783,-2.2065,178.4802,-0.0327,-0.0353,0.9556,0.9155,0.3662,-0.1221,7.3452
15/11/21,9:43:3,5131.8311,N,3.5926,W,1.9634,-2.0914,178.4798,-0.0327,-0.0349,0.9551,0.6714,0.2441,-0.4272,7.3097
15/11/21,9:43:7,5131.8311,N,3.5925,W,1.8639,-2.1287,178.4764,-0.0321,-0.0353,0.9572,0.7935,0.1221,-0.1831,7.2742
15/11/21,9:43:11,5131.8311,N,3.5924,W,1.9752,-2.0962,178.4748,-0.0319,-0.0354,0.9568,0.7935,0.4272,-0.2441,7.3452
15/11/21,9:43:14,5131.8311,N,3.5923,W,1.9044,-2.1736,178.4684,-0.0326,-0.0354,0.9554,0.5493,0.2441,-0.3662,7.2032
15/11/21,9:43:18,5131.8311,N,3.5919,W,1.9701,-2.0745,178.4690,-0.0330,-0.0345,0.9553,0.8545,0.3662,-0.2441,7.2387
15/11/21,9:43:22,5131.8315,N,3.5916,W,1.9058,-2.1521,178.4647,-0.0319,-0.0359,0.9550,0.9766,0.3662,-0.1221,7.3097
15/11/21,9:43:26,5131.8320,N,3.5910,W,1.9796,-2.0643,178.4651,-0.0321,-0.0356,0.9565,0.3662,0.3052,-0.2441,7.2032
15/11/21,9:43:29,5131.8320,N,3.5904,W,1.8744,-2.0809,178.4619,-0.0325,-0.0345,0.9550,0.7935,0.2441,-0.2441,7.2742
15/11/21,9:43:33,5131.8320,N,3.5898,W,1.9438,-2.1612,178.4548,-0.0321,-0.0358,0.9564,0.7324,0.2441,-0.4272,7.3452
15/11/21,9:43:37,5131.8325,N,3.5896,W,1.9478,-2.0441,178.4549,-0.0325,-0.0349,0.9559,0.7324,0.3662,-0.3662,7.2742
15/11/21,9:43:41,5131.8320,N,3.5898,W,1.8938,-2.1321,178.4493,-0.0314,-0.0360,0.9556,0.6714,0.3052,-0.2441,7.2387
15/11/21,9:43:44,5131.8320,N,3.5899,W,1.8364,-2.0328,178.4503,-0.0310,-0.0347,0.9546,0.7935,0.3662,-0.1831,7.3097
15/11/21,9:43:48,5131.8320,N,3.5900,W,1.9159,-2.1082,178.4422,-0.0325,-0.0359,0.9553,0.6104,0.5493,-0.5493,7.3452
15/11/21,9:43:52,5131.8320,N,3.5901,W,1.9978,-2.1761,178.4361,-0.0323,-0.0355,0.9569,0.7935,0.1831,-0.3662,7.2387
15/11/21,9:43:56,5131.8320,N,3.5904,W,1.9167,-2.0965,178.4355,-0.0317,-0.0349,0.9554,0.7935,0.2441,-0.3052,7.3097
15/11/21,9:43:59,5131.8320,N,3.5904,W,2.0129,-2.0335,178.4345,-0.0327,-0.0345,0.9554,0.6714,0.1831,-0.3052,7.2742
15/11/21,9:44:3,5131.8320,N,3.5904,W,1.9461,-2.1113,178.4302,-0.0317,-0.0361,0.9545,0.7935,0.3052,-0.1221,7.3097
15/11/21,9:44:7,5131.8320,N,3.5907,W,1.9444,-1.9943,178.4310,-0.0325,-0.0348,0.9554,0.7324,0.2441,-0.3052,7.3452
15/11/21,9:44:11,5131.8315,N,3.5905,W,1.9376,-2.0959,178.4259,-0.0322,-0.0356,0.9548,0.8545,0.3052,-0.1221,7.2032
15/11/21,9:44:14,5131.8315,N,3.5907,W,2.0225,-2.1628,178.4210,-0.0330,-0.0355,0.9568,0.6714,0.3052,-0.2441,7.3097
15/11/21,9:44:18,5131.8315,N,3.5909,W,1.9276,-2.1041,178.4214,-0.0317,-0.0350,0.9553,0.8545,0.3052,-0.1221,7.2387
15/11/21,9:44:22,5131.8315,N,3.5910,W,1.9804,-2.1965,178.4138,-0.0326,-0.0359,0.9570,0.6714,0.4272,-0.4272,7.2032
15/11/21,9:44:26,5131.8311,N,3.5910,W,1.9251,-2.0952,178.4145,-0.0323,-0.0355,0.9552,0.8545,0.3662,-0.2441,7.3097
15/11/21,9:44:29,5131.8311,N,3.5910,W,2.0353,-2.1095,178.4119,-0.0332,-0.0352,0.9550,0.7935,0.2441,-0.1831,7.3452
15/11/21,9:44:33,5131.8311,N,3.5909,W,1.9331,-2.0714,178.4121,-0.0328,-0.0349,0.9564,0.9766,0.4272,-0.0610,7.2387
15/11/21,9:44:37,5131.8311,N,3.5908,W,1.9142,-2.1716,178.4061,-0.0321,-0.0354,0.9553,0.8545,0.1831,-0.2441,7.2387
15/11/21,9:44:41,5131.8315,N,3.5905,W,1.8815,-2.0606,178.4065,-0.0316,-0.0353,0.9551,0.7324,0.3662,-0.3052,7.2742
15/11/21,9:44:44,5131.8315,N,3.5902,W,1.9883,-2.0850,178.4018,-0.0328,-0.0348,0.9543,0.8545,0.1831,-0.3662,7.1677
15/11/21,9:44:48,5131.8315,N,3.5902,W,1.9401,-2.1758,178.3954,-0.0327,-0.0355,0.9537,0.7324,0.3052,-0.3052,7.2032
15/11/21,9:44:52,5131.8315,N,3.5904,W,1.8590,-2.0987,178.3942,-0.0316,-0.0356,0.9565,0.5493,0.2441,-0.3662,7.2387
15/11/21,9:44:56,5131.8315,N,3.5905,W,1.8367,-2.1989,178.3888,-0.0308,-0.0365,0.9575,0.7324,0.3662,-0.1831,7.3452
15/11/21,9:44:59,5131.8315,N,3.5904,W,1.8944,-2.0951,178.3901,-0.0315,-0.0353,0.9559,0.8545,0.3052,-0.1831,7.1677
15/11/21,9:45:3,5131.8320,N,3.5899,W,1.9820,-2.1570,178.3848,-0.0319,-0.0352,0.9568,0.7324,0.1831,-0.3052,7.2032
15/11/21,9:45:7,5131.8320,N,3.5901,W,2.0788,-2.0926,178.3837,-0.0334,-0.0359,0.9575,0.7324,0.3052,-0.3052,7.3097
15/11/21,9:45:11,5131.8325,N,3.5897,W,1.9799,-2.1278,178.3798,-0.0326,-0.0358,0.9551,0.7324,0.3052,-0.2441,7.3097
15/11/21,9:45:14,5131.8325,N,3.5895,W,1.9855,-2.0107,178.3799,-0.0331,-0.0349,0.9561,0.7324,0.4272,-0.3662,7.2032
15/11/21,9:45:18,5131.8325,N,3.5894,W,1.9402,-2.1041,178.3735,-0.0323,-0.0352,0.9552,0.6104,0.3052,-0.3052,7.2742
15/11/21,9:45:22,5131.8325,N,3.5895,W,1.9924,-2.1947,178.3671,-0.0325,-0.0353,0.9552,0.8545,0.3662,-0.3052,7.2742
15/11/21,9:45:26,5131.8325,N,3.5900,W,1.9167,-2.1135,178.3666,-0.0316,-0.0350,0.9575,0.4883,0.3662,-0.3052,7.2742
15/11/21,9:45:29,5131.8325,N,3.5903,W,1.8094,-2.1109,178.3629,-0.0316,-0.0353,0.9557,0.5493,0.3052,-0.3662,7.2032
15/11/21,9:45:33,5131.8325,N,3.5904,W,1.9236,-2.1147,178.3571,-0.0325,-0.0354,0.9551,0.6104,0.4883,-0.5493,7.3097
15/11/21,9:45:37,5131.8325,N,3.5905,W,1.8303,-2.1654,178.3523,-0.0319,-0.0354,0.9550,0.5493,0.1831,-0.3052,7.3097
15/11/21,9:45:41,5131.8325,N,3.5909,W,1.9230,-2.0963,178.3519,-0.0319,-0.0353,0.9562,0.7324,0.1831,-0.2441,7.3452
15/11/21,9:45:44,5131.8320,N,3.5912,W,1.8484,-2.1702,178.3451,-0.0320,-0.0352,0.9563,0.5493,0.2441,-0.4272,7.4161
15/11/21,9:45:48,5131.8320,N,3.5914,W,1.9393,-2.0980,178.3443,-0.0322,-0.0352,0.9554,0.5493,0.3662,-0.3052,7.1323
15/11/21,9:45:52,5131.8325,N,3.5915,W,1.9797,-2.1944,178.3365,-0.0327,-0.0359,0.9561,0.7324,0.2441,-0.4272,7.3097
15/11/21,9:45:56,5131.8325,N,3.5913,W,1.9346,-2.0889,178.3357,-0.0322,-0.0349,0.9553,0.6714,0.3052,-0.4272,7.2387
15/11/21,9:45:59,5131.8325,N,3.5914,W,1.8417,-2.1361,178.3332,-0.0319,-0.0352,0.9565,0.7324,0.3052,-0.0610,7.2032
15/11/21,9:46:3,5131.8320,N,3.5914,W,1.9538,-2.1135,178.3307,-0.0320,-0.0355,0.9574,0.5493,0.3662,-0.3052,7.2742
15/11/21,9:46:7,5131.8320,N,3.5913,W,1.8658,-2.1665,178.3244,-0.0320,-0.0356,0.9547,0.9155,0.3662,-0.4272,7.3097
15/11/21,9:46:11,5131.8320,N,3.5916,W,1.9407,-2.0736,178.3259,-0.0323,-0.0347,0.9541,1.0376,0.2441,-0.1221,7.2742
15/11/21,9:46:14,5131.8320,N,3.5920,W,1.9179,-2.1737,178.3211,-0.0322,-0.0354,0.9556,0.7935,0.0610,-0.1221,7.2387
15/11/21,9:46:18,5131.8320,N,3.5926,W,1.9269,-2.0581,178.3219,-0.0321,-0.0350,0.9551,0.6104,0.0000,-0.3052,7.2742
15/11/21,9:46:22,5131.8315,N,3.5928,W,1.9012,-2.1564,178.3159,-0.0320,-0.0353,0.9570,0.8545,0.3052,-0.2441,7.1323
15/11/21,9:46:26,5131.8315,N,3.5932,W,2.0023,-2.0987,178.3128,-0.0327,-0.0355,0.9564,0.7324,0.3662,-0.4883,7.2742
15/11/21,9:46:29,5131.8320,N,3.5934,W,1.8962,-2.1183,178.3077,-0.0328,-0.0353,0.9583,0.6104,0.1221,-0.4272,7.3806
15/11/21,9:46:33,5131.8320,N,3.5936,W,1.8831,-2.2221,178.3017,-0.0316,-0.0355,0.9552,0.5493,0.3662,-0.2441,7.2742
15/11/21,9:46:37,5131.8320,N,3.5935,W,1.9032,-2.1081,178.3022,-0.0317,-0.0352,0.9554,0.5493,0.3052,-0.3052,7.2387
15/11/21,9:46:41,5131.8315,N,3.5936,W,2.0000,-2.1572,178.2978,-0.0320,-0.0353,0.9542,0.8545,0.3052,-0.2441,7.1323
15/11/21,9:46:44,5131.8315,N,3.5938,W,1.8937,-2.1304,178.2950,-0.0317,-0.0356,0.9550,0.5493,0.1831,-0.3662,7.1677
15/11/21,9:46:48,5131.8315,N,3.5943,W,1.9891,-2.1832,178.2894,-0.0323,-0.0360,0.9558,0.6104,0.2441,-0.3662,7.2742
15/11/21,9:46:52,5131.8315,N,3.5948,W,1.9268,-2.0874,178.2905,-0.0323,-0.0353,0.9550,0.7935,0.3662,-0.1831,7.2742
15/11/21,9:46:56,5131.8315,N,3.5952,W,1.9006,-2.1888,178.2834,-0.0320,-0.0358,0.9569,0.5493,0.1831,-0.3662,7.3097
15/11/21,9:46:59,5131.8315,N,3.5951,W,1.9989,-2.1245,178.2816,-0.0331,-0.0356,0.9548,0.6714,0.4883,-0.3662,7.2742
15/11/21,9:47:3,5131.8315,N,3.5948,W,1.8931,-2.1278,178.2776,-0.0325,-0.0355,0.9554,0.6714,0.4272,-0.3662,7.2032
15/11/21,9:47:7,5131.8315,N,3.5947,W,1.9988,-2.0827,178.2742,-0.0322,-0.0353,0.9558,0.6104,0.3052,-0.4883,7.2387
15/11/21,9:47:11,5131.8315,N,3.5950,W,1.8996,-2.1144,178.2686,-0.0320,-0.0353,0.9552,0.9155,0.3662,-0.4272,7.2742
15/11/21,9:47:14,5131.8315,N,3.5954,W,2.0007,-2.1553,178.2645,-0.0322,-0.0355,0.9552,0.7935,0.2441,-0.2441,7.3097
15/11/21,9:47:18,5131.8311,N,3.5957,W,1.9244,-2.0700,178.2647,-0.0325,-0.0350,0.9561,0.7935,0.1831,-0.2441,7.2032
15/11/21,9:47:22,5131.8311,N,3.5961,W,2.0252,-2.1139,178.2611,-0.0326,-0.0348,0.9559,0.7935,0.3662,-0.1831,7.3097
15/11/21,9:47:26,5131.8311,N,3.5961,W,1.9232,-2.1417,178.2574,-0.0321,-0.0359,0.9570,0.6104,0.3052,-0.2441,7.2387
15/11/21,9:47:29,5131.8311,N,3.5958,W,1.9010,-2.0296,178.2574,-0.0320,-0.0353,0.9546,0.4883,0.1831,-0.3662,7.2387
15/11/21,9:47:33,5131.8311,N,3.5957,W,1.9844,-2.0989,178.2518,-0.0327,-0.0348,0.9562,0.6714,0.3662,-0.3052,7.1677
15/11/21,9:47:37,5131.8311,N,3.5955,W,1.9422,-2.1925,178.2448,-0.0327,-0.0360,0.9558,0.7935,0.1831,-0.3662,7.2742
15/11/21,9:47:41,5131.8311,N,3.5955,W,1.9741,-2.0802,178.2436,-0.0326,-0.0358,0.9545,0.6104,0.4272,-0.4883,7.2742
15/11/21,9:47:44,5131.8311,N,3.5955,W,1.9667,-2.1825,178.2356,-0.0328,-0.0361,0.9558,0.7935,0.3052,-0.4272,7.2742
15/11/21,9:47:48,5131.8311,N,3.5954,W,1.8997,-2.0898,178.2372,-0.0321,-0.0355,0.9564,0.7935,0.3052,-0.1221,7.2032
15/11/21,9:47:52,5131.8306,N,3.5954,W,1.9956,-2.1411,178.2304,-0.0323,-0.0353,0.9563,0.7935,0.3052,-0.4883,7.2387
15/11/21,9:47:56,5131.8306,N,3.5949,W,1.8941,-2.1746,178.2243,-0.0326,-0.0360,0.9556,0.7324,0.1221,-0.4883,7.2742
15/11/21,9:47:59,5131.8306,N,3.5943,W,1.9860,-2.1036,178.2240,-0.0326,-0.0356,0.9564,0.7324,0.2441,-0.2441,7.2032
15/11/21,9:48:3,5131.8306,N,3.5934,W,1.9065,-2.0241,178.2223,-0.0331,-0.0350,0.9564,0.6104,0.2441,-0.4272,7.2387
15/11/21,9:48:7,5131.8306,N,3.5926,W,1.9008,-2.1277,178.2145,-0.0317,-0.0350,0.9556,0.6714,0.2441,-0.4272,7.2032
15/11/21,9:48:11,5131.8306,N,3.5919,W,2.0129,-2.0929,178.2135,-0.0330,-0.0352,0.9553,0.6104,0.6104,-0.1831,7.3097
15/11/21,9:48:14,5131.8306,N,3.5917,W,1.9086,-2.1014,178.2098,-0.0319,-0.0352,0.9548,0.8545,0.4883,-0.3052,7.3097
15/11/21,9:48:18,5131.8306,N,3.5913,W,2.0061,-2.0390,178.2098,-0.0322,-0.0348,0.9545,0.7324,0.2441,-0.1831,7.2742
15/11/21,9:48:21,5131.8306,N,3.5911,W,1.9542,-2.1290,178.2035,-0.0325,-0.0356,0.9539,0.6104,0.3052,-0.3052,7.3452
15/11/21,9:48:24,5131.8306,N,3.5910,W,1.8943,-2.0327,178.2029,-0.0319,-0.0344,0.9552,0.6104,0.3052,-0.3662,7.2032
15/11/21,9:48:28,5131.8306,N,3.5909,W,1.9100,-2.1362,178.1957,-0.0317,-0.0350,0.9545,0.6104,0.1831,-0.3662,7.3097
