Date,Time,Latitude,Hemisphere (N-S),Longitude,Hemisphere (E-W),Pitch,Roll,Heading,x_Acc,y_Acc,z_Acc,x_Gyro,y_Gyro,z_Gyro,Voltage
11/11/21,16:22:57,5131.7983,N,3.5763,W,2.3716,0.4241,178.4163,0.0717,-0.2361,1.1912,0.3662,-4.2725,8.1177,7.8419
11/11/21,16:23:3,5131.7974,N,3.5804,W,2.2015,0.2909,178.6850,0.0010,-0.0881,0.8466,-4.2725,-13.4277,28.4424,7.8419
11/11/21,16:23:9,5131.7969,N,3.5833,W,1.9468,0.1688,179.0965,0.0618,-0.2708,0.8651,-3.4180,-22.5830,43.2739,7.8419
11/11/21,16:23:15,5131.7954,N,3.5875,W,2.0120,0.3799,179.2663,0.2167,0.2152,1.1453,14.0381,15.6860,17.3340,7.8419
11/11/21,16:23:21,5131.7930,N,3.5941,W,2.0736,0.3632,179.8249,-0.2294,-0.1104,0.8602,1.9531,-3.1128,58.2886,7.8774
11/11/21,16:23:27,5131.7910,N,3.5983,W,2.1783,0.5735,179.7482,-0.1681,0.2065,0.6898,12.8174,4.2114,-8.3618,7.9484
11/11/21,16:23:33,5131.7896,N,3.6020,W,1.5707,0.5845,179.3117,-0.0083,0.3472,0.8322,-8.7891,-62.8662,-45.1660,7.8774
11/11/21,16:23:39,5131.7876,N,3.6093,W,1.4106,0.7398,179.3248,0.0150,0.0862,0.7488,5.6763,-11.9019,1.2207,7.8774
11/11/21,16:23:45,5131.7876,N,3.6121,W,1.5714,0.8534,179.1846,0.1722,0.1287,1.0720,6.4697,26.4282,-15.0757,7.8065
11/11/21,16:23:51,5131.7886,N,3.6136,W,1.4431,0.6981,179.4808,0.0197,-0.0455,0.7550,-7.6294,-6.2866,31.1279,8.0194
11/11/21,16:23:57,5131.7881,N,3.6168,W,1.1400,0.5873,179.5848,0.1324,-0.1738,0.8756,-2.9907,-24.0479,11.2915,7.7710
11/11/21,16:24:3,5131.7896,N,3.6207,W,1.0574,0.5061,179.6562,0.1593,-0.0829,1.0215,-3.2959,1.6479,7.5073,7.9129
11/11/21,16:24:9,5131.7939,N,3.6187,W,0.9513,0.4144,179.2256,0.0063,-0.0295,0.8882,1.0376,-5.4321,-44.5557,7.7710
11/11/21,16:24:14,5131.7964,N,3.6200,W,1.0413,0.5131,179.0892,0.2585,0.1168,1.0475,6.2866,19.8975,-14.4043,7.8774
11/11/21,16:24:20,5131.7974,N,3.6243,W,1.1670,0.6068,179.0435,-0.0784,0.3641,1.1208,-1.4648,11.1694,-5.0659,7.8065
11/11/21,16:24:26,5131.7930,N,3.6329,W,0.8943,0.4872,179.1654,0.0945,-0.1451,0.9012,-3.4180,-21.4844,13.0615,7.7710
11/11/21,16:24:32,5131.7817,N,3.6511,W,0.9438,0.5934,178.7816,0.0001,0.0840,1.0365,0.4883,7.2021,-40.1611,7.9129
11/11/21,16:24:38,5131.7632,N,3.6809,W,0.8671,0.5897,178.6579,0.1567,-0.0570,0.9614,3.9673,2.5635,-12.8174,7.9839
11/11/21,16:24:44,5131.7583,N,3.6909,W,0.6935,0.5844,178.9282,0.1366,0.0400,0.6469,-3.4790,-6.5918,28.1372,7.9484
11/11/21,16:24:50,5131.7559,N,3.6977,W,1.1875,0.5237,178.8108,-0.2876,-0.0107,1.5059,-5.0049,39.8560,-12.5732,7.8419
11/11/21,16:24:56,5131.7544,N,3.7046,W,1.0234,0.6311,178.7239,0.0984,0.1047,0.6748,3.7842,-8.5449,-9.0942,7.7710
11/11/21,16:25:2,5131.7524,N,3.7113,W,0.8501,0.5326,179.0904,0.0703,-0.0651,0.6844,-3.2959,-9.0332,38.3301,7.8065
11/11/21,16:25:8,5131.7500,N,3.7174,W,1.1649,0.4452,179.1051,0.0590,-0.1295,1.4866,0.8545,38.3911,1.3428,7.8774
11/11/21,16:25:14,5131.7485,N,3.7237,W,1.0290,0.5278,178.8248,0.0641,0.0682,0.7559,2.0752,-5.3711,-29.2358,7.8419
11/11/21,16:25:20,5131.7446,N,3.7269,W,0.8708,0.5795,178.5807,0.1080,0.0483,0.7317,2.0752,-5.8594,-25.3906,7.8065
11/11/21,16:25:26,5131.7422,N,3.7321,W,0.7408,0.6072,178.5699,0.1703,0.0076,0.8904,2.9907,-2.0752,-1.0986,7.8065
11/11/21,16:25:32,5131.7397,N,3.7370,W,0.9701,0.7214,178.5314,0.2385,0.1360,1.2544,6.9580,34.1187,-4.4556,7.7710
11/11/21,16:25:38,5131.7383,N,3.7410,W,0.9431,0.6643,178.8511,0.0071,-0.1908,1.0232,4.8828,-1.0376,33.4473,7.8419
11/11/21,16:25:44,5131.7363,N,3.7461,W,0.7576,0.5143,179.0774,0.1216,-0.0955,0.6973,-8.9111,-10.0098,23.7427,7.9484
11/11/21,16:25:50,5131.7363,N,3.7532,W,0.7843,0.4387,179.3136,0.1486,-0.0875,1.1626,-2.3193,12.8174,24.5361,7.8419
11/11/21,16:25:56,5131.7368,N,3.7609,W,1.0003,0.5441,179.0367,-0.0575,0.1265,0.9962,0.6714,18.2495,-29.1138,7.8065
11/11/21,16:26:2,5131.7368,N,3.7700,W,0.8469,0.6208,178.9194,0.1190,0.0603,0.6600,3.7842,-5.4932,-12.2070,7.8774
11/11/21,16:26:8,5131.7358,N,3.7787,W,0.7293,0.6679,178.9063,0.2130,0.0037,0.9353,5.2490,-0.7935,-1.3428,7.9839
11/11/21,16:26:14,5131.7349,N,3.7859,W,0.7965,0.8295,178.7332,0.1622,0.0399,0.9786,15.1978,18.0664,-18.2495,7.7710
11/11/21,16:26:20,5131.7334,N,3.7916,W,0.8341,0.7764,179.1013,0.0402,-0.1752,1.0768,4.9438,7.6294,38.3301,7.8065
11/11/21,16:26:26,5131.7324,N,3.7953,W,0.5996,0.6388,179.2503,0.0935,-0.1971,0.7463,-4.2725,-19.0430,15.8691,7.8065
11/11/21,16:26:32,5131.7314,N,3.8015,W,0.7812,0.5307,179.3614,0.2728,-0.2552,1.0465,-3.5400,27.3438,11.3525,7.8419
11/11/21,16:26:38,5131.7300,N,3.8085,W,1.0446,0.5684,179.0674,-0.1410,0.0854,1.0327,-1.4648,17.2729,-30.8228,7.9129
11/11/21,16:26:44,5131.7295,N,3.8149,W,0.8977,0.6428,178.8697,0.1125,0.0514,0.7117,4.2725,-4.6997,-20.5688,7.9484
11/11/21,16:26:50,5131.7300,N,3.8215,W,0.7120,0.7406,178.8772,0.0718,0.0792,0.7513,2.7466,-10.5591,0.7935,7.9129
11/11/21,16:26:56,5131.7295,N,3.8292,W,0.4403,0.7776,178.8160,0.1707,0.0609,0.7026,0.7324,-17.3340,-6.1646,7.9484
11/11/21,16:27:2,5131.7295,N,3.8356,W,0.3154,0.7558,178.1552,0.0381,0.2411,0.8375,-13.0615,-11.7188,-68.6646,7.7710
11/11/21,16:27:8,5131.7334,N,3.8402,W,0.8048,0.8008,178.3728,-0.3999,-0.2378,1.8615,10.8643,41.6870,22.0947,7.8419
11/11/21,16:27:14,5131.7363,N,3.8438,W,0.7345,0.7550,178.6469,0.0621,-0.1625,1.0024,5.3711,-2.3804,28.6865,7.7710
11/11/21,16:27:20,5131.7402,N,3.8464,W,0.4306,0.7321,178.7427,0.2010,-0.0281,0.8058,-0.4272,-20.2026,10.2539,7.7710
11/11/21,16:27:26,5131.7402,N,3.8506,W,0.7028,0.8369,178.7477,0.0198,0.1122,1.2769,-0.0610,31.6772,0.0000,7.8774
11/11/21,16:27:32,5131.7402,N,3.8508,W,0.4579,0.7202,178.9592,0.1377,-0.1548,0.8320,-3.7842,-17.5781,22.3389,7.9484
11/11/21,16:27:38,5131.7417,N,3.8510,W,0.3869,0.7885,179.0568,0.1476,0.1323,1.1136,0.1221,1.8921,10.0708,7.8774
11/11/21,16:27:44,5131.7437,N,3.8513,W,0.2128,0.6912,179.1223,0.2256,-0.0028,0.9961,-9.3384,-6.5918,6.8970,7.7710
11/11/21,16:27:50,5131.7466,N,3.8523,W,0.0700,0.8058,179.0130,0.0887,0.1354,0.8036,2.6855,-8.2397,-11.2915,7.8774
11/11/21,16:27:56,5131.7461,N,3.8570,W,0.0556,0.7783,178.9228,0.1382,-0.1300,1.1410,5.4321,6.2866,-9.4604,7.9129
11/11/21,16:28:2,5131.7476,N,3.8614,W,-0.1366,0.9008,178.8748,0.0747,0.2302,0.6903,1.8921,-16.3574,-4.7607,7.8419
11/11/21,16:28:8,5131.7476,N,3.8667,W,0.2589,1.0662,178.8973,0.1042,0.1174,1.5187,9.3994,49.5605,1.5259,7.9129
11/11/21,16:28:14,5131.7490,N,3.8712,W,0.0600,0.9280,179.1517,0.1639,-0.1147,0.6653,-7.5073,-11.1084,26.6724,8.0194
11/11/21,16:28:20,5131.7476,N,3.8766,W,-0.1302,0.8647,179.2308,0.1807,-0.0538,0.8624,-2.5635,-8.9111,8.3618,7.8065
11/11/21,16:28:25,5131.7461,N,3.8820,W,-0.3017,0.8440,179.2809,0.2434,-0.1080,0.8444,2.9907,-7.5073,5.3101,7.7710
11/11/21,16:28:31,5131.7441,N,3.8893,W,-0.0188,0.8574,179.3352,-0.1812,-0.1339,1.3872,8.6670,20.6299,5.3101,7.8419
11/11/21,16:28:36,5131.7441,N,3.8942,W,-0.2304,0.8179,179.0959,0.2113,0.1191,0.8170,-9.3384,-12.1460,-24.7192,7.9129
11/11/21,16:28:42,5131.7480,N,3.8983,W,-0.1239,0.7498,179.2216,0.2557,-0.1632,1.1794,-0.3662,20.5688,12.7563,7.8774
11/11/21,16:28:48,5131.7524,N,3.9012,W,-0.2518,0.7652,178.9278,0.1033,0.0068,0.8292,1.9531,-2.2583,-30.5176,7.8065
11/11/21,16:28:54,5131.7578,N,3.9042,W,-0.5085,0.8120,178.9246,0.2390,0.0210,0.7406,4.3335,-15.2588,-0.1221,7.7000
11/11/21,16:29:0,5131.7632,N,3.9061,W,-0.2901,0.8781,178.7276,-0.1644,0.1936,1.2133,-1.4038,14.3433,-20.6299,7.8419
11/11/21,16:29:6,5131.7676,N,3.9073,W,-0.4283,0.7535,178.9576,0.1147,-0.2249,0.7178,-2.4414,-9.1553,23.9868,7.7710
11/11/21,16:29:12,5131.7734,N,3.9080,W,-0.2661,0.6989,179.1227,0.2242,-0.1494,1.2009,1.4038,26.1841,16.7847,7.8419
11/11/21,16:29:18,5131.7773,N,3.9104,W,-0.3294,0.7612,178.7898,0.0854,0.0797,1.0178,-1.0376,1.7700,-34.6069,7.7710
11/11/21,16:29:24,5131.7773,N,3.9152,W,-0.5065,0.8639,178.7047,0.1033,0.1914,0.6987,0.5493,-13.0615,-8.6060,7.8774
11/11/21,16:29:30,5131.7744,N,3.9201,W,-0.5751,0.8744,178.6157,0.1736,-0.0413,0.9232,4.6387,3.6011,-9.3384,7.9129
11/11/21,16:29:36,5131.7769,N,3.9206,W,-0.5896,0.8133,178.8707,0.0751,-0.1531,0.9480,4.5776,3.0518,26.3672,7.8419
11/11/21,16:29:42,5131.7778,N,3.9221,W,-0.9036,0.6712,178.9423,0.1414,-0.2286,0.8734,-4.6387,-27.0386,7.6904,7.9484
11/11/21,16:29:47,5131.7803,N,3.9221,W,-1.0517,0.7637,178.8060,0.0782,0.0378,0.7968,4.8218,-5.0659,-14.0381,7.8065
11/11/21,16:29:53,5131.7842,N,3.9237,W,-1.3422,0.8214,178.8281,0.1781,0.0541,0.8135,3.1128,-19.1040,2.6245,7.9129
11/11/21,16:29:59,5131.7886,N,3.9264,W,-0.6771,0.8250,178.8014,-0.1328,-0.0472,1.6262,4.6997,58.5327,-3.7231,7.7355
11/11/21,16:30:5,5131.7935,N,3.9270,W,-0.8743,0.6766,178.9955,0.1108,-0.1841,0.7769,-5.0049,-14.9536,20.2637,7.7355
11/11/21,16:30:11,5131.7993,N,3.9285,W,-0.6038,0.5396,179.1085,0.0966,-0.1182,1.2256,-4.2114,34.0576,11.2305,7.8065
11/11/21,16:30:17,5131.8037,N,3.9299,W,-0.7910,0.6158,178.9127,0.0853,0.0485,0.6960,2.2583,-9.5825,-20.2026,7.8774
11/11/21,16:30:22,5131.8066,N,3.9310,W,-0.8805,0.5041,179.1901,0.0571,-0.1276,0.9124,-0.3052,-5.4932,28.7476,7.8774
11/11/21,16:30:28,5131.8091,N,3.9340,W,-0.4763,0.3513,179.0618,0.0642,-0.0881,1.4929,-5.4321,46.2646,-13.8550,7.7710
11/11/21,16:30:34,5131.8125,N,3.9350,W,-0.6333,0.4273,178.7952,0.1228,0.0559,0.6224,2.9907,-6.0425,-27.6489,7.8065
11/11/21,16:30:40,5131.8188,N,3.9352,W,-0.4852,0.5878,178.8520,0.4060,0.1626,1.1788,12.5732,26.1230,5.7373,7.9129
11/11/21,16:30:46,5131.8228,N,3.9368,W,-0.5465,0.4610,179.2770,0.1289,-0.2896,0.7039,-2.1973,-1.5869,44.1284,7.9129
11/11/21,16:30:52,5131.8267,N,3.9367,W,-0.2084,0.4409,179.2670,0.2080,-0.1403,1.4114,4.9438,44.1895,-1.4648,7.7710
11/11/21,16:30:58,5131.8320,N,3.9372,W,-0.4142,0.5489,179.0818,0.1544,0.1627,0.6207,2.8687,-13.6108,-19.1040,7.8774
11/11/21,16:31:4,5131.8369,N,3.9389,W,-0.0714,0.7219,179.0703,0.2587,0.1539,1.2460,12.3291,45.5933,-1.6479,7.8419
11/11/21,16:31:10,5131.8418,N,3.9415,W,-0.2403,0.7732,179.2811,0.0491,0.0383,0.7601,-0.4883,-7.4463,22.0337,7.7710
11/11/21,16:31:16,5131.8457,N,3.9422,W,-0.5468,0.6823,179.2669,0.1893,-0.0985,0.8752,-3.6011,-22.0337,-1.2207,7.8774
11/11/21,16:31:22,5131.8506,N,3.9446,W,-0.4672,0.6141,178.9682,-0.0045,-0.1267,0.9822,4.0283,6.7749,-31.2500,7.8774
11/11/21,16:31:28,5131.8540,N,3.9464,W,-0.6084,0.7322,178.7907,0.1149,0.1211,0.6945,3.8452,-6.9580,-18.3105,7.9484
11/11/21,16:31:34,5131.8579,N,3.9492,W,-0.3199,0.8804,178.7107,0.3086,0.0791,1.0612,12.8784,41.0767,-8.8501,7.7710
11/11/21,16:31:40,5131.8623,N,3.9501,W,-0.3733,0.9855,179.0780,0.0885,0.0482,0.9242,6.8359,5.6763,38.1470,7.8065
11/11/21,16:31:46,5131.8667,N,3.9517,W,-0.5920,0.8658,179.2778,0.1350,-0.3063,0.8523,-1.6479,-18.1274,20.9961,8.0194
11/11/21,16:31:52,5131.8687,N,3.9546,W,-0.3357,0.8640,179.2546,-0.1487,0.0472,1.3483,-2.0752,15.3198,-2.6245,7.7355
11/11/21,16:31:58,5131.8687,N,3.9592,W,-0.4571,0.9775,179.0465,0.0795,0.1129,0.7476,2.4414,-6.1646,-21.4844,7.7710
11/11/21,16:32:4,5131.8696,N,3.9662,W,-0.3791,1.0410,178.9318,0.3490,0.0116,1.2336,6.8359,19.3481,-12.2681,7.9129
11/11/21,16:32:10,5131.8682,N,3.9725,W,-0.6289,1.1123,179.6059,0.1168,-0.0969,0.7845,16.1133,-16.5405,70.3735,7.8419
11/11/21,16:32:16,5131.8677,N,3.9790,W,-0.9689,1.0589,179.7164,0.2212,-0.0939,0.8260,-0.1221,-24.9634,11.9019,7.8419
11/11/21,16:32:22,5131.8677,N,3.9864,W,-0.8900,0.9645,179.6169,-0.0844,-0.1779,1.0804,0.1831,2.7466,-10.5591,7.9484
11/11/21,16:32:28,5131.8672,N,3.9936,W,-1.1159,1.0959,179.5338,0.0785,0.2100,0.6095,2.6855,-19.8975,-8.1177,7.8419
11/11/21,16:32:34,5131.8657,N,4.0012,W,-0.9595,1.1851,179.5053,0.2920,0.0532,1.2808,7.9956,27.5879,-3.4790,7.8774
11/11/21,16:32:40,5131.8657,N,4.0080,W,-1.1527,1.0906,179.6840,0.0538,-0.0232,0.8135,-1.4038,-11.5967,18.6768,7.7355
11/11/21,16:32:46,5131.8647,N,4.0145,W,-1.4209,1.0167,179.5168,0.2335,-0.0663,0.8730,-3.9673,-17.5171,-17.1509,7.7710
11/11/21,16:32:52,5131.8657,N,4.0219,W,-1.2389,0.9672,179.4208,-0.0173,-0.2251,0.8865,5.9204,16.9067,-10.5591,7.8774
11/11/21,16:32:58,5131.8652,N,4.0293,W,-1.4246,1.0503,179.3353,0.1155,0.0944,0.6635,1.1597,-10.6201,-8.5449,7.7000
11/11/21,16:33:4,5131.8643,N,4.0341,W,-1.3384,1.0588,179.2584,0.1897,-0.0848,0.9608,6.7139,18.5547,-8.4839,7.7710
11/11/21,16:33:10,5131.8643,N,4.0347,W,-1.4194,0.9933,179.2531,0.1677,-0.1003,0.9349,0.3662,0.4883,-0.7324,7.9129
11/11/21,16:33:16,5131.8643,N,4.0348,W,-1.4911,0.9524,179.2469,0.1560,-0.0941,0.9346,3.0518,1.3428,-0.8545,7.9129
11/11/21,16:33:22,5131.8643,N,4.0348,W,-1.6107,0.9677,179.2312,0.1801,0.0266,0.9381,0.7324,-1.0376,-1.5869,7.9129
11/11/21,16:33:28,5131.8652,N,4.0350,W,-1.5612,1.1044,179.1777,0.0646,0.2190,0.9510,2.8076,7.1411,-5.3711,7.8065
11/11/21,16:33:34,5131.8657,N,4.0360,W,-1.5742,0.9993,179.1516,0.0702,-0.1360,0.9445,0.0000,1.7700,-3.0518,7.8065
11/11/21,16:33:40,5131.8657,N,4.0370,W,-1.7195,0.9341,178.6859,0.2048,0.0566,0.8480,-10.7422,-4.7607,-48.2788,7.7355
11/11/21,16:33:46,5131.8657,N,4.0373,W,-1.8033,0.8732,178.6569,0.1682,-0.0897,0.9698,0.4883,0.3662,-3.2349,7.8065
11/11/21,16:33:52,5131.8657,N,4.0370,W,-1.9200,0.8611,178.6747,0.1311,-0.0122,0.9446,1.7090,-1.0376,1.7700,7.9129
11/11/21,16:33:58,5131.8657,N,4.0369,W,-2.0100,0.8360,178.6554,0.1315,-0.0156,0.9460,0.6104,1.5869,-2.1362,7.8065
11/11/21,16:34:4,5131.8657,N,4.0366,W,-2.1178,0.8409,178.9565,0.1511,-0.0449,0.9351,6.7139,-0.4883,31.1279,7.8065
11/11/21,16:34:9,5131.8657,N,4.0358,W,-2.2074,0.8014,178.9684,0.1523,-0.0404,0.9385,0.7324,1.0986,1.0376,7.8774
11/11/21,16:34:14,5131.8662,N,4.0361,W,-2.3247,0.7890,179.0107,0.1318,-0.0186,0.9452,2.5024,-1.2817,4.2725,7.7000
11/11/21,16:34:20,5131.8662,N,4.0363,W,-2.4365,0.7383,178.7452,0.1750,-0.0511,0.8999,-1.6479,-1.5869,-27.7710,7.8065
11/11/21,16:34:26,5131.8667,N,4.0357,W,-2.6054,0.6834,178.7590,0.1686,-0.1035,0.9749,2.0752,-9.0942,1.2207,7.8065
11/11/21,16:34:32,5131.8706,N,4.0386,W,-2.8634,0.7038,178.1333,0.0814,0.0190,0.7856,-3.3569,-16.4185,-64.6973,7.7355
11/11/21,16:34:38,5131.8711,N,4.0440,W,-2.8419,0.5203,177.7721,-0.0814,-0.3171,0.9802,-10.3149,-2.3804,-38.0249,7.9129
11/11/21,16:34:44,5131.8735,N,4.0452,W,-2.5618,0.5352,177.7719,-0.3519,-0.1853,1.6296,6.3477,18.7378,-0.4272,7.8419
11/11/21,16:34:50,5131.8774,N,4.0479,W,-2.3773,0.4436,177.8771,0.2927,-0.1659,1.1780,-2.2583,28.5034,10.3760,7.7710
11/11/21,16:34:56,5131.8823,N,4.0499,W,-2.4088,0.5392,177.8082,0.1691,0.0298,0.9734,7.6904,7.9346,-7.1411,7.7710
11/11/21,16:35:2,5131.8867,N,4.0498,W,-2.5549,0.5063,177.8117,0.2999,0.0616,1.0116,-5.6763,-3.9673,0.4883,7.8419
11/11/21,16:35:8,5131.8901,N,4.0497,W,-2.7702,0.6656,177.5956,0.1135,0.1017,0.5948,7.0190,-14.9536,-21.9116,7.9484
11/11/21,16:35:14,5131.8936,N,4.0515,W,-2.8030,0.5812,177.8880,0.0758,-0.1398,0.9984,3.9673,-1.0376,29.8462,7.8065
11/11/21,16:35:20,5131.8979,N,4.0524,W,-2.7527,0.5445,177.8052,-0.0338,-0.1621,1.1506,5.9204,-0.1221,-9.0942,7.8065
11/11/21,16:35:26,5131.9019,N,4.0515,W,-2.7331,0.6419,177.6208,0.2506,0.0559,1.0266,6.6528,13.0005,-19.1650,7.8065
11/11/21,16:35:32,5131.9062,N,4.0535,W,-2.8508,0.4501,177.9379,0.1266,-0.1373,0.6482,-8.7891,-5.6152,32.5317,7.8419
11/11/21,16:35:38,5131.9092,N,4.0545,W,-3.0149,0.3682,177.9915,0.2062,-0.1946,0.8239,0.6104,-9.7656,5.1880,7.8065
11/11/21,16:35:43,5131.9116,N,4.0567,W,-2.9765,0.3961,177.3412,0.0408,0.1847,1.1184,-12.0239,2.3804,-66.9556,7.8774
11/11/21,16:35:49,5131.9136,N,4.0630,W,-2.8966,-0.3460,177.3842,0.4443,-0.4614,0.7653,-68.2983,15.8081,3.9673,7.7710
11/11/21,16:35:55,5131.9146,N,4.0654,W,-2.7842,-0.3264,177.3388,-0.4957,-0.2334,0.6681,6.3477,1.2207,-4.9438,7.7000
11/11/21,16:36:1,5131.9150,N,4.0650,W,-3.5762,-0.2072,177.1980,-0.2438,-0.1466,0.6667,16.8457,-92.4683,-15.3198,7.7355
11/11/21,16:36:7,5131.9155,N,4.0650,W,-3.4692,-0.1986,177.1908,-0.3767,0.0057,0.8937,0.6104,-0.3052,-0.7324,7.7710
11/11/21,16:36:13,5131.9155,N,4.0649,W,-3.3552,-0.1877,177.1865,-0.3726,0.0063,0.8947,0.8545,0.4272,-0.4272,7.7355
11/11/21,16:36:19,5131.9160,N,4.0650,W,-3.2423,-0.1771,177.1835,-0.3721,0.0055,0.8955,0.8545,0.3052,-0.3052,7.8419
11/11/21,16:36:25,5131.9160,N,4.0649,W,-3.1288,-0.1657,177.1804,-0.3700,0.0063,0.8948,0.9155,0.3662,-0.3052,7.8065
11/11/21,16:36:31,5131.9160,N,4.0649,W,-3.0147,-0.1558,177.1768,-0.3713,0.0056,0.8938,0.7935,0.4272,-0.3662,7.7710
11/11/21,16:36:37,5131.9165,N,4.0650,W,-2.9017,-0.1454,177.1749,-0.3706,0.0052,0.8961,0.8545,0.3052,-0.1831,7.8774
11/11/21,16:36:42,5131.9170,N,4.0639,W,-2.7894,-0.1372,177.1701,-0.3700,0.0059,0.8943,0.6104,0.2441,-0.4883,7.9484
11/11/21,16:36:48,5131.9175,N,4.0637,W,-2.6758,-0.1273,177.1641,-0.3694,0.0054,0.8958,0.7935,0.3662,-0.6104,7.7355
11/11/21,16:36:54,5131.9175,N,4.0640,W,-2.5634,-0.1175,177.1605,-0.3701,0.0054,0.8954,0.7935,0.2441,-0.3662,7.7000
11/11/21,16:37:0,5131.9175,N,4.0642,W,-2.4493,-0.1063,177.1563,-0.3682,0.0065,0.8938,0.9155,0.4272,-0.4272,7.7710
11/11/21,16:37:6,5131.9175,N,4.0640,W,-2.3374,-0.0972,177.1521,-0.3691,0.0052,0.8954,0.7324,0.1831,-0.4272,7.7710
11/11/21,16:37:12,5131.9180,N,4.0639,W,-2.2239,-0.0874,177.1473,-0.3695,0.0056,0.8959,0.7935,0.3662,-0.4883,7.7355
11/11/21,16:37:18,5131.9189,N,4.0649,W,-2.1097,-0.0773,177.1455,-0.3688,0.0054,0.8942,0.8545,0.4272,-0.1831,7.8065
11/11/21,16:37:24,5131.9194,N,4.0655,W,-1.9984,-0.0675,177.1413,-0.3706,0.0040,0.9009,0.8545,0.1221,-0.4272,7.9129
11/11/21,16:37:30,5131.9194,N,4.0657,W,-1.8830,-0.0573,177.1372,-0.3677,0.0057,0.8953,0.8545,0.5493,-0.4272,7.8419
11/11/21,16:37:36,5131.9194,N,4.0659,W,-1.7694,-0.0496,177.1324,-0.3713,0.0051,0.8982,0.6104,0.3662,-0.4883,7.8419
11/11/21,16:37:42,5131.9199,N,4.0658,W,-1.6546,-0.0400,177.1271,-0.3679,0.0059,0.8961,0.7935,0.4883,-0.5493,7.6645
11/11/21,16:37:48,5131.9194,N,4.0654,W,-1.5439,-0.0321,177.1235,-0.3677,0.0062,0.8929,0.6104,0.0610,-0.3662,7.9129
11/11/21,16:37:54,5131.9189,N,4.0655,W,-1.4320,-0.0244,177.1199,-0.3680,0.0057,0.8960,0.6104,0.1831,-0.3662,7.7710
11/11/21,16:38:0,5131.9189,N,4.0658,W,-1.3177,-0.0150,177.1158,-0.3672,0.0054,0.8947,0.7935,0.4272,-0.4272,7.7000
11/11/21,16:38:6,5131.9194,N,4.0674,W,-1.2017,-0.0087,177.1123,-0.3723,0.0012,0.9047,0.6104,0.6104,-0.3662,7.8065
11/11/21,16:38:12,5131.9194,N,4.0687,W,-1.0892,0.0012,177.1081,-0.3671,0.0055,0.8964,0.8545,0.2441,-0.4272,7.8419
11/11/21,16:38:18,5131.9194,N,4.0686,W,-0.9779,0.0106,177.1046,-0.3668,0.0057,0.8955,0.7935,0.1221,-0.3662,7.7710
11/11/21,16:38:24,5131.9189,N,4.0672,W,-0.8659,0.0200,177.0999,-0.3680,0.0042,0.8978,0.8545,0.1831,-0.4883,7.7710
11/11/21,16:38:30,5131.9185,N,4.0664,W,-0.7534,0.0291,177.0975,-0.3682,0.0051,0.8967,0.7935,0.2441,-0.2441,7.7355
11/11/21,16:38:35,5131.9180,N,4.0660,W,-0.6415,0.0398,177.0940,-0.3660,0.0049,0.8973,0.9766,0.1831,-0.3662,7.7710
11/11/21,16:38:41,5131.9180,N,4.0660,W,-0.5272,0.0492,177.0922,-0.3668,0.0046,0.8971,0.8545,0.4272,-0.1831,7.8065
11/11/21,16:38:47,5131.9175,N,4.0659,W,-0.4124,0.0580,177.0887,-0.3665,0.0048,0.8982,0.7935,0.4883,-0.3662,7.7000
11/11/21,16:38:53,5131.9175,N,4.0662,W,-0.2992,0.0649,177.0835,-0.3644,0.0043,0.8962,0.6104,0.3052,-0.5493,7.8774
11/11/21,16:38:59,5131.9175,N,4.0663,W,-0.1838,0.0754,177.0805,-0.3658,0.0048,0.8958,0.9766,0.5493,-0.3052,7.8419
11/11/21,16:39:4,5131.9175,N,4.0663,W,-0.0712,0.0826,177.0758,-0.3651,0.0055,0.8960,0.6104,0.2441,-0.4883,7.8065
11/11/21,16:39:10,5131.9175,N,4.0666,W,0.0413,0.0912,177.0729,-0.3651,0.0044,0.8964,0.7935,0.2441,-0.3052,7.8419
11/11/21,16:39:16,5131.9175,N,4.0667,W,0.1550,0.1016,177.0700,-0.3651,0.0048,0.8977,0.9766,0.3662,-0.3052,7.8065
11/11/21,16:39:22,5131.9175,N,4.0668,W,0.2693,0.1101,177.0671,-0.3668,0.0046,0.8981,0.7935,0.4272,-0.3052,7.8065
11/11/21,16:39:28,5131.9175,N,4.0668,W,0.3830,0.1192,177.0624,-0.3652,0.0046,0.8983,0.8545,0.3662,-0.4883,7.8774
11/11/21,16:39:34,5131.9175,N,4.0668,W,0.4938,0.1290,177.0601,-0.3641,0.0052,0.8967,0.9155,0.0610,-0.2441,7.8419
11/11/21,16:39:40,5131.9175,N,4.0668,W,0.6110,0.1395,177.0578,-0.3683,0.0077,0.8925,0.9155,0.7324,-0.2441,7.8065
11/11/21,16:39:46,5131.9175,N,4.0669,W,0.6907,-0.4297,176.7784,0.5730,0.3275,0.9087,-64.4531,18.3716,-29.1138,7.8065
11/11/21,16:39:52,5131.9165,N,4.0662,W,0.3809,-0.5301,176.6729,0.2836,-0.1313,0.6841,-5.7983,-21.6064,-11.1084,7.7355
11/11/21,16:39:58,5131.9150,N,4.0627,W,0.3225,-0.4620,176.2994,0.1736,0.1932,0.7173,-1.2207,1.8921,-38.8794,7.8065
11/11/21,16:40:4,5131.9121,N,4.0596,W,0.3041,-0.3468,176.5174,0.1456,0.2729,1.1227,1.7700,3.3569,22.6440,7.7710
11/11/21,16:40:9,5131.9097,N,4.0578,W,-0.0370,-0.3178,176.2991,0.2460,0.1699,0.5879,-3.4790,-25.9399,-22.8882,7.8065
11/11/21,16:40:15,5131.9062,N,4.0563,W,0.0206,-0.2594,176.4984,0.0046,-0.1014,1.3661,17.5171,6.3477,20.7520,7.8774
11/11/21,16:40:20,5131.9033,N,4.0552,W,-0.2093,-0.2407,176.2900,0.2136,0.0387,0.7900,-0.3052,-12.5732,-21.7285,7.8065
11/11/21,16:40:26,5131.8999,N,4.0548,W,-0.2142,-0.1425,176.2900,0.4104,0.1445,0.9089,6.2866,10.2539,0.0610,7.9129
11/11/21,16:40:32,5131.8984,N,4.0549,W,-0.4946,-0.1274,176.4999,0.2736,-0.0111,0.9294,2.0752,-17.7612,21.7896,7.8419
11/11/21,16:40:38,5131.8975,N,4.0525,W,-0.7013,-0.1755,176.1404,0.2367,0.0238,0.7490,-6.6528,-10.0098,-37.4146,7.9484
11/11/21,16:40:44,5131.8921,N,4.0524,W,-0.4312,-0.0019,176.2159,0.3815,0.2122,1.1560,12.3291,37.9639,7.9956,7.7355
11/11/21,16:40:50,5131.8872,N,4.0525,W,-0.5390,-0.0537,176.2595,0.1954,-0.0347,0.6508,-3.2959,0.0610,4.5166,7.8065
11/11/21,16:40:56,5131.8823,N,4.0515,W,-0.5509,-0.2019,176.2218,0.0248,-0.1753,1.0286,-4.0283,-0.2441,-4.0283,7.7355
11/11/21,16:41:2,5131.8774,N,4.0505,W,-0.8414,-0.1498,176.1644,0.3346,0.1572,0.7782,0.3052,-19.8975,-5.9814,7.8419
11/11/21,16:41:8,5131.8740,N,4.0469,W,-1.0871,-0.1953,175.9449,0.2429,-0.0277,0.7603,-3.8452,-14.0991,-22.8882,7.8419
11/11/21,16:41:14,5131.8726,N,4.0406,W,-1.1421,-0.1323,175.9076,0.3854,0.0161,1.0447,5.8594,5.7373,-3.8452,7.8065
11/11/21,16:41:20,5131.8726,N,4.0330,W,-0.7034,-0.0937,176.1044,0.0206,-0.0948,1.4467,15.7471,44.5557,20.3247,7.7710
11/11/21,16:41:26,5131.8726,N,4.0258,W,-0.8388,-0.0972,176.2499,0.2168,0.0164,0.5831,-1.0986,-2.6855,15.1367,7.7355
11/11/21,16:41:32,5131.8740,N,4.0172,W,-0.6594,-0.1680,176.2710,0.6757,-0.2861,1.0365,-2.8076,29.1748,2.1973,7.7355
11/11/21,16:41:38,5131.8740,N,4.0099,W,-0.9579,-0.0830,176.0945,0.3115,0.2565,0.6853,1.1597,-22.2778,-18.3105,7.8419
11/11/21,16:41:44,5131.8726,N,4.0038,W,-1.0166,0.0919,176.1673,0.0807,0.3195,0.9697,7.0801,-3.8452,7.7515,7.7000
11/11/21,16:41:50,5131.8735,N,3.9970,W,-1.3065,0.0243,176.1594,0.3225,-0.2133,0.8163,-0.4883,-20.7520,-0.9155,7.7355
11/11/21,16:41:56,5131.8735,N,3.9897,W,-1.5571,0.0826,175.8864,0.2180,0.1667,0.6085,-1.8921,-17.2119,-28.1982,7.9129
11/11/21,16:42:2,5131.8750,N,3.9822,W,-1.5310,0.1284,176.2668,0.0763,-0.1074,1.2861,16.5405,6.8359,39.2456,7.7710
11/11/21,16:42:8,5131.8760,N,3.9751,W,-1.6691,0.1486,176.3106,0.5122,0.1350,1.0018,-0.7935,-3.2959,4.6387,7.8419
11/11/21,16:42:14,5131.8774,N,3.9679,W,-1.9214,0.1752,176.0200,0.2167,0.0447,0.6211,-0.6104,-15.1367,-30.0903,7.5935
11/11/21,16:42:19,5131.8765,N,3.9638,W,-2.0698,0.1431,176.2040,0.2880,-0.0209,0.5713,-1.7090,-3.9673,19.1040,7.8419
11/11/21,16:42:25,5131.8750,N,3.9592,W,-2.1033,0.1340,176.2834,0.4919,0.0825,0.9619,-2.6245,7.8125,8.3008,7.8419
11/11/21,16:42:31,5131.8755,N,3.9531,W,-2.3798,0.1516,176.0177,0.2507,0.1434,0.6387,-5.3101,-19.1040,-27.3438,7.8419
11/11/21,16:42:37,5131.8760,N,3.9461,W,-2.3695,0.2733,176.1242,0.0863,0.2589,1.2567,1.7700,2.6245,11.5356,7.8774
11/11/21,16:42:43,5131.8750,N,3.9403,W,-2.3281,0.2948,176.3724,0.3948,0.0795,1.0697,0.9155,15.6250,25.8179,7.7710
11/11/21,16:42:49,5131.8760,N,3.9335,W,-2.5527,0.2826,176.0224,0.2384,0.0022,0.6884,-2.7466,-12.0850,-36.3159,7.7355
11/11/21,16:42:55,5131.8760,N,3.9254,W,-2.1594,0.2923,176.1324,-0.1094,-0.2111,1.5160,10.3760,33.7524,10.8643,7.7000
11/11/21,16:43:1,5131.8774,N,3.9172,W,-2.0406,0.3444,176.3649,0.3695,0.1132,1.0482,2.7466,23.3765,24.1699,7.7710
11/11/21,16:43:7,5131.8789,N,3.9095,W,-2.2669,0.3868,176.0365,0.2469,0.1437,0.6401,-2.9297,-14.0381,-33.8135,7.8065
11/11/21,16:43:12,5131.8804,N,3.9035,W,-2.3895,0.3349,176.1669,0.3214,0.0066,0.6295,-4.9438,-1.2207,13.5498,8.0548
11/11/21,16:43:18,5131.8809,N,3.8969,W,-2.1080,0.4656,176.3464,0.0001,0.1417,1.3120,3.7231,25.0854,18.9209,7.8419
11/11/21,16:43:24,5131.8813,N,3.8900,W,-2.3743,0.5474,176.2371,0.3707,0.1420,0.7845,3.8452,-17.1509,-11.0474,7.7355
11/11/21,16:43:30,5131.8809,N,3.8839,W,-2.4994,0.6410,176.6369,0.2111,0.0519,0.9467,8.7280,-1.4648,41.6870,7.9129
11/11/21,16:43:36,5131.8823,N,3.8757,W,-2.8737,0.5925,176.6510,0.3601,-0.1191,0.7803,-0.7935,-28.2593,1.5869,7.8774
11/11/21,16:43:42,5131.8838,N,3.8678,W,-3.0865,0.6501,176.3987,0.2227,0.1006,0.6316,-0.4272,-12.1460,-25.8179,7.9839
11/11/21,16:43:48,5131.8862,N,3.8602,W,-2.8350,0.6458,176.5412,0.0132,-0.3086,1.4331,11.5356,24.1089,13.9160,7.7710
11/11/21,16:43:54,5131.8867,N,3.8538,W,-3.0735,0.5833,176.5426,0.4324,0.0245,0.7413,-6.9580,-13.3667,0.3052,7.8419
11/11/21,16:44:0,5131.8877,N,3.8463,W,-3.3095,0.6259,176.2701,0.2389,0.0977,0.6893,-1.8311,-14.4043,-27.8931,7.7710
11/11/21,16:44:6,5131.8882,N,3.8403,W,-3.0060,0.8393,176.3588,-0.1564,0.0656,1.0730,19.9585,20.5688,9.0942,7.9839
11/11/21,16:44:12,5131.8862,N,3.8359,W,-3.1277,0.7446,176.3463,0.2159,-0.1011,1.3936,-2.5024,-3.9673,-1.6479,7.8774
11/11/21,16:44:18,5131.8843,N,3.8308,W,-3.3649,0.8151,176.3316,0.3428,0.1292,0.6973,3.0518,-14.0381,-1.0986,7.7355
11/11/21,16:44:24,5131.8853,N,3.8245,W,-3.5063,0.7416,176.5760,0.3446,-0.0029,0.6302,-5.6763,-2.9297,25.3906,7.7000
11/11/21,16:44:30,5131.8857,N,3.8180,W,-3.6881,0.7375,176.2326,0.2841,0.1278,0.8566,-7.8125,-9.1553,-35.2173,7.8774
11/11/21,16:44:36,5131.8857,N,3.8118,W,-3.2201,0.7963,176.3779,-0.1610,-0.2106,1.4072,14.7095,40.4053,14.0381,7.8065
11/11/21,16:44:42,5131.8872,N,3.8073,W,-3.3434,0.6967,176.5365,0.2581,-0.0850,0.7325,-4.8218,-2.1362,16.2354,7.9484
11/11/21,16:44:48,5131.8887,N,3.8020,W,-3.5860,0.7352,176.2746,0.2640,0.1097,0.6263,-2.3193,-15.1367,-26.7334,7.7000
11/11/21,16:44:54,5131.8896,N,3.7945,W,-3.5789,0.7791,176.5679,0.2247,0.1401,1.0104,-0.6104,10.1318,30.7617,7.7355
11/11/21,16:45:0,5131.8906,N,3.7868,W,-3.6104,0.8391,176.7155,0.5039,0.0801,0.9547,5.4932,8.2397,15.3198,7.7710
11/11/21,16:45:6,5131.8906,N,3.7802,W,-3.9022,0.9345,176.6921,0.3295,0.2264,0.7759,2.8076,-21.3013,-1.6479,7.8419
11/11/21,16:45:12,5131.8921,N,3.7730,W,-4.0466,0.9565,176.8243,0.1793,0.0457,0.6399,0.3662,-3.7231,13.9771,7.8419
11/11/21,16:45:18,5131.8940,N,3.7659,W,-3.7067,0.9792,176.9788,0.3809,0.0480,1.3688,2.4414,46.9971,15.3198,7.8065
11/11/21,16:45:24,5131.8960,N,3.7598,W,-3.9947,1.0420,176.8250,0.2125,0.1672,0.6947,-2.3193,-21.8506,-15.0757,7.8065
11/11/21,16:45:30,5131.8984,N,3.7538,W,-4.0501,1.0546,177.1920,0.2184,-0.0482,1.0465,8.7891,5.3101,37.6587,7.8065
11/11/21,16:45:36,5131.8989,N,3.7459,W,-3.9401,1.0489,177.3010,0.4307,0.0160,1.2384,0.4272,23.0713,10.8643,7.8419
11/11/21,16:45:42,5131.9014,N,3.7382,W,-4.1444,1.1058,177.0691,0.2323,0.1409,0.6448,-2.2583,-12.2681,-23.3765,7.8065
11/11/21,16:45:48,5131.9033,N,3.7328,W,-4.0845,1.2480,177.1732,0.1599,0.3557,0.9902,4.5166,9.3384,11.4136,7.8065
11/11/21,16:45:54,5131.9028,N,3.7265,W,-4.2434,1.1187,177.3710,0.3317,-0.2909,0.7488,-3.4790,-8.4229,20.0806,7.7710
11/11/21,16:46:0,5131.9023,N,3.7189,W,-4.4716,1.1316,177.3205,0.2438,0.0660,0.7438,-2.0752,-12.8174,-4.7607,7.8419
11/11/21,16:46:6,5131.9028,N,3.7113,W,-4.0042,1.1325,177.3067,0.2238,-0.0453,1.5748,6.8970,57.6782,-3.1128,7.8419
11/11/21,16:46:12,5131.9048,N,3.7033,W,-4.2700,1.1347,177.3672,0.4677,0.1732,0.9022,-3.4180,-16.8457,6.8970,7.7355
11/11/21,16:46:17,5131.9053,N,3.6960,W,-3.8679,1.1226,177.3674,-0.0627,-0.1322,1.4829,6.5308,33.4473,-1.2207,7.8774
11/11/21,16:46:23,5131.9072,N,3.6889,W,-4.2530,1.0332,177.5048,0.3015,-0.1833,0.8108,-1.0986,-30.8838,14.3433,7.7710
11/11/21,16:46:29,5131.9092,N,3.6826,W,-4.4093,0.9782,177.3036,0.2203,-0.2848,0.8888,2.8687,-11.4136,-21.4233,7.8419
11/11/21,16:46:35,5131.9092,N,3.6755,W,-4.3976,1.0164,177.2929,0.4928,-0.1569,0.8961,8.1787,11.7798,-1.6479,7.7355
11/11/21,16:46:41,5131.9097,N,3.6702,W,-4.6176,0.8980,177.6142,0.2782,-0.1161,0.6864,-4.0283,-12.3901,33.0811,7.8774
11/11/21,16:46:47,5131.9116,N,3.6638,W,-4.7840,0.9751,177.2257,0.2074,0.1019,0.5553,-0.9766,-8.0566,-39.6729,7.8065
11/11/21,16:46:53,5131.9160,N,3.6580,W,-4.9251,0.9662,177.4349,0.2079,0.0486,0.9829,-1.8921,-3.2349,21.9727,7.7000
11/11/21,16:46:59,5131.9185,N,3.6504,W,-4.9444,0.8280,177.3494,0.1621,-0.2870,1.1420,-3.9673,0.1831,-9.8267,7.8774
11/11/21,16:47:5,5131.9214,N,3.6440,W,-4.7093,1.0067,177.3833,0.5901,0.1610,1.0726,15.6860,35.4614,3.2349,7.6290
11/11/21,16:47:11,5131.9185,N,3.6358,W,-5.0614,0.9359,177.2573,0.3599,-0.0045,0.8766,-7.6904,-25.4517,-12.6953,7.8065
11/11/21,16:47:17,5131.9199,N,3.6247,W,-5.3129,1.0411,177.0772,0.2009,0.2086,0.5387,0.1831,-19.5312,-17.5171,7.7000
11/11/21,16:47:23,5131.9214,N,3.6169,W,-5.5039,0.9521,177.4376,0.2877,-0.0922,0.5396,-1.2207,-8.7280,37.0483,7.7355
11/11/21,16:47:29,5131.9224,N,3.6097,W,-5.6933,0.9873,177.1312,0.1761,0.0248,0.6306,-0.8545,-8.9111,-31.4331,7.8065
11/11/21,16:47:35,5131.9224,N,3.6039,W,-5.9094,0.9938,177.4315,0.2327,0.0007,0.9806,5.1880,-10.6201,31.1279,7.8065
11/11/21,16:47:41,5131.9229,N,3.5977,W,-5.8135,1.0767,177.5614,0.1482,0.1285,1.1421,-0.9766,13.2446,14.3433,7.8065
11/11/21,16:47:47,5131.9243,N,3.5891,W,-5.7071,1.3066,177.4591,0.3999,0.2667,0.8833,15.6860,19.7144,-10.2539,7.8419
11/11/21,16:47:53,5131.9272,N,3.5819,W,-5.8870,1.1999,177.3288,0.2543,-0.0725,0.9062,-6.8359,-9.0942,-13.8550,7.7355
11/11/21,16:47:59,5131.9297,N,3.5790,W,-6.0102,1.3317,177.5790,0.2048,0.3036,0.8586,5.8594,-7.9346,27.1606,7.7710
11/11/21,16:48:4,5131.9302,N,3.5783,W,-6.1870,1.3773,177.3226,0.1941,0.1536,0.9357,-7.3242,-12.3291,-25.2686,7.8419
11/11/21,16:48:10,5131.9307,N,3.5773,W,-6.2988,1.3844,177.3215,0.3014,0.0293,0.9028,0.3052,-0.2441,-0.0610,7.8419
11/11/21,16:48:16,5131.9307,N,3.5762,W,-6.3843,1.5789,178.2054,0.4841,0.1332,1.1399,27.1606,4.3945,91.6748,7.7355
11/11/21,16:48:22,5131.9316,N,3.5753,W,-6.4510,1.5188,178.2887,0.3301,-0.1284,0.9396,1.1597,2.6855,7.8125,7.8419
11/11/21,16:48:28,5131.9321,N,3.5746,W,-6.5522,1.5421,178.2990,0.3777,0.0873,0.8540,0.0000,0.6104,1.3428,7.8065
11/11/21,16:48:34,5131.9321,N,3.5742,W,-6.6574,1.4942,178.2885,0.3157,-0.0663,0.8915,-0.6714,-0.4883,-1.5869,7.6645
11/11/21,16:48:40,5131.9307,N,3.5743,W,-6.4837,1.4128,178.0639,0.0819,-0.0045,0.9406,-2.9297,9.5825,-24.4141,7.8774
11/11/21,16:48:46,5131.9341,N,3.5734,W,-6.5883,1.4138,178.0758,0.2990,0.0411,0.9006,-0.8545,0.4883,1.3428,7.7355
11/11/21,16:48:52,5131.9341,N,3.5718,W,-6.0562,1.4071,178.2385,-0.1102,0.0897,0.9180,-2.1973,44.8608,16.1133,7.7355
11/11/21,16:48:57,5131.9321,N,3.5716,W,-6.2800,1.4522,178.0633,0.3402,0.1755,0.7706,-3.1738,-13.9771,-17.1509,7.8774
11/11/21,16:49:3,5131.9321,N,3.5710,W,-6.4709,1.6179,178.1919,0.3167,0.1036,0.7681,14.8315,-8.7891,13.9771,7.8065
11/11/21,16:49:8,5131.9321,N,3.5704,W,-6.6292,1.6811,178.0694,0.2749,0.1785,0.7510,-2.1362,-8.0566,-11.5967,7.7710
