Date,Time,Latitude,Hemisphere (N-S),Longitude,Hemisphere (E-W),Pitch,Roll,Heading,x_Acc,y_Acc,z_Acc,x_Gyro,y_Gyro,z_Gyro,Voltage
14/11/21,15:35:38,5131.8218,N,3.6137,W,-0.1002,0.0482,179.9958,0.1627,0.0667,0.9347,0.6714,0.1831,-0.4272,7.7355
14/11/21,15:35:44,5131.8242,N,3.6085,W,-0.2015,0.0978,179.9904,0.1628,0.0671,0.9355,0.7935,0.0610,-0.5493,7.6290
14/11/21,15:35:49,5131.8247,N,3.6061,W,-0.2982,0.1471,179.9868,0.1624,0.0665,0.9344,0.7935,0.5493,-0.3662,7.7355
14/11/21,15:35:54,5131.8252,N,3.6055,W,-0.4001,0.1955,179.9847,0.1626,0.0674,0.9346,0.6714,0.0000,-0.1831,7.6645
14/11/21,15:35:59,5131.8247,N,3.6066,W,-0.4978,0.2469,179.9821,0.1616,0.0671,0.9353,0.9766,0.4272,-0.2441,7.7710
14/11/21,15:36:4,5131.8247,N,3.6061,W,-0.5973,0.2968,179.9787,0.1610,0.0674,0.9329,0.7935,0.2441,-0.3052,7.6645
14/11/21,15:36:9,5131.8247,N,3.6055,W,-0.6976,0.3435,179.9736,0.1624,0.0668,0.9343,0.5493,0.1831,-0.4883,7.7000
14/11/21,15:36:14,5131.8252,N,3.6055,W,-0.7972,0.3934,179.9695,0.1616,0.0669,0.9337,0.8545,0.2441,-0.3662,7.6645
14/11/21,15:36:19,5131.8252,N,3.6056,W,-0.8969,0.4432,179.9660,0.1627,0.0674,0.9348,0.8545,0.2441,-0.3052,7.6290
14/11/21,15:36:24,5131.8257,N,3.6054,W,-0.9959,0.4914,179.9624,0.1620,0.0674,0.9337,0.6714,0.3052,-0.3052,7.7710
14/11/21,15:36:29,5131.8267,N,3.6046,W,-1.0950,0.5387,179.9599,0.1633,0.0676,0.9351,0.6104,0.3052,-0.1831,7.8419
14/11/21,15:36:34,5131.8267,N,3.6040,W,-1.1949,0.5869,179.9550,0.1622,0.0668,0.9348,0.7324,0.2441,-0.4272,7.8065
14/11/21,15:36:39,5131.8271,N,3.6035,W,-1.2946,0.6340,179.9511,0.1622,0.0671,0.9342,0.6104,0.2441,-0.3052,7.6290
14/11/21,15:36:44,5131.8271,N,3.6031,W,-1.3933,0.6821,179.9479,0.1632,0.0673,0.9349,0.7324,0.3662,-0.2441,7.8065
14/11/21,15:36:49,5131.8276,N,3.6027,W,-1.4933,0.7317,179.9445,0.1628,0.0669,0.9341,0.9155,0.2441,-0.2441,7.6290
14/11/21,15:36:54,5131.8276,N,3.6017,W,-1.5924,0.7819,179.9411,0.1620,0.0675,0.9337,0.9155,0.3052,-0.2441,7.6645
14/11/21,15:36:59,5131.8281,N,3.6007,W,-1.6928,0.8301,179.9376,0.1614,0.0673,0.9340,0.7324,0.1831,-0.2441,7.7000
14/11/21,15:37:4,5131.8286,N,3.5996,W,-1.7938,0.8751,179.9311,0.1624,0.0671,0.9346,0.4272,0.1221,-0.5493,7.7710
14/11/21,15:37:9,5131.8286,N,3.5993,W,-1.8938,0.9248,179.9268,0.1625,0.0673,0.9344,0.9155,0.2441,-0.3052,7.7710
14/11/21,15:37:14,5131.8291,N,3.5987,W,-1.9926,0.9743,179.9232,0.1622,0.0671,0.9338,0.9155,0.3662,-0.2441,7.6645
14/11/21,15:37:19,5131.8291,N,3.5980,W,-2.0926,1.0229,179.9194,0.1627,0.0670,0.9343,0.8545,0.2441,-0.2441,7.6645
14/11/21,15:37:24,5131.8291,N,3.5977,W,-2.1926,1.0712,179.9156,0.1621,0.0674,0.9342,0.7935,0.2441,-0.2441,7.7710
14/11/21,15:37:30,5131.8296,N,3.5976,W,-2.2918,1.1197,179.9099,0.1622,0.0677,0.9344,0.7935,0.3052,-0.4272,7.7710
14/11/21,15:37:35,5131.8296,N,3.5973,W,-2.3929,1.1658,179.9048,0.1625,0.0679,0.9337,0.5493,0.1221,-0.3662,7.6645
14/11/21,15:37:40,5131.8301,N,3.5972,W,-2.4917,1.2122,179.9002,0.1625,0.0676,0.9342,0.6104,0.3662,-0.3052,7.6645
14/11/21,15:37:46,5131.8301,N,3.5973,W,-2.5936,1.2588,179.8943,0.1630,0.0673,0.9338,0.6714,0.0610,-0.4272,7.6645
14/11/21,15:37:52,5131.8301,N,3.5975,W,-2.6936,1.3062,179.8890,0.1621,0.0675,0.9347,0.7324,0.2441,-0.3662,7.7355
14/11/21,15:37:58,5131.8306,N,3.5974,W,-2.7906,1.3545,179.8830,0.1617,0.0677,0.9343,0.7935,0.5493,-0.4272,7.7710
14/11/21,15:38:3,5131.8306,N,3.5976,W,-2.8902,1.4020,179.8782,0.1619,0.0670,0.9352,0.7935,0.3052,-0.3052,7.6645
14/11/21,15:38:9,5131.8306,N,3.5981,W,-2.9923,1.4473,179.8727,0.1624,0.0668,0.9347,0.6104,0.0610,-0.3662,7.8065
14/11/21,15:38:15,5131.8306,N,3.5987,W,-3.0926,1.4938,179.8659,0.1624,0.0668,0.9336,0.7324,0.2441,-0.4883,7.7355
14/11/21,15:38:20,5131.8301,N,3.5988,W,-3.1917,1.5417,179.8615,0.1632,0.0676,0.9346,0.8545,0.3662,-0.2441,7.7000
14/11/21,15:38:26,5131.8301,N,3.5991,W,-3.2950,1.5862,179.8563,0.1636,0.0673,0.9335,0.5493,-0.0610,-0.3052,7.6645
14/11/21,15:38:32,5131.8296,N,3.5998,W,-3.3962,1.6340,179.8511,0.1617,0.0679,0.9338,0.7935,0.1221,-0.3052,7.7000
14/11/21,15:38:38,5131.8296,N,3.6004,W,-3.4967,1.6771,179.8465,0.1627,0.0670,0.9348,0.4272,0.2441,-0.2441,7.7000
14/11/21,15:38:44,5131.8291,N,3.6008,W,-3.5929,1.7251,179.8395,0.1622,0.0670,0.9332,0.9155,0.6714,-0.4883,7.6645
14/11/21,15:38:50,5131.8291,N,3.6008,W,-3.6958,1.7727,179.8347,0.1635,0.0673,0.9343,0.9155,0.0000,-0.2441,7.7355
14/11/21,15:38:56,5131.8291,N,3.6010,W,-3.7977,1.8178,179.8293,0.1626,0.0663,0.9340,0.7324,0.1221,-0.3052,7.7000
14/11/21,15:39:2,5131.8291,N,3.6012,W,-3.9005,1.8618,179.8238,0.1620,0.0669,0.9340,0.5493,0.0000,-0.3052,7.8065
14/11/21,15:39:8,5131.8291,N,3.6011,W,-4.0018,1.9072,179.8189,0.1632,0.0670,0.9341,0.7324,0.1831,-0.2441,7.6645
14/11/21,15:39:13,5131.8291,N,3.6009,W,-4.1020,1.9547,179.8132,0.1621,0.0677,0.9343,0.8545,0.2441,-0.3052,7.6645
14/11/21,15:39:19,5131.8291,N,3.6013,W,-4.2004,2.0030,179.8076,0.1616,0.0679,0.9344,0.9155,0.4272,-0.3052,7.6290
14/11/21,15:39:25,5131.8286,N,3.6019,W,-4.3015,2.0492,179.8007,0.1628,0.0675,0.9335,0.7935,0.1831,-0.4272,7.7355
14/11/21,15:39:31,5131.8286,N,3.6021,W,-4.4017,2.0961,179.7949,0.1621,0.0681,0.9346,0.7935,0.2441,-0.3052,7.7710
14/11/21,15:39:36,5131.8286,N,3.6018,W,-4.5034,2.1427,179.7890,0.1636,0.0679,0.9347,0.8545,0.1221,-0.3052,7.6645
14/11/21,15:39:41,5131.8286,N,3.6016,W,-4.6055,2.1870,179.7826,0.1624,0.0665,0.9344,0.7324,0.1221,-0.3662,7.5581
14/11/21,15:39:46,5131.8291,N,3.6010,W,-4.7057,2.2314,179.7773,0.1619,0.0667,0.9347,0.7324,0.3052,-0.2441,7.7355
14/11/21,15:39:51,5131.8296,N,3.6006,W,-4.8078,2.2762,179.7725,0.1631,0.0670,0.9343,0.7935,0.1221,-0.1831,7.7355
14/11/21,15:39:56,5131.8296,N,3.6005,W,-4.9080,2.3221,179.7665,0.1626,0.0674,0.9344,0.8545,0.3052,-0.3052,7.7000
14/11/21,15:40:2,5131.8301,N,3.6007,W,-5.0049,2.3682,179.7595,0.1633,0.0668,0.9349,0.9766,0.6714,-0.4272,7.7000
14/11/21,15:40:8,5131.8301,N,3.6014,W,-5.1048,2.4136,179.7529,0.1616,0.0664,0.9343,0.9155,0.3662,-0.3662,7.7355
14/11/21,15:40:14,5131.8296,N,3.6021,W,-5.2045,2.4583,179.7468,0.1622,0.0671,0.9344,0.7935,0.3662,-0.3052,7.7000
14/11/21,15:40:20,5131.8296,N,3.6029,W,-5.3042,2.5028,179.7383,0.1636,0.0675,0.9342,0.7935,0.3662,-0.5493,7.7000
14/11/21,15:40:26,5131.8296,N,3.6033,W,-5.4039,2.5473,179.7327,0.1620,0.0673,0.9348,0.7935,0.3662,-0.2441,7.7710
14/11/21,15:40:32,5131.8291,N,3.6034,W,-5.5053,2.5926,179.7269,0.1630,0.0679,0.9340,0.8545,0.1831,-0.2441,7.7355
14/11/21,15:40:38,5131.8291,N,3.6034,W,-5.6065,2.6360,179.7198,0.1620,0.0680,0.9342,0.6104,0.1831,-0.3662,7.6645
14/11/21,15:40:44,5131.8291,N,3.6038,W,-5.7069,2.6801,179.7152,0.1628,0.0677,0.9327,0.7935,0.3052,-0.1221,7.6645
14/11/21,15:40:50,5131.8291,N,3.6039,W,-5.8090,2.7248,179.7086,0.1630,0.0677,0.9343,0.8545,0.1221,-0.3052,7.7000
14/11/21,15:40:56,5131.8291,N,3.6047,W,-5.9097,2.7673,179.7023,0.1635,0.0674,0.9348,0.7324,0.3052,-0.3052,7.7000
14/11/21,15:41:2,5131.8291,N,3.6057,W,-6.0092,2.8087,179.6949,0.1639,0.0664,0.9343,0.7935,0.4883,-0.4272,7.6290
14/11/21,15:41:8,5131.8291,N,3.6066,W,-6.1114,2.8505,179.6882,0.1619,0.0674,0.9346,0.6104,0.1221,-0.3052,7.6290
14/11/21,15:41:14,5131.8291,N,3.6072,W,-6.2111,2.8923,179.6789,0.1631,0.0669,0.9336,0.7324,0.4272,-0.6104,7.7000
14/11/21,15:41:20,5131.8291,N,3.6081,W,-6.3112,2.9340,179.6746,0.1630,0.0677,0.9344,0.6714,0.3662,-0.0610,7.7000
14/11/21,15:41:26,5131.8286,N,3.6093,W,-6.4115,2.9761,179.6675,0.1620,0.0668,0.9342,0.7935,0.3662,-0.3662,7.8065
14/11/21,15:41:32,5131.8281,N,3.6116,W,-6.5118,3.0174,179.6597,0.1636,0.0674,0.9359,0.7324,0.3662,-0.4272,7.6645
14/11/21,15:41:38,5131.8262,N,3.6155,W,-6.6110,3.0576,179.6531,0.1638,0.0676,0.9351,0.6104,0.4883,-0.3052,7.7710
14/11/21,15:41:44,5131.8247,N,3.6196,W,-6.7131,3.0975,179.6458,0.1633,0.0674,0.9340,0.6104,0.1831,-0.3662,7.8774
14/11/21,15:41:50,5131.8242,N,3.6204,W,-6.8151,3.1377,179.6415,0.1621,0.0665,0.9335,0.7935,0.2441,-0.0610,7.7355
14/11/21,15:41:56,5131.8242,N,3.6190,W,-6.9169,3.1781,179.6350,0.1625,0.0680,0.9336,0.5493,0.1831,-0.2441,7.7000
14/11/21,15:42:2,5131.8237,N,3.6202,W,-7.0197,3.2191,179.6281,0.1630,0.0673,0.9313,0.7935,0.1221,-0.3052,7.7710
14/11/21,15:42:8,5131.8242,N,3.6208,W,-7.1195,3.2607,179.6201,0.1626,0.0675,0.9336,0.7935,0.4272,-0.4272,7.7355
14/11/21,15:42:14,5131.8242,N,3.6209,W,-7.2220,3.3000,179.6121,0.1622,0.0668,0.9330,0.7324,0.1831,-0.4272,7.7355
14/11/21,15:42:20,5131.8242,N,3.6215,W,-7.3232,3.3410,179.6029,0.1626,0.0671,0.9325,0.8545,0.3052,-0.5493,7.6290
14/11/21,15:42:26,5131.8237,N,3.6218,W,-7.4248,3.3812,179.5964,0.1624,0.0676,0.9340,0.7324,0.2441,-0.2441,7.7355
14/11/21,15:42:32,5131.8242,N,3.6218,W,-7.5294,3.4168,179.5878,0.1636,0.0670,0.9351,0.4883,0.0000,-0.4883,7.7355
14/11/21,15:42:37,5131.8242,N,3.6217,W,-7.6313,3.4541,179.5822,0.1632,0.0669,0.9346,0.7324,0.3052,-0.1831,7.6645
14/11/21,15:42:43,5131.8247,N,3.6216,W,-7.7350,3.4899,179.5759,0.1628,0.0668,0.9348,0.6104,0.1221,-0.2441,7.7710
14/11/21,15:42:48,5131.8247,N,3.6215,W,-7.8380,3.5283,179.5667,0.1631,0.0669,0.9348,0.8545,0.1831,-0.5493,7.8774
14/11/21,15:42:53,5131.8252,N,3.6207,W,-7.9382,3.5682,179.5597,0.1626,0.0675,0.9346,0.8545,0.4272,-0.3052,7.7355
14/11/21,15:42:58,5131.8252,N,3.6200,W,-8.0401,3.6040,179.5512,0.1627,0.0669,0.9341,0.6714,0.3052,-0.4883,7.8065
14/11/21,15:43:3,5131.8252,N,3.6195,W,-8.1401,3.6421,179.5454,0.1621,0.0673,0.9332,0.7935,0.4883,-0.1831,7.7000
14/11/21,15:43:8,5131.8257,N,3.6190,W,-8.2417,3.6797,179.5389,0.1622,0.0675,0.9346,0.7324,0.3052,-0.2441,7.7355
14/11/21,15:43:13,5131.8262,N,3.6186,W,-8.3443,3.7127,179.5324,0.1633,0.0668,0.9342,0.6714,0.3052,-0.3052,7.7000
14/11/21,15:43:18,5131.8262,N,3.6182,W,-8.4467,3.7495,179.5264,0.1627,0.0676,0.9343,0.7324,0.2441,-0.1831,7.6645
14/11/21,15:43:23,5131.8262,N,3.6176,W,-8.5481,3.7873,179.5180,0.1626,0.0679,0.9338,0.7324,0.3052,-0.4272,7.7000
14/11/21,15:43:28,5131.8267,N,3.6169,W,-8.6511,3.8217,179.5123,0.1632,0.0675,0.9349,0.7324,0.2441,-0.1831,7.6645
14/11/21,15:43:33,5131.8267,N,3.6164,W,-8.7520,3.8619,179.5047,0.1620,0.0682,0.9308,0.7935,0.3052,-0.3052,7.7710
14/11/21,15:43:38,5131.8267,N,3.6159,W,-8.8524,3.8978,179.4973,0.1619,0.0675,0.9333,0.8545,0.4883,-0.3662,7.8065
14/11/21,15:43:43,5131.8271,N,3.6147,W,-8.9559,3.9187,179.4930,0.1630,0.0659,0.9341,0.6104,0.4272,-0.2441,7.6645
14/11/21,15:43:48,5131.8276,N,3.6101,W,-9.0598,3.9471,179.4877,0.1625,0.0671,0.9344,0.5493,0.2441,-0.1831,7.7355
14/11/21,15:43:53,5131.8276,N,3.6094,W,-9.1618,3.9826,179.4795,0.1620,0.0676,0.9333,0.7935,0.3052,-0.4272,7.8065
14/11/21,15:43:58,5131.8276,N,3.6088,W,-9.2675,4.0036,179.4748,0.1625,0.0667,0.9346,0.5493,0.1831,-0.2441,7.6290
14/11/21,15:44:3,5131.8276,N,3.6082,W,-9.3711,4.0265,179.4682,0.1622,0.0668,0.9338,0.6104,0.3662,-0.4272,7.6645
14/11/21,15:44:9,5131.8281,N,3.6084,W,-9.4750,4.0575,179.4646,0.1619,0.0673,0.9335,0.8545,0.2441,0.0000,7.7000
14/11/21,15:44:15,5131.8276,N,3.6096,W,-9.5740,4.0965,179.4564,0.1622,0.0681,0.9338,0.5493,0.4272,-0.3052,7.7355
14/11/21,15:44:21,5131.8276,N,3.6103,W,-9.6781,4.1217,179.4502,0.1636,0.0677,0.9337,0.7935,0.3052,-0.3662,7.7000
14/11/21,15:44:27,5131.8276,N,3.6114,W,-9.7817,4.1489,179.4482,0.1626,0.0677,0.9337,1.0376,0.3662,0.0610,7.7000
14/11/21,15:44:33,5131.8262,N,3.6147,W,-9.8794,4.1052,179.4539,0.1637,0.0670,0.9360,0.3052,0.1221,-0.2441,7.6645
14/11/21,15:44:39,5131.8262,N,3.6158,W,-9.7837,4.0582,179.4613,0.1631,0.0670,0.9347,0.9155,0.2441,-0.2441,7.7000
14/11/21,15:44:45,5131.8257,N,3.6169,W,-9.8480,4.1537,179.4433,0.1631,0.0682,0.9349,0.6714,0.0610,-0.3052,7.6645
14/11/21,15:44:51,5131.8257,N,3.6183,W,-9.7968,4.0623,179.4579,0.1624,0.0675,0.9337,0.7324,0.1831,-0.2441,7.7355
14/11/21,15:44:57,5131.8257,N,3.6196,W,-9.8216,4.1775,179.4356,0.1622,0.0681,0.9343,0.7324,0.3052,-0.4272,7.6290
14/11/21,15:45:3,5131.8257,N,3.6204,W,-9.9232,4.1487,179.4396,0.1635,0.0677,0.9340,0.7935,0.1221,-0.2441,7.7355
14/11/21,15:45:9,5131.8252,N,3.6212,W,-9.8113,4.1479,179.4385,0.1621,0.0676,0.9344,0.8545,0.3662,-0.3052,7.7000
14/11/21,15:45:15,5131.8247,N,3.6226,W,-9.8940,4.0837,179.4484,0.1627,0.0671,0.9342,0.6714,0.1831,-0.2441,7.7710
14/11/21,15:45:21,5131.8242,N,3.6230,W,-9.7882,4.1289,179.4384,0.1619,0.0673,0.9342,0.5493,0.3662,-0.3662,7.6645
14/11/21,15:45:27,5131.8242,N,3.6234,W,-9.8821,4.0832,179.4452,0.1627,0.0668,0.9338,0.6714,0.2441,-0.2441,7.7000
14/11/21,15:45:33,5131.8237,N,3.6239,W,-9.7979,4.1647,179.4277,0.1627,0.0673,0.9349,0.5493,0.3052,-0.4883,7.7355
14/11/21,15:45:39,5131.8242,N,3.6243,W,-9.8979,4.1364,179.4302,0.1630,0.0679,0.9363,0.9155,0.2441,-0.4272,7.7710
14/11/21,15:45:45,5131.8237,N,3.6249,W,-9.7895,4.1673,179.4246,0.1613,0.0680,0.9340,0.7935,0.1831,-0.1831,7.5935
14/11/21,15:45:51,5131.8237,N,3.6252,W,-9.8857,4.1383,179.4266,0.1626,0.0679,0.9353,0.7324,0.6714,-0.4883,7.7000
14/11/21,15:45:57,5131.8237,N,3.6259,W,-9.9211,4.0421,179.4407,0.1635,0.0673,0.9347,0.7935,0.3662,-0.4272,7.6645
14/11/21,15:46:3,5131.8232,N,3.6267,W,-9.8572,4.1425,179.4226,0.1630,0.0671,0.9338,0.7935,0.1831,-0.2441,7.9129
14/11/21,15:46:9,5131.8232,N,3.6275,W,-9.7824,4.2348,179.4079,0.1624,0.0681,0.9342,0.8545,0.2441,-0.0610,7.7355
14/11/21,15:46:15,5131.8232,N,3.6282,W,-9.8522,4.1618,179.4211,0.1630,0.0673,0.9332,1.0986,0.3052,-0.1221,7.7000
14/11/21,15:46:21,5131.8232,N,3.6284,W,-9.8749,4.0598,179.4363,0.1630,0.0673,0.9349,0.6714,0.1221,-0.3662,7.6645
14/11/21,15:46:26,5131.8232,N,3.6283,W,-9.8777,4.1781,179.4150,0.1631,0.0680,0.9340,0.6714,0.1831,-0.2441,7.6645
14/11/21,15:46:31,5131.8232,N,3.6281,W,-9.8251,4.0875,179.4295,0.1624,0.0668,0.9346,0.7324,0.1831,-0.2441,7.7000
14/11/21,15:46:37,5131.8232,N,3.6277,W,-9.9042,4.1670,179.4143,0.1627,0.0671,0.9351,0.6714,0.2441,-0.3052,7.7000
14/11/21,15:46:42,5131.8232,N,3.6270,W,-9.8126,4.1150,179.4216,0.1621,0.0671,0.9343,0.7935,0.0610,-0.3052,7.5935
14/11/21,15:46:47,5131.8232,N,3.6264,W,-9.9087,4.1687,179.4110,0.1632,0.0677,0.9349,0.7935,0.2441,-0.3052,7.8065
14/11/21,15:46:53,5131.8232,N,3.6264,W,-9.8386,4.0884,179.4244,0.1632,0.0676,0.9338,0.6714,0.3052,-0.1831,7.7355
14/11/21,15:46:59,5131.8232,N,3.6260,W,-9.7675,4.1820,179.4055,0.1617,0.0676,0.9342,0.6104,0.1831,-0.4272,7.7000
14/11/21,15:47:4,5131.8232,N,3.6250,W,-9.8257,4.0975,179.4185,0.1621,0.0669,0.9337,0.7324,0.4272,-0.3052,7.7355
14/11/21,15:47:9,5131.8237,N,3.6241,W,-9.9133,4.0433,179.4279,0.1626,0.0667,0.9342,1.0376,0.1831,-0.1831,7.6290
14/11/21,15:47:14,5131.8237,N,3.6232,W,-9.8688,4.1535,179.4055,0.1633,0.0671,0.9347,0.6104,0.2441,-0.4883,7.6290
14/11/21,15:47:19,5131.8237,N,3.6221,W,-9.8146,4.0629,179.4223,0.1625,0.0669,0.9347,0.6714,0.1831,0.0000,7.7355
14/11/21,15:47:24,5131.8237,N,3.6177,W,-9.9016,4.1328,179.4081,0.1636,0.0674,0.9349,0.6714,0.1831,-0.3662,7.7000
14/11/21,15:47:29,5131.8237,N,3.6159,W,-9.8176,4.0671,179.4198,0.1627,0.0668,0.9347,0.8545,0.3662,-0.1221,7.6645
14/11/21,15:47:34,5131.8237,N,3.6159,W,-9.8632,4.1737,179.4001,0.1626,0.0674,0.9344,0.7324,0.3052,-0.3052,7.6290
14/11/21,15:47:40,5131.8237,N,3.6155,W,-9.8615,4.0699,179.4182,0.1631,0.0673,0.9355,0.7935,0.2441,-0.1221,7.7000
14/11/21,15:47:46,5131.8232,N,3.6153,W,-9.7749,4.1487,179.4026,0.1625,0.0670,0.9354,0.6714,0.2441,-0.3662,7.7000
14/11/21,15:47:52,5131.8232,N,3.6154,W,-9.8705,4.1110,179.4064,0.1621,0.0674,0.9338,0.6714,0.4272,-0.4272,7.8774
14/11/21,15:47:58,5131.8232,N,3.6154,W,-9.9384,4.0321,179.4178,0.1636,0.0665,0.9347,0.7935,0.0610,-0.3662,7.7000
14/11/21,15:48:4,5131.8232,N,3.6160,W,-9.8745,4.1332,179.3991,0.1628,0.0676,0.9340,0.8545,0.1831,-0.3052,7.8774
14/11/21,15:48:10,5131.8232,N,3.6167,W,-9.8903,4.0311,179.4152,0.1631,0.0667,0.9337,0.7935,0.2441,-0.3052,7.6290
14/11/21,15:48:16,5131.8232,N,3.6173,W,-9.8646,4.1487,179.3949,0.1631,0.0679,0.9352,0.7935,0.4272,-0.1831,7.8065
14/11/21,15:48:22,5131.8232,N,3.6178,W,-9.8420,4.2672,179.3721,0.1627,0.0679,0.9335,0.8545,0.1221,-0.4272,7.7000
14/11/21,15:48:27,5131.8232,N,3.6177,W,-9.8758,4.1687,179.3868,0.1631,0.0676,0.9335,0.6714,0.2441,-0.3662,7.6645
14/11/21,15:48:33,5131.8232,N,3.6180,W,-9.8405,4.0698,179.4017,0.1627,0.0674,0.9333,0.7324,0.4272,-0.3662,7.6645
14/11/21,15:48:39,5131.8232,N,3.6182,W,-9.8445,4.1888,179.3792,0.1625,0.0671,0.9341,0.7324,0.1221,-0.3662,7.8065
14/11/21,15:48:45,5131.8232,N,3.6192,W,-9.8961,4.0981,179.3937,0.1630,0.0677,0.9343,0.5493,0.4272,-0.2441,7.9484
14/11/21,15:48:51,5131.8232,N,3.6196,W,-9.8180,4.1833,179.3764,0.1626,0.0677,0.9341,0.3662,0.2441,-0.3662,7.7355
14/11/21,15:48:57,5131.8232,N,3.6199,W,-9.8996,4.1227,179.3866,0.1633,0.0673,0.9336,0.7324,0.5493,-0.1831,7.8419
14/11/21,15:49:3,5131.8232,N,3.6199,W,-10.0031,4.1359,179.3837,0.1639,0.0674,0.9346,0.7935,0.4883,-0.2441,7.5935
14/11/21,15:49:9,5131.8232,N,3.6197,W,-9.8940,4.1285,179.3821,0.1632,0.0673,0.9348,0.9766,0.1831,-0.4883,7.6290
14/11/21,15:49:15,5131.8232,N,3.6198,W,-9.7902,4.1749,179.3724,0.1627,0.0677,0.9347,0.6104,0.1831,-0.3052,7.6645
14/11/21,15:49:21,5131.8232,N,3.6202,W,-9.8791,4.1259,179.3802,0.1628,0.0675,0.9344,0.8545,0.4883,-0.2441,7.6645
14/11/21,15:49:27,5131.8232,N,3.6205,W,-9.7674,4.1390,179.3780,0.1622,0.0674,0.9337,0.9155,0.3052,-0.1831,7.6645
14/11/21,15:49:33,5131.8237,N,3.6209,W,-9.8731,4.1552,179.3744,0.1627,0.0677,0.9348,0.7935,0.2441,-0.2441,7.6645
14/11/21,15:49:39,5131.8237,N,3.6209,W,-9.8595,4.0512,179.3901,0.1630,0.0667,0.9346,0.6714,0.4272,-0.3662,7.7000
14/11/21,15:49:45,5131.8237,N,3.6206,W,-9.9585,4.0937,179.3804,0.1638,0.0665,0.9342,0.5493,0.3052,-0.3662,7.6290
14/11/21,15:49:50,5131.8237,N,3.6204,W,-9.8558,4.1455,179.3706,0.1626,0.0676,0.9340,0.7324,0.2441,-0.2441,7.7000
14/11/21,15:49:56,5131.8237,N,3.6202,W,-9.9336,4.0787,179.3789,0.1632,0.0671,0.9336,0.7324,0.3662,-0.4883,7.7355
14/11/21,15:50:2,5131.8237,N,3.6199,W,-9.8234,4.0774,179.3765,0.1624,0.0665,0.9351,0.7324,0.1831,-0.4272,7.7000
14/11/21,15:50:7,5131.8237,N,3.6196,W,-9.9274,4.1113,179.3697,0.1630,0.0668,0.9338,0.7935,0.1221,-0.2441,7.7355
14/11/21,15:50:13,5131.8237,N,3.6192,W,-9.9226,4.0068,179.3855,0.1639,0.0664,0.9344,0.6714,0.1831,-0.3662,7.7000
14/11/21,15:50:19,5131.8237,N,3.6195,W,-9.8706,4.1146,179.3655,0.1630,0.0675,0.9351,0.7935,0.1831,-0.3052,7.6645
14/11/21,15:50:25,5131.8237,N,3.6197,W,-9.8256,4.2251,179.3451,0.1625,0.0682,0.9340,0.7935,0.0610,-0.3052,7.6645
14/11/21,15:50:31,5131.8237,N,3.6199,W,-9.8833,4.1363,179.3578,0.1632,0.0669,0.9326,0.5493,0.0610,-0.3662,7.7355
14/11/21,15:50:36,5131.8237,N,3.6197,W,-9.9828,4.1839,179.3468,0.1637,0.0677,0.9333,0.7324,0.1221,-0.4272,7.8065
14/11/21,15:50:42,5131.8232,N,3.6198,W,-9.9046,4.1105,179.3590,0.1636,0.0670,0.9342,0.6104,0.3052,-0.1831,7.6290
14/11/21,15:50:48,5131.8232,N,3.6198,W,-9.9767,4.1975,179.3425,0.1642,0.0677,0.9342,0.9766,0.5493,-0.3662,7.8065
14/11/21,15:50:54,5131.8232,N,3.6199,W,-9.8843,4.1414,179.3500,0.1628,0.0673,0.9341,0.6104,0.3052,-0.3662,7.7000
14/11/21,15:51:0,5131.8232,N,3.6201,W,-9.8351,4.2495,179.3310,0.1630,0.0680,0.9338,0.7324,0.1221,-0.1831,7.5935
14/11/21,15:51:6,5131.8232,N,3.6205,W,-9.8601,4.1472,179.3473,0.1627,0.0679,0.9340,0.6104,0.1221,-0.2441,7.5935
14/11/21,15:51:12,5131.8232,N,3.6207,W,-9.8084,4.0547,179.3589,0.1628,0.0676,0.9349,0.5493,0.1831,-0.5493,7.6290
14/11/21,15:51:17,5131.8232,N,3.6207,W,-9.8786,4.1443,179.3424,0.1630,0.0674,0.9337,0.8545,0.3662,-0.3052,7.7710
14/11/21,15:51:23,5131.8232,N,3.6209,W,-9.8802,4.0405,179.3576,0.1631,0.0671,0.9340,0.7324,0.3052,-0.4272,7.7000
14/11/21,15:51:29,5131.8232,N,3.6208,W,-9.9034,4.1571,179.3368,0.1636,0.0680,0.9338,0.8545,0.2441,-0.2441,7.7000
14/11/21,15:51:35,5131.8232,N,3.6205,W,-9.8188,4.0934,179.3454,0.1630,0.0675,0.9332,0.6714,0.1221,-0.3662,7.7000
14/11/21,15:51:40,5131.8237,N,3.6205,W,-9.9224,4.0778,179.3444,0.1630,0.0667,0.9341,0.7935,0.2441,-0.5493,7.7000
14/11/21,15:51:46,5131.8237,N,3.6205,W,-9.8109,4.0789,179.3422,0.1625,0.0665,0.9343,0.7324,0.3052,-0.3662,7.7000
14/11/21,15:51:52,5131.8242,N,3.6206,W,-9.9187,4.0816,179.3407,0.1635,0.0665,0.9340,0.7935,0.0610,-0.2441,7.6645
14/11/21,15:51:58,5131.8242,N,3.6205,W,-9.8120,4.0556,179.3429,0.1633,0.0665,0.9342,0.6104,0.3052,-0.3662,7.7000
14/11/21,15:52:4,5131.8247,N,3.6207,W,-9.8338,4.1705,179.3213,0.1622,0.0667,0.9352,0.6714,0.4272,-0.3662,7.7000
14/11/21,15:52:10,5131.8247,N,3.6214,W,-9.9115,4.1001,179.3316,0.1633,0.0673,0.9344,0.6104,0.1831,-0.3052,7.6645
14/11/21,15:52:16,5131.8247,N,3.6220,W,-9.8122,4.1585,179.3193,0.1633,0.0671,0.9342,0.6104,0.2441,-0.3662,7.7000
14/11/21,15:52:22,5131.8252,N,3.6224,W,-9.8684,4.0729,179.3332,0.1630,0.0667,0.9349,0.8545,0.3052,-0.2441,7.7355
14/11/21,15:52:27,5131.8257,N,3.6224,W,-9.8187,4.1802,179.3120,0.1624,0.0677,0.9341,0.4883,0.4272,-0.4272,7.7000
14/11/21,15:52:33,5131.8257,N,3.6226,W,-9.8644,4.0875,179.3263,0.1628,0.0669,0.9346,0.7935,0.1831,-0.3052,7.7355
14/11/21,15:52:39,5131.8257,N,3.6231,W,-9.8635,4.2054,179.3043,0.1628,0.0681,0.9340,0.6104,0.1221,-0.3052,7.7000
14/11/21,15:52:45,5131.8257,N,3.6234,W,-9.9305,4.1246,179.3171,0.1633,0.0677,0.9330,0.6714,0.1221,-0.2441,7.6645
14/11/21,15:52:51,5131.8257,N,3.6235,W,-9.8224,4.1096,179.3203,0.1624,0.0670,0.9347,0.9766,0.2441,-0.1221,7.6645
14/11/21,15:52:57,5131.8252,N,3.6240,W,-9.9083,4.1807,179.3060,0.1627,0.0675,0.9343,0.7324,0.2441,-0.3662,7.8774
14/11/21,15:53:3,5131.8252,N,3.6245,W,-9.8747,4.0830,179.3229,0.1633,0.0671,0.9346,0.9155,0.3662,-0.1831,7.7000
14/11/21,15:53:9,5131.8252,N,3.6248,W,-9.7950,4.1720,179.3075,0.1622,0.0675,0.9341,0.7935,0.4272,-0.1831,7.7355
14/11/21,15:53:14,5131.8252,N,3.6248,W,-9.8978,4.1933,179.3016,0.1635,0.0684,0.9346,0.8545,0.4883,-0.4272,7.8065
14/11/21,15:53:20,5131.8252,N,3.6253,W,-9.8286,4.1152,179.3136,0.1621,0.0669,0.9338,0.8545,0.1831,-0.3052,7.6645
14/11/21,15:53:26,5131.8252,N,3.6258,W,-9.9308,4.1082,179.3138,0.1625,0.0670,0.9325,0.9155,0.5493,-0.3052,7.7710
14/11/21,15:53:32,5131.8252,N,3.6258,W,-9.8270,4.0752,179.3160,0.1625,0.0665,0.9346,0.6104,0.2441,-0.4883,7.7355
14/11/21,15:53:38,5131.8252,N,3.6261,W,-9.8891,4.1722,179.2993,0.1628,0.0673,0.9348,0.8545,0.3052,-0.1831,7.7000
14/11/21,15:53:44,5131.8252,N,3.6265,W,-9.8137,4.0996,179.3111,0.1626,0.0674,0.9343,0.9155,0.2441,-0.2441,7.6290
14/11/21,15:53:50,5131.8247,N,3.6266,W,-9.9147,4.1366,179.3041,0.1627,0.0671,0.9340,0.8545,0.3662,-0.2441,7.5935
14/11/21,15:53:56,5131.8247,N,3.6267,W,-9.8112,4.1857,179.2938,0.1633,0.0677,0.9343,0.4883,0.3052,-0.3052,7.5935
14/11/21,15:54:1,5131.8247,N,3.6264,W,-9.8581,4.0945,179.3081,0.1624,0.0677,0.9344,0.7935,0.3662,-0.3052,8.0194
14/11/21,15:54:6,5131.8252,N,3.6262,W,-9.7533,4.0658,179.3141,0.1625,0.0668,0.9341,0.9155,0.3052,-0.0610,7.6645
14/11/21,15:54:12,5131.8252,N,3.6262,W,-9.8558,4.1022,179.3068,0.1641,0.0673,0.9347,0.6714,0.1831,-0.2441,7.6290
14/11/21,15:54:18,5131.8252,N,3.6264,W,-9.7453,4.1370,179.2993,0.1622,0.0670,0.9333,0.9766,0.4272,-0.3662,7.5935
14/11/21,15:54:24,5131.8257,N,3.6267,W,-9.8520,4.1461,179.2975,0.1630,0.0676,0.9347,0.7935,0.1831,-0.1831,7.7000
14/11/21,15:54:30,5131.8257,N,3.6262,W,-9.7703,4.0761,179.3096,0.1624,0.0675,0.9333,0.6714,0.3662,-0.1221,7.7000
14/11/21,15:54:35,5131.8257,N,3.6252,W,-9.8525,4.1498,179.2991,0.1625,0.0675,0.9336,0.7324,0.4272,0.0610,7.5935
14/11/21,15:54:40,5131.8257,N,3.6239,W,-9.7756,4.0774,179.3107,0.1617,0.0668,0.9344,0.8545,0.3052,-0.2441,7.7355
14/11/21,15:54:45,5131.8262,N,3.6228,W,-9.8773,4.1096,179.3058,0.1627,0.0669,0.9343,0.8545,0.4272,-0.1221,7.6645
14/11/21,15:54:50,5131.8262,N,3.6219,W,-9.7820,4.1779,179.2920,0.1625,0.0677,0.9354,0.6714,0.3662,-0.3662,7.7710
14/11/21,15:54:55,5131.8262,N,3.6213,W,-9.8742,4.1321,179.2998,0.1631,0.0674,0.9344,0.9155,0.3052,-0.1831,7.7000
14/11/21,15:55:0,5131.8262,N,3.6210,W,-9.9572,4.2064,179.2834,0.1633,0.0677,0.9337,0.5493,0.1831,-0.4883,7.6290
14/11/21,15:55:6,5131.8262,N,3.6212,W,-9.8611,4.1605,179.2898,0.1624,0.0676,0.9344,0.4883,0.0000,-0.2441,7.7355
14/11/21,15:55:12,5131.8262,N,3.6218,W,-9.9129,4.0697,179.3038,0.1635,0.0669,0.9346,0.7935,-0.0610,-0.3052,7.7000
14/11/21,15:55:18,5131.8262,N,3.6222,W,-9.8211,4.1422,179.2900,0.1625,0.0671,0.9333,0.8545,0.1831,-0.3052,7.7000
14/11/21,15:55:24,5131.8262,N,3.6226,W,-9.9254,4.1331,179.2909,0.1631,0.0675,0.9342,0.8545,0.3052,-0.2441,7.7355
14/11/21,15:55:30,5131.8262,N,3.6225,W,-9.8287,4.1965,179.2796,0.1626,0.0684,0.9347,0.6714,0.2441,-0.1831,7.7710
14/11/21,15:55:35,5131.8262,N,3.6219,W,-9.8484,4.0951,179.2949,0.1626,0.0667,0.9340,0.7935,0.1831,-0.3662,7.7000
14/11/21,15:55:40,5131.8262,N,3.6212,W,-9.9202,4.1832,179.2764,0.1630,0.0673,0.9343,0.6714,0.1831,-0.4883,7.7000
14/11/21,15:55:45,5131.8267,N,3.6203,W,-9.8425,4.1105,179.2882,0.1628,0.0673,0.9344,0.8545,0.4272,-0.2441,7.6290
14/11/21,15:55:50,5131.8267,N,3.6196,W,-9.7635,4.1991,179.2729,0.1624,0.0674,0.9346,0.7324,0.3662,-0.1831,7.6290
14/11/21,15:55:56,5131.8267,N,3.6198,W,-9.8364,4.1256,179.2834,0.1625,0.0674,0.9351,0.9155,0.0610,-0.3662,7.7000
14/11/21,15:56:2,5131.8262,N,3.6204,W,-9.8811,4.0331,179.2979,0.1626,0.0669,0.9341,0.8545,0.1831,-0.3052,7.7355
14/11/21,15:56:8,5131.8257,N,3.6208,W,-9.8749,4.1510,179.2761,0.1632,0.0676,0.9347,0.6104,0.4272,-0.3052,7.7355
14/11/21,15:56:14,5131.8252,N,3.6213,W,-9.9009,4.0485,179.2918,0.1632,0.0673,0.9343,0.5493,0.1221,-0.3052,7.6645
14/11/21,15:56:20,5131.8252,N,3.6217,W,-9.8248,4.1380,179.2736,0.1622,0.0676,0.9347,0.6104,0.2441,-0.4272,7.7710
14/11/21,15:56:26,5131.8257,N,3.6215,W,-9.9034,4.0691,179.2838,0.1630,0.0670,0.9348,0.7324,0.1221,-0.3052,7.7000
14/11/21,15:56:32,5131.8257,N,3.6218,W,-9.8683,4.1847,179.2627,0.1635,0.0674,0.9353,0.8545,0.2441,-0.3052,7.6645
14/11/21,15:56:38,5131.8257,N,3.6228,W,-9.9355,4.1045,179.2760,0.1636,0.0677,0.9348,0.6714,0.1831,-0.1831,7.7000
14/11/21,15:56:44,5131.8257,N,3.6232,W,-9.8250,4.1103,179.2734,0.1621,0.0670,0.9343,0.7324,0.1831,-0.3052,7.7000
14/11/21,15:56:50,5131.8257,N,3.6232,W,-9.9248,4.1510,179.2642,0.1630,0.0674,0.9344,0.6104,0.3052,-0.3662,7.6290
14/11/21,15:56:55,5131.8257,N,3.6230,W,-9.8170,4.1328,179.2649,0.1631,0.0676,0.9343,0.5493,0.1831,-0.3662,7.6290
14/11/21,15:57:0,5131.8262,N,3.6227,W,-9.9137,4.0943,179.2711,0.1633,0.0670,0.9347,0.6714,0.3052,-0.1831,7.7355
14/11/21,15:57:5,5131.8262,N,3.6219,W,-9.8050,4.1304,179.2655,0.1625,0.0673,0.9349,0.9155,0.3052,-0.1221,7.6290
14/11/21,15:57:10,5131.8267,N,3.6212,W,-9.9046,4.0978,179.2682,0.1633,0.0670,0.9349,0.6104,0.2441,-0.4272,7.6290
14/11/21,15:57:15,5131.8267,N,3.6210,W,-9.8820,4.2137,179.2464,0.1633,0.0680,0.9342,0.6104,0.0000,-0.3052,7.7000
14/11/21,15:57:21,5131.8267,N,3.6214,W,-9.8626,4.1108,179.2643,0.1628,0.0665,0.9344,0.7324,0.3052,-0.1221,7.6645
14/11/21,15:57:27,5131.8267,N,3.6223,W,-9.7607,4.1626,179.2534,0.1622,0.0675,0.9349,0.7935,0.1221,-0.3662,7.6645
14/11/21,15:57:33,5131.8267,N,3.6233,W,-9.8660,4.1505,179.2551,0.1639,0.0675,0.9343,0.7324,0.1831,-0.1831,7.7355
14/11/21,15:57:39,5131.8252,N,3.6262,W,-9.7635,4.1147,179.2592,0.1622,0.0675,0.9343,0.7935,0.3052,-0.3662,7.6645
14/11/21,15:57:45,5131.8247,N,3.6277,W,-9.8387,4.0446,179.2697,0.1620,0.0665,0.9347,0.7324,0.3662,-0.3052,7.7355
14/11/21,15:57:51,5131.8247,N,3.6270,W,-9.8452,4.1626,179.2463,0.1626,0.0674,0.9343,0.6714,0.4883,-0.4883,7.6645
14/11/21,15:57:57,5131.8242,N,3.6277,W,-9.7410,4.1287,179.2503,0.1622,0.0679,0.9346,0.5493,0.3052,-0.3052,7.7710
14/11/21,15:58:3,5131.8247,N,3.6276,W,-9.8437,4.0991,179.2524,0.1626,0.0668,0.9340,0.6714,0.0000,-0.4272,7.7000
14/11/21,15:58:8,5131.8247,N,3.6270,W,-9.7547,4.0410,179.2602,0.1625,0.0669,0.9347,0.7324,0.1831,-0.3662,7.6645
14/11/21,15:58:13,5131.8252,N,3.6262,W,-9.8275,4.1291,179.2436,0.1625,0.0676,0.9333,0.7324,0.1221,-0.3052,7.7710
14/11/21,15:58:18,5131.8257,N,3.6252,W,-9.9267,4.0982,179.2468,0.1632,0.0671,0.9346,0.7324,0.3052,-0.3662,7.6290
14/11/21,15:58:23,5131.8257,N,3.6244,W,-9.8289,4.1585,179.2342,0.1628,0.0676,0.9348,0.6104,0.1831,-0.3662,7.7355
14/11/21,15:58:28,5131.8257,N,3.6238,W,-9.8994,4.0835,179.2462,0.1630,0.0671,0.9341,0.7324,0.3662,-0.2441,7.6290
14/11/21,15:58:33,5131.8257,N,3.6234,W,-9.8055,4.1534,179.2341,0.1631,0.0671,0.9353,0.8545,0.2441,-0.1831,7.6645
14/11/21,15:58:38,5131.8257,N,3.6231,W,-9.9091,4.1331,179.2366,0.1630,0.0675,0.9337,0.7324,0.1831,-0.2441,7.6645
14/11/21,15:58:44,5131.8262,N,3.6235,W,-9.7998,4.1132,179.2374,0.1631,0.0674,0.9347,0.7324,0.4272,-0.4272,7.7000
14/11/21,15:58:50,5131.8262,N,3.6241,W,-9.8884,4.1785,179.2251,0.1627,0.0677,0.9337,0.8545,0.4272,-0.3052,7.6290
14/11/21,15:58:56,5131.8262,N,3.6247,W,-9.8802,4.0732,179.2406,0.1631,0.0674,0.9335,0.5493,0.0000,-0.3662,7.7000
14/11/21,15:59:2,5131.8262,N,3.6246,W,-9.9743,4.1302,179.2297,0.1642,0.0670,0.9344,0.9766,0.3662,-0.3052,7.6290
14/11/21,15:59:8,5131.8262,N,3.6239,W,-9.8667,4.1160,179.2312,0.1619,0.0669,0.9342,0.7324,0.1221,-0.2441,7.6645
14/11/21,15:59:13,5131.8271,N,3.6161,W,-9.7718,4.0647,179.2388,0.1626,0.0670,0.9349,0.6104,0.2441,-0.2441,7.7710
14/11/21,15:59:18,5131.8271,N,3.6109,W,-9.8548,4.1411,179.2244,0.1633,0.0679,0.9353,0.8545,0.2441,-0.3052,7.6645
14/11/21,15:59:23,5131.8271,N,3.6062,W,-9.7571,4.0939,179.2330,0.1627,0.0676,0.9348,0.8545,0.4272,-0.1221,7.7000
14/11/21,15:59:28,5131.8281,N,3.6031,W,-9.7950,4.2040,179.2140,0.1614,0.0676,0.9342,0.7324,0.3052,-0.1831,7.7000
14/11/21,15:59:33,5131.8262,N,3.6074,W,-9.8717,4.1366,179.2249,0.1632,0.0671,0.9336,0.8545,0.3662,-0.2441,7.7000
14/11/21,15:59:38,5131.8262,N,3.6079,W,-9.9478,4.0668,179.2354,0.1639,0.0668,0.9347,0.7324,0.3052,-0.3052,7.6290
14/11/21,15:59:43,5131.8262,N,3.6089,W,-9.8547,4.1385,179.2217,0.1628,0.0674,0.9341,0.7935,0.3052,-0.3052,7.7355
14/11/21,15:59:48,5131.8262,N,3.6097,W,-9.8219,4.0380,179.2366,0.1624,0.0665,0.9340,0.6104,0.3052,-0.3662,7.5935
14/11/21,15:59:53,5131.8267,N,3.6097,W,-9.8049,4.1563,179.2162,0.1619,0.0679,0.9338,0.7324,0.4272,-0.1831,7.6645
14/11/21,15:59:58,5131.8267,N,3.6092,W,-9.8297,4.0543,179.2313,0.1622,0.0664,0.9342,0.6104,0.1831,-0.3662,7.6645
14/11/21,16:0:3,5131.8271,N,3.6082,W,-9.9164,4.1233,179.2170,0.1637,0.0671,0.9342,0.7935,0.3662,-0.4272,7.7355
14/11/21,16:0:8,5131.8276,N,3.6051,W,-9.8030,4.1267,179.2145,0.1621,0.0673,0.9338,0.7324,0.4883,-0.3662,7.8065
14/11/21,16:0:13,5131.8281,N,3.6018,W,-9.8886,4.0687,179.2222,0.1627,0.0669,0.9348,0.6104,0.3662,-0.3662,7.7355
14/11/21,16:0:18,5131.8286,N,3.5989,W,-9.8450,4.1799,179.2010,0.1628,0.0673,0.9337,0.7324,0.1831,-0.3662,7.6290
14/11/21,16:0:23,5131.8286,N,3.5988,W,-9.8025,4.0850,179.2182,0.1620,0.0668,0.9346,0.8545,0.2441,-0.0610,7.6290
14/11/21,16:0:28,5131.8291,N,3.5976,W,-9.8768,4.1710,179.2022,0.1622,0.0671,0.9340,0.8545,0.3052,-0.3052,7.6645
14/11/21,16:0:33,5131.8296,N,3.5967,W,-9.7740,4.1389,179.2051,0.1621,0.0677,0.9344,0.7935,0.1831,-0.4272,7.6645
14/11/21,16:0:38,5131.8301,N,3.5962,W,-9.8805,4.1395,179.2034,0.1631,0.0675,0.9343,0.7324,0.1831,-0.3052,7.6290
14/11/21,16:0:43,5131.8301,N,3.5962,W,-9.7707,4.1569,179.1964,0.1621,0.0677,0.9347,0.6714,0.1221,-0.5493,7.7000
14/11/21,16:0:48,5131.8301,N,3.5962,W,-9.8764,4.1540,179.1975,0.1631,0.0676,0.9333,0.9155,0.2441,-0.1221,7.7355
14/11/21,16:0:53,5131.8301,N,3.5964,W,-9.7809,4.1049,179.2044,0.1624,0.0674,0.9344,1.0376,0.4272,-0.3662,7.8065
14/11/21,16:0:58,5131.8296,N,3.5974,W,-9.8813,4.1535,179.1942,0.1620,0.0673,0.9346,0.6104,-0.0610,-0.3052,7.7355
14/11/21,16:1:3,5131.8296,N,3.5981,W,-9.9226,4.0571,179.2102,0.1636,0.0668,0.9341,0.6714,0.1221,-0.1831,7.7000
14/11/21,16:1:8,5131.8296,N,3.5983,W,-9.8153,4.0983,179.2030,0.1630,0.0665,0.9342,0.8545,0.3052,-0.1831,7.7000
14/11/21,16:1:13,5131.8296,N,3.5990,W,-9.9068,4.1613,179.1904,0.1624,0.0671,0.9337,0.6104,0.1221,-0.3052,7.6290
14/11/21,16:1:18,5131.8296,N,3.5995,W,-9.8228,4.0955,179.2000,0.1621,0.0667,0.9351,0.6104,0.1831,-0.3052,7.7355
14/11/21,16:1:23,5131.8296,N,3.5996,W,-9.8687,4.2040,179.1787,0.1625,0.0679,0.9330,0.7935,0.0610,-0.4272,7.6645
14/11/21,16:1:28,5131.8296,N,3.5997,W,-9.8528,4.0993,179.1942,0.1628,0.0674,0.9346,0.5493,0.2441,-0.3662,7.6290
14/11/21,16:1:33,5131.8296,N,3.5993,W,-9.8489,4.2186,179.1713,0.1627,0.0677,0.9344,0.7324,0.3662,-0.4272,7.7000
14/11/21,16:1:38,5131.8296,N,3.5994,W,-9.8733,4.1192,179.1859,0.1631,0.0673,0.9344,0.8545,0.3052,-0.4272,7.7355
14/11/21,16:1:43,5131.8296,N,3.5994,W,-9.8607,4.0139,179.2033,0.1630,0.0668,0.9342,0.5493,0.2441,-0.1831,7.5935
14/11/21,16:1:48,5131.8296,N,3.5995,W,-9.8692,4.1309,179.1816,0.1630,0.0676,0.9337,0.6104,0.3662,-0.3052,7.6290
14/11/21,16:1:53,5131.8296,N,3.6002,W,-9.8283,4.0349,179.1983,0.1626,0.0665,0.9343,0.7935,0.2441,-0.1221,7.7000
14/11/21,16:1:58,5131.8296,N,3.6005,W,-9.8188,4.1535,179.1755,0.1621,0.0675,0.9337,0.6714,0.4883,-0.4272,7.6645
14/11/21,16:2:3,5131.8296,N,3.6001,W,-9.9157,4.1165,179.1797,0.1631,0.0675,0.9348,0.7324,0.3052,-0.3662,7.7710
14/11/21,16:2:8,5131.8301,N,3.5995,W,-9.8142,4.1706,179.1676,0.1627,0.0677,0.9344,0.6104,0.2441,-0.4272,7.7000
14/11/21,16:2:13,5131.8301,N,3.5994,W,-9.9197,4.1768,179.1642,0.1628,0.0681,0.9341,0.5493,0.3052,-0.3662,7.7355
14/11/21,16:2:18,5131.8301,N,3.5991,W,-9.8269,4.1244,179.1701,0.1626,0.0675,0.9335,0.5493,0.0610,-0.4272,7.7355
14/11/21,16:2:23,5131.8301,N,3.5988,W,-9.8916,4.2192,179.1543,0.1624,0.0676,0.9333,0.8545,0.3052,-0.1221,7.5935
14/11/21,16:2:28,5131.8301,N,3.5983,W,-9.8739,4.1159,179.1699,0.1630,0.0662,0.9344,0.6714,0.2441,-0.3662,7.6645
14/11/21,16:2:33,5131.8306,N,3.5979,W,-9.8002,4.2067,179.1514,0.1625,0.0680,0.9347,0.6104,0.1221,-0.4272,7.6645
14/11/21,16:2:38,5131.8306,N,3.5979,W,-9.8197,4.1061,179.1680,0.1622,0.0670,0.9346,0.8545,0.4272,-0.2441,7.7355
14/11/21,16:2:43,5131.8306,N,3.5978,W,-9.8725,4.2097,179.1490,0.1626,0.0677,0.9347,0.8545,0.3052,-0.3052,7.7710
14/11/21,16:2:48,5131.8301,N,3.5983,W,-9.8172,4.1218,179.1610,0.1622,0.0673,0.9347,0.8545,0.2441,-0.4883,7.6645
14/11/21,16:2:53,5131.8301,N,3.5993,W,-9.8953,4.2027,179.1472,0.1630,0.0681,0.9336,0.9155,0.4272,-0.1831,7.7710
14/11/21,16:2:58,5131.8301,N,3.6004,W,-9.9237,4.1009,179.1647,0.1637,0.0671,0.9335,0.5493,0.3052,-0.1221,7.7355
14/11/21,16:3:3,5131.8301,N,3.6015,W,-9.8145,4.0946,179.1634,0.1622,0.0668,0.9338,0.6104,0.1221,-0.3662,7.6290
14/11/21,16:3:8,5131.8296,N,3.6024,W,-9.8997,4.1660,179.1486,0.1632,0.0677,0.9342,0.4883,0.1221,-0.3662,7.7355
14/11/21,16:3:13,5131.8286,N,3.6040,W,-9.8391,4.0801,179.1625,0.1628,0.0670,0.9344,0.7935,0.3052,-0.2441,7.5581
14/11/21,16:3:18,5131.8281,N,3.6050,W,-9.9413,4.1107,179.1552,0.1632,0.0668,0.9333,0.7324,0.3662,-0.3662,7.6290
14/11/21,16:3:23,5131.8271,N,3.6087,W,-9.8345,4.1522,179.1478,0.1628,0.0676,0.9347,0.7324,0.3052,-0.1831,7.6645
14/11/21,16:3:28,5131.8262,N,3.6115,W,-9.8526,4.0482,179.1638,0.1627,0.0668,0.9351,0.5493,0.2441,-0.3052,7.6290
14/11/21,16:3:33,5131.8257,N,3.6125,W,-9.7565,4.1127,179.1525,0.1622,0.0664,0.9344,0.7935,0.1831,-0.1831,7.7000
14/11/21,16:3:38,5131.8257,N,3.6141,W,-9.8613,4.1247,179.1497,0.1637,0.0673,0.9341,0.7935,0.3662,-0.2441,7.7000
14/11/21,16:3:43,5131.8252,N,3.6157,W,-9.9279,4.0480,179.1616,0.1633,0.0671,0.9355,0.7935,0.4883,-0.3052,7.7000
14/11/21,16:3:48,5131.8247,N,3.6156,W,-9.8510,4.1353,179.1454,0.1627,0.0674,0.9342,0.6104,0.1221,-0.2441,7.6290
14/11/21,16:3:53,5131.8247,N,3.6160,W,-9.9535,4.1184,179.1501,0.1631,0.0674,0.9337,0.9155,0.3662,0.0000,7.6645
14/11/21,16:3:58,5131.8252,N,3.6161,W,-9.8438,4.1374,179.1449,0.1621,0.0675,0.9346,0.8545,0.1221,-0.3662,7.5935
14/11/21,16:4:3,5131.8257,N,3.6159,W,-9.7919,4.0464,179.1609,0.1619,0.0667,0.9329,0.8545,0.3662,-0.1221,7.7000
14/11/21,16:4:8,5131.8257,N,3.6151,W,-9.8742,4.1244,179.1462,0.1632,0.0674,0.9335,0.8545,0.1831,-0.3052,7.7355
14/11/21,16:4:13,5131.8262,N,3.6145,W,-9.8269,4.0320,179.1605,0.1628,0.0669,0.9344,0.7935,0.1221,-0.3052,7.6290
14/11/21,16:4:18,5131.8262,N,3.6128,W,-9.8431,4.1492,179.1390,0.1627,0.0680,0.9348,0.7324,0.2441,-0.3052,7.6645
14/11/21,16:4:23,5131.8262,N,3.6125,W,-9.9008,4.2495,179.1207,0.1626,0.0679,0.9343,0.7324,0.1221,-0.2441,7.7355
14/11/21,16:4:28,5131.8257,N,3.6121,W,-9.8490,4.1574,179.1342,0.1625,0.0675,0.9341,0.6104,0.1831,-0.3662,7.6645
14/11/21,16:4:33,5131.8262,N,3.6113,W,-9.8980,4.0643,179.1489,0.1630,0.0673,0.9342,0.4883,0.3662,-0.2441,7.7000
14/11/21,16:4:38,5131.8262,N,3.6113,W,-9.8590,4.1756,179.1268,0.1628,0.0681,0.9343,0.5493,0.1831,-0.4272,7.5581
14/11/21,16:4:43,5131.8257,N,3.6112,W,-9.8163,4.0796,179.1407,0.1622,0.0669,0.9340,0.7324,0.3662,-0.4272,7.7000
14/11/21,16:4:48,5131.8257,N,3.6111,W,-9.9188,4.1167,179.1318,0.1630,0.0669,0.9341,0.5493,0.1221,-0.3662,7.6290
14/11/21,16:4:53,5131.8257,N,3.6108,W,-9.8200,4.1824,179.1182,0.1632,0.0676,0.9344,0.7935,0.4883,-0.4272,7.7355
14/11/21,16:4:58,5131.8252,N,3.6123,W,-9.8666,4.0907,179.1325,0.1625,0.0679,0.9348,0.8545,0.1831,-0.3052,7.7355
14/11/21,16:5:3,5131.8247,N,3.6125,W,-9.7607,4.1329,179.1238,0.1615,0.0673,0.9342,0.7935,0.1831,-0.3052,7.6645
14/11/21,16:5:8,5131.8247,N,3.6119,W,-9.8473,4.0751,179.1315,0.1624,0.0667,0.9343,0.6714,0.2441,-0.3662,7.7710
14/11/21,16:5:13,5131.8242,N,3.6137,W,-9.9491,4.1108,179.1240,0.1630,0.0667,0.9340,0.7935,0.3052,-0.3052,7.6645
14/11/21,16:5:18,5131.8237,N,3.6156,W,-9.8364,4.1268,179.1206,0.1624,0.0673,0.9341,0.8545,0.4272,-0.2441,7.7355
14/11/21,16:5:23,5131.8228,N,3.6168,W,-9.9100,4.0533,179.1316,0.1632,0.0665,0.9341,0.6714,0.2441,-0.3052,7.8065
14/11/21,16:5:28,5131.8228,N,3.6183,W,-9.8307,4.1392,179.1140,0.1630,0.0669,0.9343,0.6104,0.1831,-0.4272,7.7000
14/11/21,16:5:33,5131.8223,N,3.6203,W,-9.9360,4.1318,179.1149,0.1633,0.0675,0.9346,0.7324,0.2441,-0.1831,7.5581
14/11/21,16:5:38,5131.8228,N,3.6196,W,-9.8226,4.1398,179.1141,0.1617,0.0675,0.9346,0.8545,0.4883,-0.1221,7.7355
14/11/21,16:5:43,5131.8228,N,3.6200,W,-9.9293,4.1442,179.1122,0.1632,0.0676,0.9346,0.6104,0.1831,-0.2441,7.7355
14/11/21,16:5:48,5131.8232,N,3.6198,W,-9.8263,4.1058,179.1179,0.1627,0.0671,0.9338,0.6714,0.4272,-0.2441,7.6645
14/11/21,16:5:53,5131.8237,N,3.6193,W,-9.9226,4.1597,179.1065,0.1632,0.0675,0.9347,0.7324,0.1831,-0.3662,7.7000
14/11/21,16:5:58,5131.8242,N,3.6194,W,-9.8421,4.0911,179.1163,0.1632,0.0673,0.9349,0.7935,0.2441,-0.3662,7.7355
14/11/21,16:6:3,5131.8242,N,3.6191,W,-9.8459,4.2066,179.0968,0.1625,0.0673,0.9340,0.4272,0.2441,-0.0610,7.7710
14/11/21,16:6:8,5131.8247,N,3.6192,W,-9.8370,4.1009,179.1132,0.1625,0.0665,0.9343,0.5493,0.4272,-0.3052,7.7000
14/11/21,16:6:13,5131.8247,N,3.6187,W,-9.9094,4.0281,179.1260,0.1628,0.0667,0.9347,0.7324,0.4272,-0.1221,7.5935
14/11/21,16:6:18,5131.8252,N,3.6188,W,-9.8357,4.1210,179.1075,0.1628,0.0669,0.9349,0.7324,0.2441,-0.4272,7.7000
14/11/21,16:6:23,5131.8252,N,3.6189,W,-9.8891,4.2246,179.0884,0.1627,0.0677,0.9347,0.8545,0.2441,-0.3052,7.6645
14/11/21,16:6:28,5131.8257,N,3.6184,W,-9.8628,4.1220,179.1061,0.1628,0.0668,0.9346,0.6104,0.3052,-0.1221,7.6645
14/11/21,16:6:33,5131.8262,N,3.6139,W,-9.8998,4.2331,179.0862,0.1631,0.0677,0.9347,0.7935,0.3052,-0.2441,7.7000
14/11/21,16:6:38,5131.8267,N,3.6121,W,-9.8710,4.1320,179.1017,0.1630,0.0677,0.9333,0.6104,0.0610,-0.3052,7.7000
14/11/21,16:6:43,5131.8271,N,3.6119,W,-9.8218,4.0395,179.1158,0.1628,0.0673,0.9340,0.8545,0.4883,-0.3662,7.6290
14/11/21,16:6:48,5131.8276,N,3.6100,W,-9.8561,4.1515,179.0952,0.1626,0.0670,0.9347,0.7324,0.2441,-0.3052,7.7355
14/11/21,16:6:53,5131.8276,N,3.6083,W,-9.7487,4.1294,179.0977,0.1620,0.0676,0.9346,0.5493,0.2441,-0.2441,7.6290
14/11/21,16:6:58,5131.8276,N,3.6071,W,-9.8426,4.1830,179.0868,0.1628,0.0684,0.9340,0.5493,0.3662,-0.3052,7.7000
14/11/21,16:7:3,5131.8276,N,3.6070,W,-9.7315,4.1762,179.0890,0.1620,0.0682,0.9338,0.7935,0.3662,-0.0610,7.7710
14/11/21,16:7:8,5131.8267,N,3.6086,W,-9.8354,4.1493,179.0922,0.1632,0.0674,0.9340,0.6104,0.0000,-0.2441,7.6645
14/11/21,16:7:13,5131.8262,N,3.6101,W,-9.7865,4.2592,179.0715,0.1622,0.0681,0.9342,0.7935,0.3052,-0.3662,7.6290
14/11/21,16:7:18,5131.8262,N,3.6098,W,-9.8249,4.1635,179.0858,0.1625,0.0673,0.9340,0.7324,0.3662,-0.3662,7.5935
14/11/21,16:7:23,5131.8267,N,3.6098,W,-9.8848,4.0775,179.0994,0.1628,0.0671,0.9344,0.6714,0.1221,-0.2441,7.7000
14/11/21,16:7:28,5131.8262,N,3.6101,W,-9.8388,4.1875,179.0802,0.1628,0.0676,0.9346,0.7324,0.2441,-0.1831,7.7000
14/11/21,16:7:33,5131.8257,N,3.6121,W,-9.8445,4.0839,179.0959,0.1625,0.0669,0.9337,0.7324,0.3662,-0.3662,7.6645
14/11/21,16:7:38,5131.8247,N,3.6143,W,-9.8554,4.2004,179.0731,0.1627,0.0674,0.9348,0.5493,0.2441,-0.4272,7.5935
14/11/21,16:7:43,5131.8237,N,3.6154,W,-9.8261,4.1008,179.0889,0.1625,0.0675,0.9343,0.8545,0.4272,-0.3052,7.6645
14/11/21,16:7:48,5131.8237,N,3.6154,W,-9.8954,4.1888,179.0719,0.1626,0.0674,0.9343,0.4883,0.2441,-0.3052,7.7355
14/11/21,16:7:53,5131.8237,N,3.6142,W,-9.9112,4.0871,179.0899,0.1636,0.0671,0.9340,0.8545,0.3662,-0.1221,7.7710
14/11/21,16:7:58,5131.8242,N,3.6141,W,-9.8000,4.0764,179.0904,0.1624,0.0665,0.9340,0.7324,0.4272,-0.3052,7.7355
14/11/21,16:8:3,5131.8242,N,3.6139,W,-9.8752,4.1565,179.0744,0.1626,0.0673,0.9348,0.5493,0.4883,-0.3662,7.6645
14/11/21,16:8:8,5131.8247,N,3.6138,W,-9.8713,4.0528,179.0920,0.1631,0.0665,0.9346,0.7935,0.2441,-0.1831,7.6645
14/11/21,16:8:13,5131.8247,N,3.6131,W,-9.8610,4.1721,179.0713,0.1630,0.0677,0.9347,0.7935,0.2441,-0.1831,7.7000
14/11/21,16:8:18,5131.8242,N,3.6126,W,-9.8168,4.0765,179.0860,0.1625,0.0674,0.9341,0.6714,0.2441,-0.3052,7.6645
14/11/21,16:8:23,5131.8242,N,3.6124,W,-9.8794,4.1726,179.0675,0.1628,0.0677,0.9332,0.7324,0.2441,-0.3662,7.6645
14/11/21,16:8:28,5131.8247,N,3.6118,W,-9.7782,4.1353,179.0728,0.1625,0.0679,0.9344,0.6714,0.1831,-0.2441,7.8065
14/11/21,16:8:33,5131.8247,N,3.6116,W,-9.8633,4.0781,179.0814,0.1625,0.0667,0.9337,0.9766,0.2441,-0.3052,7.7000
14/11/21,16:8:38,5131.8247,N,3.6111,W,-9.7579,4.1246,179.0693,0.1616,0.0671,0.9346,0.4883,0.3662,-0.5493,7.8065
14/11/21,16:8:43,5131.8252,N,3.6103,W,-9.8279,4.0492,179.0789,0.1615,0.0668,0.9337,0.6714,0.3662,-0.4883,7.6290
14/11/21,16:8:48,5131.8252,N,3.6102,W,-9.7364,4.1208,179.0662,0.1614,0.0668,0.9343,0.6714,0.2441,-0.1831,7.7355
14/11/21,16:8:53,5131.8252,N,3.6100,W,-9.8401,4.1532,179.0615,0.1636,0.0680,0.9349,0.7324,0.1831,-0.0610,7.6290
14/11/21,16:8:58,5131.8252,N,3.6098,W,-9.8957,4.0672,179.0750,0.1631,0.0668,0.9341,0.9155,0.1831,-0.3052,7.8065
14/11/21,16:9:3,5131.8257,N,3.6096,W,-9.8648,4.1826,179.0536,0.1633,0.0673,0.9351,0.7324,0.1831,-0.3052,7.6290
14/11/21,16:9:8,5131.8262,N,3.6092,W,-9.8239,4.0881,179.0699,0.1626,0.0674,0.9347,0.9766,0.3052,-0.1831,7.7710
14/11/21,16:9:13,5131.8257,N,3.6092,W,-9.8464,4.2034,179.0485,0.1622,0.0671,0.9340,0.6714,0.1831,-0.3052,7.6645
14/11/21,16:9:18,5131.8257,N,3.6095,W,-9.8396,4.1013,179.0647,0.1625,0.0670,0.9341,0.9155,0.2441,-0.3052,7.8065
14/11/21,16:9:23,5131.8262,N,3.6096,W,-9.8046,4.2164,179.0437,0.1624,0.0671,0.9340,0.7935,0.3052,-0.3052,7.7710
14/11/21,16:9:28,5131.8262,N,3.6098,W,-9.8135,4.1147,179.0605,0.1622,0.0663,0.9346,0.9155,0.4272,-0.2441,7.8065
14/11/21,16:9:33,5131.8257,N,3.6106,W,-9.9167,4.0983,179.0621,0.1624,0.0671,0.9342,0.4883,0.3662,-0.2441,7.7000
14/11/21,16:9:38,5131.8262,N,3.6074,W,-9.8182,4.1606,179.0494,0.1622,0.0679,0.9347,0.7324,0.3052,-0.3662,7.7000
14/11/21,16:9:43,5131.8262,N,3.6060,W,-9.8920,4.0938,179.0601,0.1626,0.0674,0.9338,1.0986,0.4883,-0.3052,7.5935
14/11/21,16:9:48,5131.8267,N,3.6049,W,-9.8188,4.1897,179.0426,0.1631,0.0670,0.9337,0.9766,0.3052,-0.3052,7.5935
14/11/21,16:9:53,5131.8267,N,3.6040,W,-9.8796,4.1049,179.0561,0.1627,0.0674,0.9337,0.7324,0.1221,-0.2441,7.7710
14/11/21,16:9:58,5131.8271,N,3.6038,W,-9.7960,4.1894,179.0410,0.1624,0.0679,0.9347,0.8545,0.3052,-0.2441,7.6645
14/11/21,16:10:3,5131.8276,N,3.6037,W,-9.8663,4.1182,179.0504,0.1628,0.0671,0.9337,0.9155,0.5493,-0.4883,7.7000
14/11/21,16:10:8,5131.8276,N,3.6035,W,-9.8754,4.2373,179.0294,0.1628,0.0679,0.9333,0.8545,0.4272,-0.2441,7.5935
14/11/21,16:10:13,5131.8276,N,3.6038,W,-9.8378,4.1407,179.0441,0.1625,0.0674,0.9344,0.8545,0.3052,-0.3662,7.7000
14/11/21,16:10:18,5131.8276,N,3.6034,W,-9.8428,4.0368,179.0609,0.1625,0.0675,0.9344,0.7324,0.3052,-0.2441,7.6290
14/11/21,16:10:23,5131.8276,N,3.6031,W,-9.8371,4.1562,179.0403,0.1626,0.0674,0.9349,0.7935,0.3052,-0.1831,7.6645
14/11/21,16:10:28,5131.8281,N,3.6028,W,-9.9221,4.0977,179.0501,0.1630,0.0675,0.9343,0.7935,0.3052,-0.1831,7.7355
14/11/21,16:10:33,5131.8281,N,3.6026,W,-9.8133,4.0964,179.0490,0.1624,0.0668,0.9340,0.9155,0.0610,-0.3052,7.6645
14/11/21,16:10:38,5131.8281,N,3.6019,W,-9.9022,4.1603,179.0372,0.1631,0.0675,0.9342,0.9766,0.5493,-0.3052,7.6290
14/11/21,16:10:43,5131.8286,N,3.6015,W,-9.8117,4.1060,179.0469,0.1627,0.0674,0.9347,0.9155,0.1831,-0.1221,7.6645
14/11/21,16:10:48,5131.8286,N,3.6010,W,-9.9142,4.0928,179.0486,0.1631,0.0669,0.9347,0.8545,0.4272,-0.2441,7.6645
14/11/21,16:10:53,5131.8291,N,3.6004,W,-9.8030,4.0917,179.0480,0.1630,0.0668,0.9340,0.7935,0.3052,-0.2441,7.7000
14/11/21,16:10:58,5131.8291,N,3.5999,W,-9.8893,4.1622,179.0344,0.1622,0.0671,0.9335,0.7324,0.2441,-0.3052,7.6290
14/11/21,16:11:3,5131.8296,N,3.5996,W,-9.8110,4.0911,179.0476,0.1624,0.0670,0.9343,0.8545,0.3052,-0.0610,7.6290
14/11/21,16:11:8,5131.8296,N,3.5991,W,-9.7332,4.0208,179.0580,0.1617,0.0665,0.9349,0.7935,0.1221,-0.3052,7.7000
14/11/21,16:11:13,5131.8296,N,3.5982,W,-9.8122,4.0995,179.0428,0.1625,0.0671,0.9346,0.7935,0.4272,-0.3662,7.7000
14/11/21,16:11:18,5131.8301,N,3.5973,W,-9.9132,4.0695,179.0463,0.1627,0.0667,0.9338,0.6714,0.1831,-0.3052,7.6290
14/11/21,16:11:23,5131.8301,N,3.5969,W,-9.8125,4.1225,179.0367,0.1628,0.0668,0.9337,0.6714,0.1221,-0.1831,7.5935
14/11/21,16:11:28,5131.8306,N,3.5969,W,-9.9123,4.1670,179.0268,0.1625,0.0675,0.9342,0.6714,0.1831,-0.3662,7.7000
14/11/21,16:11:33,5131.8306,N,3.5966,W,-9.8201,4.1151,179.0359,0.1626,0.0674,0.9340,0.7935,0.1221,-0.1221,7.6645
14/11/21,16:11:38,5131.8306,N,3.5962,W,-9.9271,4.1154,179.0325,0.1635,0.0671,0.9343,0.6714,0.1221,-0.4883,7.6645
14/11/21,16:11:43,5131.8311,N,3.5955,W,-9.8234,4.0794,179.0370,0.1632,0.0669,0.9349,0.9155,0.4883,-0.3662,7.7000
14/11/21,16:11:48,5131.8315,N,3.5950,W,-9.8049,4.1976,179.0155,0.1621,0.0675,0.9344,0.7324,0.4272,-0.3052,7.7355
14/11/21,16:11:53,5131.8315,N,3.5952,W,-9.8219,4.0961,179.0309,0.1622,0.0669,0.9344,0.7935,0.3662,-0.3662,7.5935
14/11/21,16:11:58,5131.8281,N,3.6038,W,-9.9195,4.0614,179.0371,0.1627,0.0668,0.9349,0.7324,0.3662,-0.1221,7.6645
14/11/21,16:12:3,5131.8257,N,3.6084,W,-9.8955,4.1788,179.0179,0.1635,0.0674,0.9335,0.7935,0.3052,-0.0610,7.6645
14/11/21,16:12:9,5131.8252,N,3.6090,W,-9.8207,4.1051,179.0298,0.1626,0.0673,0.9352,0.8545,0.2441,-0.2441,7.7000
14/11/21,16:12:15,5131.8252,N,3.6090,W,-9.8980,4.1881,179.0127,0.1626,0.0675,0.9340,0.6714,0.1221,-0.4272,7.6645
14/11/21,16:12:21,5131.8252,N,3.6096,W,-9.8090,4.1290,179.0240,0.1621,0.0674,0.9342,0.9155,0.3662,-0.0610,7.6645
14/11/21,16:12:27,5131.8252,N,3.6103,W,-9.8845,4.0566,179.0353,0.1626,0.0669,0.9347,0.6714,0.1831,-0.2441,7.6290
14/11/21,16:12:33,5131.8252,N,3.6109,W,-9.8713,4.1763,179.0133,0.1630,0.0676,0.9337,0.8545,0.0610,-0.3052,7.5935
14/11/21,16:12:39,5131.8257,N,3.6112,W,-9.7679,4.1367,179.0199,0.1620,0.0677,0.9342,0.7324,0.5493,-0.1831,7.5581
14/11/21,16:12:45,5131.8257,N,3.6113,W,-9.8679,4.1759,179.0133,0.1624,0.0679,0.9340,0.9155,0.4272,-0.1831,7.6645
14/11/21,16:12:51,5131.8262,N,3.6114,W,-9.8935,4.0751,179.0302,0.1631,0.0676,0.9342,0.7324,0.2441,-0.1831,7.6290
14/11/21,16:12:57,5131.8267,N,3.6109,W,-9.8827,4.1930,179.0065,0.1632,0.0679,0.9340,0.6104,0.1221,-0.4883,7.5581
14/11/21,16:13:2,5131.8271,N,3.6102,W,-9.7948,4.1303,179.0147,0.1614,0.0671,0.9335,0.4883,0.2441,-0.3662,7.5935
14/11/21,16:13:7,5131.8271,N,3.6098,W,-9.8884,4.0880,179.0213,0.1628,0.0669,0.9343,0.8545,0.3662,-0.2441,7.6290
14/11/21,16:13:13,5131.8276,N,3.6103,W,-9.8119,4.1765,179.0062,0.1624,0.0676,0.9337,0.6714,0.1831,-0.1221,7.7710
14/11/21,16:13:19,5131.8276,N,3.6111,W,-9.8547,4.0837,179.0214,0.1621,0.0677,0.9337,0.8545,0.3662,-0.2441,7.5935
14/11/21,16:13:25,5131.8281,N,3.6116,W,-9.9101,4.1853,179.0037,0.1633,0.0677,0.9338,0.7935,0.2441,-0.1831,7.8419
14/11/21,16:13:31,5131.8281,N,3.6116,W,-9.8217,4.1263,179.0123,0.1625,0.0675,0.9340,0.7324,0.1831,-0.3052,7.7000
14/11/21,16:13:36,5131.8286,N,3.6110,W,-9.9001,4.0595,179.0205,0.1622,0.0670,0.9329,0.7324,0.3052,-0.4883,7.7000
14/11/21,16:13:41,5131.8286,N,3.6102,W,-9.7945,4.1042,179.0115,0.1617,0.0669,0.9342,0.7935,0.2441,-0.3052,7.7000
14/11/21,16:13:46,5131.8291,N,3.6096,W,-9.8908,4.1533,179.0015,0.1628,0.0675,0.9343,0.6714,0.3662,-0.3052,7.7000
14/11/21,16:13:51,5131.8296,N,3.6092,W,-9.9294,4.0571,179.0178,0.1637,0.0668,0.9340,0.7324,0.3052,-0.1831,7.7000
14/11/21,16:13:56,5131.8301,N,3.6088,W,-9.8206,4.0993,179.0100,0.1627,0.0667,0.9342,0.8545,0.4883,-0.2441,7.6645
14/11/21,16:14:1,5131.8306,N,3.6080,W,-9.9250,4.1295,179.0024,0.1636,0.0673,0.9340,0.6104,0.1221,-0.3662,7.7000
14/11/21,16:14:6,5131.8311,N,3.6067,W,-9.8510,4.2218,178.9856,0.1626,0.0687,0.9333,0.7324,0.2441,-0.2441,7.6645
14/11/21,16:14:11,5131.8306,N,3.6037,W,-9.8893,4.1266,179.0001,0.1635,0.0673,0.9347,0.7935,0.3662,-0.3662,7.6645
14/11/21,16:14:16,5131.8306,N,3.6032,W,-9.9601,4.2153,178.9856,0.1636,0.0677,0.9338,0.7324,0.2441,-0.0610,7.7000
14/11/21,16:14:21,5131.8311,N,3.6032,W,-9.8610,4.1735,178.9917,0.1625,0.0679,0.9346,0.6714,0.1831,-0.2441,7.7000
14/11/21,16:14:27,5131.8311,N,3.6037,W,-9.8906,4.0741,179.0048,0.1632,0.0674,0.9351,0.7324,0.0610,-0.5493,7.6645
14/11/21,16:14:33,5131.8311,N,3.6041,W,-9.9071,4.1924,178.9834,0.1632,0.0674,0.9325,0.9155,0.4883,-0.3052,7.7355
14/11/21,16:14:39,5131.8311,N,3.6042,W,-9.8165,4.1372,178.9926,0.1620,0.0674,0.9340,0.7935,0.1831,-0.1831,7.7710
14/11/21,16:14:44,5131.8311,N,3.6038,W,-9.9223,4.1351,178.9912,0.1628,0.0675,0.9341,0.6104,0.2441,-0.3052,7.7000
14/11/21,16:14:49,5131.8311,N,3.6032,W,-9.8228,4.0972,178.9964,0.1630,0.0671,0.9337,0.8545,0.1221,-0.3052,7.5935
14/11/21,16:14:54,5131.8315,N,3.6025,W,-9.9008,4.1794,178.9784,0.1632,0.0679,0.9340,0.7324,0.1831,-0.5493,7.7000
14/11/21,16:14:59,5131.8320,N,3.6021,W,-9.8563,4.0844,178.9917,0.1630,0.0671,0.9341,0.6104,0.0610,-0.4272,7.6645
14/11/21,16:15:4,5131.8320,N,3.6016,W,-9.8378,4.2029,178.9700,0.1626,0.0673,0.9340,0.7935,0.1221,-0.3052,7.5935
14/11/21,16:15:9,5131.8320,N,3.6010,W,-9.8994,4.1210,178.9839,0.1630,0.0679,0.9341,0.9155,0.2441,-0.1831,7.5935
14/11/21,16:15:14,5131.8325,N,3.6006,W,-9.8327,4.2222,178.9673,0.1631,0.0682,0.9354,0.9766,0.3662,-0.1221,7.6290
14/11/21,16:15:20,5131.8325,N,3.6006,W,-9.8376,4.1182,178.9841,0.1624,0.0673,0.9337,0.7324,0.1831,-0.2441,7.5935
14/11/21,16:15:26,5131.8330,N,3.6007,W,-9.9189,4.0553,178.9935,0.1630,0.0669,0.9346,0.7324,0.3662,-0.3052,7.6290
14/11/21,16:15:32,5131.8330,N,3.6011,W,-9.8857,4.1695,178.9704,0.1631,0.0679,0.9330,0.6104,0.3052,-0.4883,7.6290
14/11/21,16:15:38,5131.8330,N,3.6012,W,-9.8235,4.0848,178.9832,0.1625,0.0671,0.9335,0.6714,0.1221,-0.3052,7.6645
14/11/21,16:15:44,5131.8330,N,3.6012,W,-9.9072,4.1569,178.9688,0.1628,0.0673,0.9330,0.6714,0.3662,-0.3662,7.6645
14/11/21,16:15:49,5131.8330,N,3.6008,W,-9.8536,4.0649,178.9822,0.1630,0.0669,0.9336,0.5493,0.2441,-0.3662,7.7000
14/11/21,16:15:55,5131.8330,N,3.6012,W,-9.8405,4.1856,178.9592,0.1624,0.0682,0.9332,0.9155,0.3052,-0.4272,7.6645
14/11/21,16:16:1,5131.8325,N,3.6018,W,-9.8164,4.0841,178.9775,0.1622,0.0670,0.9344,0.7935,0.3052,-0.0610,7.7710
14/11/21,16:16:7,5131.8325,N,3.6023,W,-9.8992,4.1584,178.9657,0.1630,0.0674,0.9342,0.7935,0.3662,-0.0610,7.7000
14/11/21,16:16:13,5131.8325,N,3.6028,W,-9.8041,4.1108,178.9708,0.1625,0.0674,0.9329,0.8545,0.1831,-0.4883,7.5935
14/11/21,16:16:19,5131.8325,N,3.6035,W,-9.9109,4.1049,178.9700,0.1631,0.0669,0.9330,0.6104,0.1221,-0.3052,7.7710
14/11/21,16:16:25,5131.8325,N,3.6042,W,-9.8022,4.1451,178.9618,0.1619,0.0675,0.9336,0.7935,0.4272,-0.3052,7.6290
14/11/21,16:16:31,5131.8325,N,3.6047,W,-9.8743,4.0700,178.9736,0.1626,0.0668,0.9338,0.6714,0.2441,-0.2441,7.6290
14/11/21,16:16:37,5131.8320,N,3.6054,W,-9.8638,4.1916,178.9537,0.1630,0.0685,0.9343,1.0376,0.4883,-0.1221,7.7710
14/11/21,16:16:43,5131.8320,N,3.6061,W,-9.7523,4.1911,178.9527,0.1617,0.0684,0.9336,0.6104,0.3052,-0.2441,7.7355
14/11/21,16:16:49,5131.8315,N,3.6065,W,-9.8466,4.1449,178.9576,0.1624,0.0677,0.9343,0.6104,0.1831,-0.4272,7.5581
14/11/21,16:16:55,5131.8315,N,3.6070,W,-9.9341,4.0895,178.9657,0.1627,0.0675,0.9337,0.7935,0.2441,-0.3052,7.5935
14/11/21,16:17:1,5131.8315,N,3.6072,W,-9.8232,4.1211,178.9604,0.1622,0.0671,0.9340,0.9155,0.4272,-0.1831,7.6290
14/11/21,16:17:7,5131.8315,N,3.6066,W,-9.9240,4.1596,178.9532,0.1630,0.0675,0.9333,0.9155,0.3662,-0.2441,7.5935
14/11/21,16:17:13,5131.8311,N,3.6060,W,-9.8433,4.0883,178.9631,0.1627,0.0668,0.9348,0.5493,0.3052,-0.3662,7.6645
14/11/21,16:17:19,5131.8311,N,3.6060,W,-9.8615,4.2061,178.9417,0.1626,0.0674,0.9340,0.8545,0.3052,-0.3052,7.5226
14/11/21,16:17:25,5131.8315,N,3.6065,W,-9.8155,4.1106,178.9559,0.1621,0.0667,0.9353,0.6714,0.4272,-0.3662,7.5581
14/11/21,16:17:31,5131.8311,N,3.6069,W,-9.9189,4.1380,178.9492,0.1635,0.0674,0.9340,0.7324,0.3052,-0.3662,7.6290
14/11/21,16:17:37,5131.8311,N,3.6074,W,-9.8256,4.0859,178.9579,0.1631,0.0671,0.9342,0.7935,0.2441,-0.1831,7.5581
14/11/21,16:17:43,5131.8315,N,3.6079,W,-9.9296,4.1065,178.9535,0.1638,0.0669,0.9336,0.7324,0.3662,-0.2441,7.8065
14/11/21,16:17:49,5131.8315,N,3.6081,W,-9.8185,4.1179,178.9485,0.1627,0.0671,0.9342,0.4883,0.2441,-0.4272,7.5935
14/11/21,16:17:54,5131.8315,N,3.6080,W,-9.9171,4.0826,178.9536,0.1635,0.0667,0.9340,0.7935,0.1831,-0.2441,7.6645
14/11/21,16:18:0,5131.8311,N,3.6083,W,-9.8060,4.0887,178.9512,0.1621,0.0667,0.9336,0.4883,0.2441,-0.2441,7.5935
14/11/21,16:18:6,5131.8311,N,3.6088,W,-9.9017,4.1400,178.9416,0.1627,0.0671,0.9344,0.7324,0.3662,-0.2441,7.6290
14/11/21,16:18:12,5131.8311,N,3.6089,W,-9.7916,4.1253,178.9431,0.1621,0.0674,0.9349,0.6104,0.3662,-0.2441,7.6645
14/11/21,16:18:18,5131.8306,N,3.6092,W,-9.8964,4.1178,178.9446,0.1628,0.0671,0.9333,0.7324,0.3052,-0.1221,7.5935
14/11/21,16:18:24,5131.8306,N,3.6094,W,-9.7865,4.1061,178.9457,0.1622,0.0670,0.9333,0.7324,0.3052,-0.2441,7.5935
14/11/21,16:18:30,5131.8301,N,3.6094,W,-9.8915,4.1309,178.9387,0.1636,0.0674,0.9341,0.6714,0.1831,-0.4272,7.7710
14/11/21,16:18:36,5131.8301,N,3.6092,W,-9.8050,4.2088,178.9238,0.1626,0.0681,0.9344,0.7324,0.1221,-0.3052,7.6645
14/11/21,16:18:42,5131.8301,N,3.6088,W,-9.8616,4.1232,178.9375,0.1631,0.0670,0.9343,0.6714,0.5493,-0.2441,7.5581
14/11/21,16:18:47,5131.8301,N,3.6084,W,-9.7663,4.1881,178.9260,0.1622,0.0677,0.9344,0.6714,0.1831,-0.1831,7.7000
14/11/21,16:18:53,5131.8301,N,3.6078,W,-9.8674,4.1637,178.9304,0.1631,0.0679,0.9342,0.6714,0.3662,-0.1221,7.6645
14/11/21,16:18:58,5131.8301,N,3.6073,W,-9.8062,4.0777,178.9439,0.1626,0.0675,0.9341,0.8545,0.4883,-0.3052,7.6645
14/11/21,16:19:3,5131.8301,N,3.6072,W,-9.8618,4.1806,178.9249,0.1630,0.0682,0.9346,0.8545,0.1221,-0.3052,7.6645
14/11/21,16:19:9,5131.8301,N,3.6070,W,-9.7527,4.1612,178.9270,0.1622,0.0681,0.9337,0.8545,0.4272,-0.3052,7.6645
14/11/21,16:19:15,5131.8296,N,3.6073,W,-9.8560,4.1508,178.9272,0.1633,0.0676,0.9343,0.6104,0.4272,-0.3052,7.7710
14/11/21,16:19:20,5131.8296,N,3.6073,W,-9.8689,4.0485,178.9428,0.1628,0.0671,0.9343,0.7935,0.2441,-0.3662,7.6645
14/11/21,16:19:25,5131.8301,N,3.6071,W,-9.8916,4.1637,178.9224,0.1631,0.0668,0.9342,0.6714,0.1221,-0.1831,7.8065
14/11/21,16:19:31,5131.8296,N,3.6072,W,-9.8131,4.0907,178.9331,0.1627,0.0674,0.9343,0.5493,0.2441,-0.3052,7.6290
14/11/21,16:19:37,5131.8296,N,3.6075,W,-9.7043,4.0848,178.9340,0.1616,0.0668,0.9344,0.9155,0.1221,-0.1831,7.6645
14/11/21,16:19:43,5131.8296,N,3.6070,W,-9.8084,4.1136,178.9294,0.1626,0.0671,0.9331,0.7935,0.2441,-0.1221,7.7000
14/11/21,16:19:48,5131.8296,N,3.6065,W,-9.9075,4.1573,178.9193,0.1632,0.0676,0.9343,0.7324,0.3052,-0.4272,7.6645
14/11/21,16:19:53,5131.8296,N,3.6061,W,-9.8687,4.0594,178.9340,0.1632,0.0670,0.9337,0.6714,0.3052,-0.3662,7.6645
14/11/21,16:19:59,5131.8296,N,3.6058,W,-9.9392,4.1481,178.9167,0.1637,0.0671,0.9340,0.7324,0.3052,-0.3662,7.6290
14/11/21,16:20:5,5131.8296,N,3.6054,W,-9.8513,4.0855,178.9254,0.1635,0.0673,0.9338,0.4272,0.1831,-0.3052,7.5935
14/11/21,16:20:10,5131.8296,N,3.6051,W,-9.8221,4.2031,178.9052,0.1625,0.0676,0.9344,0.9155,0.3052,-0.1831,7.5935
14/11/21,16:20:16,5131.8296,N,3.6053,W,-9.9128,4.1524,178.9100,0.1646,0.0671,0.9338,0.6714,0.2441,-0.5493,7.7000
14/11/21,16:20:22,5131.8296,N,3.6057,W,-9.8184,4.0999,178.9178,0.1622,0.0669,0.9336,0.8545,0.4272,-0.3052,7.6645
14/11/21,16:20:28,5131.8291,N,3.6057,W,-9.9113,4.1599,178.9067,0.1633,0.0676,0.9337,0.7935,0.2441,-0.2441,7.7000
14/11/21,16:20:34,5131.8291,N,3.6060,W,-9.8306,4.0904,178.9175,0.1628,0.0673,0.9333,0.6104,0.1831,-0.2441,7.7000
14/11/21,16:20:40,5131.8296,N,3.6061,W,-9.8981,4.1833,178.9007,0.1630,0.0676,0.9340,0.7935,0.1831,-0.2441,7.6645
14/11/21,16:20:45,5131.8296,N,3.6059,W,-9.8953,4.0800,178.9164,0.1632,0.0669,0.9330,0.7935,0.1831,-0.3662,7.6290
14/11/21,16:20:51,5131.8296,N,3.6054,W,-9.9324,4.1913,178.8961,0.1636,0.0675,0.9330,0.8545,0.4272,-0.3052,7.7355
14/11/21,16:20:57,5131.8296,N,3.6050,W,-9.8789,4.1000,178.9102,0.1633,0.0671,0.9343,0.6714,0.3052,-0.3052,7.5935
14/11/21,16:21:3,5131.8296,N,3.6046,W,-9.7807,4.1613,178.8976,0.1624,0.0673,0.9335,0.6714,0.2441,-0.3662,7.6645
14/11/21,16:21:9,5131.8296,N,3.6036,W,-9.8586,4.0922,178.9078,0.1624,0.0670,0.9337,0.7324,0.1831,-0.3052,7.5226
14/11/21,16:21:14,5131.8296,N,3.6025,W,-9.9218,4.1855,178.8907,0.1631,0.0675,0.9324,0.6104,0.3662,-0.2441,7.6645
14/11/21,16:21:19,5131.8291,N,3.5992,W,-9.8148,4.1668,178.8936,0.1628,0.0681,0.9341,0.7935,0.1831,-0.1831,7.7000
14/11/21,16:21:24,5131.8291,N,3.5947,W,-9.9177,4.1598,178.8942,0.1636,0.0677,0.9332,0.8545,0.4883,-0.2441,7.5581
14/11/21,16:21:29,5131.8291,N,3.5923,W,-9.8075,4.1832,178.8886,0.1630,0.0680,0.9335,0.6714,0.2441,-0.3052,7.6290
14/11/21,16:21:34,5131.8291,N,3.5909,W,-9.8167,4.0788,178.9043,0.1621,0.0673,0.9346,0.6104,0.4272,-0.3662,7.6645
14/11/21,16:21:39,5131.8296,N,3.5887,W,-9.8746,4.1775,178.8869,0.1630,0.0679,0.9346,0.6714,0.2441,-0.1831,7.6645
14/11/21,16:21:44,5131.8296,N,3.5873,W,-9.8894,4.0741,178.9031,0.1633,0.0670,0.9347,0.6714,0.3052,-0.3052,7.6645
14/11/21,16:21:49,5131.8296,N,3.5864,W,-9.8176,4.1698,178.8842,0.1627,0.0671,0.9338,0.7935,0.3052,-0.4272,7.6645
14/11/21,16:21:55,5131.8291,N,3.5860,W,-9.8460,4.0724,178.9004,0.1626,0.0668,0.9347,0.9155,0.4883,-0.2441,7.7000
14/11/21,16:22:1,5131.8291,N,3.5860,W,-9.7808,4.1715,178.8825,0.1622,0.0671,0.9347,0.6714,0.3052,-0.2441,7.7355
14/11/21,16:22:7,5131.8291,N,3.5864,W,-9.8799,4.1456,178.8849,0.1626,0.0676,0.9330,0.7324,0.4883,-0.3662,7.7000
14/11/21,16:22:13,5131.8276,N,3.5912,W,-9.9863,4.1623,178.8827,0.1638,0.0677,0.9341,0.9766,0.1831,-0.1221,7.7000
14/11/21,16:22:19,5131.8276,N,3.5931,W,-9.8762,4.1526,178.8824,0.1627,0.0676,0.9342,0.7935,0.3052,-0.3662,7.6645
14/11/21,16:22:25,5131.8276,N,3.5928,W,-9.7820,4.2179,178.8697,0.1620,0.0682,0.9329,0.7935,0.0000,-0.3052,7.6645
14/11/21,16:22:31,5131.8281,N,3.5931,W,-9.8404,4.1324,178.8815,0.1626,0.0671,0.9338,0.6714,0.3052,-0.4272,7.7355
14/11/21,16:22:37,5131.8276,N,3.5932,W,-9.9446,4.1421,178.8778,0.1632,0.0675,0.9341,0.6714,0.4272,-0.3662,7.6290
14/11/21,16:22:42,5131.8281,N,3.5934,W,-9.8405,4.1093,178.8788,0.1628,0.0671,0.9342,0.5493,0.2441,-0.6104,7.7000
14/11/21,16:22:48,5131.8281,N,3.5940,W,-9.8078,4.2261,178.8582,0.1624,0.0673,0.9338,0.9155,0.3052,-0.2441,7.6645
14/11/21,16:22:54,5131.8281,N,3.5948,W,-9.8608,4.1401,178.8707,0.1639,0.0665,0.9366,0.9766,0.3052,-0.4272,7.6645
14/11/21,16:23:0,5131.8281,N,3.5956,W,-9.9023,4.2490,178.8507,0.1630,0.0679,0.9344,0.7935,0.3662,-0.3052,7.5935
14/11/21,16:23:6,5131.8281,N,3.5959,W,-9.8487,4.1585,178.8629,0.1624,0.0670,0.9352,0.6714,0.2441,-0.4883,7.7000
14/11/21,16:23:12,5131.8276,N,3.5961,W,-9.8747,4.0604,178.8792,0.1631,0.0668,0.9349,0.9155,0.5493,-0.2441,7.7000
14/11/21,16:23:18,5131.8276,N,3.5951,W,-9.9260,4.1645,178.8607,0.1636,0.0671,0.9346,0.8545,0.3662,-0.2441,7.7710
14/11/21,16:23:23,5131.8281,N,3.5906,W,-9.8219,4.1333,178.8631,0.1616,0.0671,0.9346,0.8545,0.3052,-0.4883,7.7000
14/11/21,16:23:28,5131.8281,N,3.5875,W,-9.9169,4.0956,178.8682,0.1627,0.0673,0.9342,0.7324,0.4883,-0.3052,7.7000
