$GPGGA,091632.000,5131.8030,N,00003.5922,W,1,03,2.59,103.0,M,47.0,M,,*7F

$GPGSA,A,2,06,07,17,,,,,,,,,,2.78,2.59,1.00*06

$GPVTG,327.65,T,,M,0.20,N,0.37,K,A*3E

$GPGGA,091636.000,5131.8022,N,00003.5960,W,1,03,2.59,103.0,M,47.0,M,,*7E

$GPGSA,A,2,06,07,17,,,,,,,,,,2.78,2.59,1.00*06

$GPRMC,091639.000,A,5131.8019,N,00003.5981,W,0.38,336.99,151121,,,A*72

$GPVTG,300.23,T,,M,0.38,N,0.70,K,A*33

$GPGGA,091642.220,5131.8012,N,00003.6002,W,1,03,2.59,103.0,M,47.0,M,,*70

$GPGGA,091646.000,5131.8012,N,00003.6012,W,1,03,2.59,103.0,M,47.0,M,,*75

$GPGSA,A,2,06,07,17,,,,,,,,,,2.78,2.59,1.00*06

$GPRMC,091648.216,A,5131.8009,N,00003.6015,W,0.16,281.92,151121,,,A*7D

$GPVTG,281.92,T,,M,0.16,N,0.31,K,A*38

$GPGGA,091652.000,5131.8010,N,00003.6019,W,1,03,2.59,103.0,M,47.0,M,,*79

$GPGSA,A,2,06,07,17,,,,,,,,,,2.78,2.59,1.00*06

$GPGGA,091656.000,5131.8008,N,00003.6022,W,1,03,2.59,103.0,M,47.0,M,,*7C

$GPGSA,A,2,06,07,17,,,,,,,,,,2.78,2.59,1.00*06

$GPVTG,294.49,T,,M,0.35,N,0.64,K,A*3B

$GPGGA,091700.000,5131.8010,N,00003.6024,W,1,03,2.59,103.0,M,47.0,M,,*71

$GPRMC,091703.000,A,5131.8011,N,00003.6018,W,0.12,339.94,151121,,,A*72

$GPVTG,339.94,T,,M,0.12,N,0.22,K,A*3A

$GPGGA,091706.216,5131.8011,N,00003.6012,W,1,03,2.59,103.0,M,47.0,M,,*76

$GPGSA,A,2,06,07,17,,,,,,,,,,2.78,2.59,1.00*06

$GPGGA,091710.000,5131.8009,N,00003.6017,W,1,03,2.59,103.0,M,47.0,M,,*78

$GPGSA,A,2,06,07,17,,,,,,,,,,2.78,2.59,1.00*06

$GPRMC,091712.212,A,5131.8000,N,00003.6027,W,0.17,242.19,151121,,,A*72

$GPVTG,242.19,T,,M,0.17,N,0.32,K,A*36

$GPGGA,091716.000,5131.7995,N,00003.6037,W,1,03,2.59,103.0,M,47.0,M,,*7F

$GPGSA,A,2,06,07,17,,,,,,,,,,2.78,2.59,1.00*06

$GPRMC,091718.211,A,5131.7991,N,00003.6050,W,0.35,261.24,151121,,,A*7A

$GPVTG,261.24,T,,M,0.35,N,0.65,K,A*3B

$GPGGA,091722.000,5131.7986,N,00003.6061,W,1,03,2.59,103.0,M,47.0,M,,*79

$GPGSA,A,2,06,07,17,,,,,,,,,,2.78,2.59,1.00*06

$GPGGA,091726.000,5131.7982,N,00003.6080,W,1,03,2.59,103.0,M,47.0,M,,*76

$GPGSA,A,2,06,07,17,,,,,,,,,,2.78,2.59,1.00*06

$GPRMC,091729.000,A,5131.7977,N,00003.6089,W,0.59,243.11,151121,,,A*7A

$GPVTG,243.11,T,,M,0.59,N,1.10,K,A*34

$GPGGA,091733.000,5131.7969,N,00003.6110,W,1,03,2.59,103.0,M,47.0,M,,*7F

$GPGSA,A,2,06,07,17,,,,,,,,,,2.78,2.59,1.00*06

$GPVTG,233.01,T,,M,0.68,N,1.26,K,A*35

$GPGGA,091736.210,5131.7961,N,00003.6122,W,1,03,2.59,102.9,M,47.0,M,,*78

$GPVTG,248.28,T,,M,0.72,N,1.33,K,A*3D

$GPGGA,091740.000,5131.7956,N,00003.6138,W,1,03,2.59,102.9,M,47.0,M,,*75

$GPGSV,2,1,05,06,63,283,27,19,26,233,19,17,14,214,22,07,08,168,31*70

$GPGSV,2,2,05,20,03,283,29*4F

$GPGGA,091746.000,5131.7945,N,00003.6153,W,1,03,2.59,102.9,M,47.0,M,,*7C

$GPGSA,A,2,06,07,17,,,,,,,,,,2.78,2.59,1.00*06

$GPGSA,A,3,06,07,17,20,,,,,,,,,2.52,2.36,0.88*05

$GPRMC,091748.217,A,5131.7945,N,00003.6165,W,0.47,239.32,151121,,,A*78

$GPVTG,251.77,T,,M,1.12,N,2.07,K,A*3C

$GPGGA,091752.000,5131.7955,N,00003.6271,W,1,04,2.36,96.2,M,47.0,M,,*42

$GPRMC,091755.000,A,5131.7966,N,00003.6347,W,1.31,241.56,151121,,,A*7E

$GPVTG,241.56,T,,M,1.31,N,2.42,K,A*3E

$GPRMC,091758.000,A,5131.7976,N,00003.6398,W,1.27,236.36,151121,,,A*71

$GPVTG,236.36,T,,M,1.27,N,2.35,K,A*3F

$GPGGA,091802.000,5131.7989,N,00003.6434,W,1,04,2.36,82.1,M,47.0,M,,*48

$GPGSA,A,3,06,07,17,20,,,,,,,,,2.52,2.36,0.88*05

$GPGGA,091806.000,5131.8000,N,00003.6440,W,1,04,2.36,78.0,M,47.0,M,,*4C

$GPGSA,A,3,06,07,17,20,,,,,,,,,2.52,2.36,0.88*05

$GPRMC,091808.000,A,5131.8007,N,00003.6435,W,0.68,238.27,151121,,,A*7F

$GPVTG,238.27,T,,M,0.68,N,1.27,K,A*3B

$GPGGA,091812.000,5131.8027,N,00003.6405,W,1,04,2.36,72.9,M,47.0,M,,*4E

$GPGSA,A,3,06,07,17,20,,,,,,,,,2.52,2.36,0.88*05

$GPGGA,091816.000,5131.8030,N,00003.6401,W,1,04,2.36,72.1,M,47.0,M,,*40

$GPGSA,A,3,06,07,17,20,,,,,,,,,2.52,2.36,0.88*05

$GPRMC,091819.000,A,5131.8030,N,00003.6402,W,0.13,320.08,151121,,,A*76

$GPVTG,320.08,T,,M,0.13,N,0.25,K,A*31

$GPGGA,091823.000,5131.8032,N,00003.6403,W,1,04,2.36,71.9,M,47.0,M,,*4D

$GPGSA,A,3,06,07,17,20,,,,,,,,,2.52,2.36,0.88*05

$GPGGA,091827.000,5131.8032,N,00003.6402,W,1,04,2.36,71.8,M,47.0,M,,*49

$GPGSA,A,3,06,07,17,20,,,,,,,,,2.52,2.36,0.89*04

$GPGGA,091831.000,5131.8031,N,00003.6405,W,1,04,2.36,71.8,M,47.0,M,,*4A

$GPGSA,A,3,06,07,17,20,,,,,,,,,2.52,2.36,0.89*04

$GPRMC,091834.000,A,5131.8031,N,00003.6408,W,0.28,258.29,151121,,,A*77

$GPVTG,258.29,T,,M,0.28,N,0.52,K,A*34

$GPGGA,091838.000,5131.8030,N,00003.6413,W,1,04,2.36,71.7,M,47.0,M,,*4A

$GPGSA,A,3,06,07,17,20,,,,,,,,,2.52,2.36,0.89*04

$GPGGA,091842.000,5131.8027,N,00003.6420,W,1,04,2.36,71.6,M,47.0,M,,*40

$GPGSA,A,3,06,07,17,20,,,,,,,,,2.52,2.36,0.89*04

$GPGGA,091846.000,5131.8026,N,00003.6434,W,1,04,2.36,70.1,M,47.0,M,,*46

$GPGSA,A,3,06,07,17,20,,,,,,,,,2.52,2.36,0.89*04

$GPRMC,091849.000,A,5131.8025,N,00003.6443,W,0.46,250.21,151121,,,A*7F

$GPVTG,250.21,T,,M,0.46,N,0.86,K,A*35

$GPGGA,091853.000,5131.8020,N,00003.6456,W,1,04,2.37,68.9,M,47.0,M,,*40

$GPGSA,A,3,06,07,17,20,,,,,,,,,2.53,2.37,0.89*04

$GPGGA,091857.000,5131.8022,N,00003.6456,W,1,04,2.36,67.6,M,47.0,M,,*47

$GPGSA,A,3,06,07,17,20,,,,,,,,,2.52,2.36,0.89*04

$GPGGA,091901.000,5131.8024,N,00003.6454,W,1,04,2.36,66.7,M,47.0,M,,*41

$GPGSA,A,3,06,07,17,20,,,,,,,,,2.52,2.36,0.89*04

$GPRMC,091904.000,A,5131.8022,N,00003.6460,W,0.55,236.90,151121,,,A*79

$GPVTG,236.90,T,,M,0.55,N,1.03,K,A*31

$GPGGA,091908.000,5131.8020,N,00003.6466,W,1,04,2.36,66.6,M,47.0,M,,*4C

$GPGSA,A,3,06,07,17,20,,,,,,,,,2.53,2.36,0.89*05

$GPGGA,091912.000,5131.8020,N,00003.6464,W,1,04,2.37,66.6,M,47.0,M,,*44

$GPGSA,A,3,06,07,17,20,,,,,,,,,2.53,2.37,0.89*04

$GPGGA,091916.000,5131.8024,N,00003.6458,W,1,04,2.36,66.5,M,47.0,M,,*49

$GPGSA,A,3,06,07,17,20,,,,,,,,,2.52,2.36,0.89*04

$GPRMC,091919.000,A,5131.8028,N,00003.6453,W,0.63,50.04,151121,,,A*45

$GPVTG,50.04,T,,M,0.63,N,1.17,K,A*0E

$GPGGA,091923.000,5131.8059,N,00003.6405,W,1,04,2.37,65.0,M,47.0,M,,*4A

$GPGSA,A,3,06,07,17,20,,,,,,,,,2.53,2.37,0.89*04

$GPGGA,091927.000,5131.8090,N,00003.6358,W,1,04,2.37,63.4,M,47.0,M,,*46

$GPGSA,A,3,06,07,17,20,,,,,,,,,2.53,2.37,0.89*04

$GPGGA,091931.000,5131.8105,N,00003.6336,W,1,04,2.37,62.2,M,47.0,M,,*43

$GPGSA,A,3,06,07,17,20,,,,,,,,,2.53,2.37,0.89*04

$GPGSA,A,3,06,07,17,20,,,,,,,,,2.53,2.37,0.89*04

$GPRMC,091934.000,A,5131.8113,N,00003.6322,W,0.90,41.31,151121,,,A*48

$GPVTG,46.68,T,,M,0.92,N,1.71,K,A*0D

$GPGGA,091938.000,5131.8124,N,00003.6301,W,1,04,2.37,60.3,M,47.0,M,,*4E

$GPVTG,42.81,T,,M,0.99,N,1.83,K,A*08

$GPGGA,091942.000,5131.8138,N,00003.6278,W,1,04,2.37,59.3,M,47.0,M,,*4B

$GPVTG,46.78,T,,M,0.83,N,1.54,K,A*0B

$GPGGA,091946.000,5131.8148,N,00003.6261,W,1,04,2.37,58.3,M,47.0,M,,*41

$GPGGA,091949.000,5131.8163,N,00003.6236,W,1,04,2.37,57.6,M,47.0,M,,*4F

$GPGSA,A,3,06,07,17,20,,,,,,,,,2.53,2.37,0.89*04

$GPGGA,091953.000,5131.8176,N,00003.6210,W,1,04,2.37,56.6,M,47.0,M,,*45

$GPGSA,A,3,06,07,17,20,,,,,,,,,2.53,2.37,0.89*04

$GPGGA,091957.000,5131.8180,N,00003.6197,W,1,04,2.37,55.7,M,47.0,M,,*46

$GPGSA,A,3,06,07,17,20,,,,,,,,,2.53,2.37,0.89*04

$GPVTG,41.60,T,,M,0.66,N,1.23,K,A*0E

$GPGGA,092001.000,5131.8189,N,00003.6184,W,1,04,2.37,54.9,M,47.0,M,,*4B

$GPGSA,A,3,06,07,17,20,,,,,,,,,2.53,2.37,0.89*04

$GPRMC,092004.000,A,5131.8197,N,00003.6175,W,0.72,39.88,151121,,,A*4C

$GPVTG,47.27,T,,M,0.66,N,1.22,K,A*0A

$GPGGA,092008.000,5131.8204,N,00003.6167,W,1,04,2.37,53.7,M,47.0,M,,*40

$GPVTG,44.32,T,,M,0.64,N,1.18,K,A*06

$GPGGA,092012.000,5131.8211,N,00003.6152,W,1,04,2.37,53.1,M,47.0,M,,*4F

$GPRMC,092015.000,A,5131.8218,N,00003.6142,W,0.70,28.73,151121,,,A*4A

$GPVTG,28.73,T,,M,0.70,N,1.29,K,A*0E

$GPRMC,092018.000,A,5131.8222,N,00003.6128,W,0.62,36.88,151121,,,A*4A

$GPVTG,36.88,T,,M,0.62,N,1.15,K,A*09

$GPGGA,092022.000,5131.8226,N,00003.6111,W,1,04,2.37,51.6,M,47.0,M,,*4A

$GPGSA,A,3,06,07,17,20,,,,,,,,,2.53,2.37,0.89*04

$GPGGA,092026.000,5131.8226,N,00003.6101,W,1,04,2.37,51.1,M,47.0,M,,*48

$GPGSA,A,3,06,07,17,20,,,,,,,,,2.53,2.37,0.89*04

$GPRMC,092029.000,A,5131.8229,N,00003.6094,W,0.46,39.99,151121,,,A*4C

$GPVTG,39.99,T,,M,0.46,N,0.85,K,A*08

$GPGGA,092033.000,5131.8232,N,00003.6088,W,1,04,2.37,50.8,M,47.0,M,,*41

$GPGSA,A,3,06,07,17,20,,,,,,,,,2.53,2.37,0.89*04

$GPGGA,092037.000,5131.8233,N,00003.6085,W,1,04,2.37,50.8,M,47.0,M,,*49

$GPGSA,A,3,06,07,17,20,,,,,,,,,2.53,2.37,0.89*04

$GPGGA,092041.000,5131.8235,N,00003.6083,W,1,04,2.37,50.8,M,47.0,M,,*48

$GPGSA,A,3,06,07,17,20,,,,,,,,,2.53,2.37,0.89*04

$GPRMC,092044.000,A,5131.8237,N,00003.6082,W,0.20,35.42,151121,,,A*45

$GPVTG,35.42,T,,M,0.20,N,0.38,K,A*04

$GPGGA,092048.000,5131.8239,N,00003.6080,W,1,04,2.37,50.8,M,47.0,M,,*4E

$GPGSA,A,3,06,07,17,20,,,,,,,,,2.53,2.37,0.89*04

$GPVTG,33.37,T,,M,0.20,N,0.37,K,A*0F

$GPGGA,092052.000,5131.8241,N,00003.6078,W,1,04,2.37,50.7,M,47.0,M,,*42

$GPRMC,092055.000,A,5131.8241,N,00003.6076,W,0.18,59.77,151121,,,A*48

$GPVTG,59.77,T,,M,0.18,N,0.34,K,A*0F

$GPGSV,3,3,09,01,02,146,*40

$GPRMC,092058.000,A,5131.8243,N,00003.6073,W,0.34,44.36,151121,,,A*45

$GPVTG,23.71,T,,M,0.39,N,0.73,K,A*04

$GPGGA,092102.000,5131.8247,N,00003.6070,W,1,04,2.37,50.7,M,47.0,M,,*48

$GPVTG,34.74,T,,M,0.34,N,0.63,K,A*0B

$GPGGA,092106.000,5131.8250,N,00003.6067,W,1,04,2.38,50.7,M,47.0,M,,*43

$GPVTG,66.09,T,,M,0.40,N,0.74,K,A*03

$GPGGA,092109.000,5131.8251,N,00003.6063,W,1,04,2.38,50.7,M,47.0,M,,*49

$GPRMC,092112.000,A,5131.8253,N,00003.6059,W,0.32,40.20,151121,,,A*46

$GPVTG,40.20,T,,M,0.32,N,0.60,K,A*0C

$GPGGA,092116.000,5131.8256,N,00003.6056,W,1,04,2.38,50.7,M,47.0,M,,*46

$GPGSA,A,3,06,07,17,20,,,,,,,,,2.54,2.38,0.89*0C

$GPGSA,A,3,06,07,17,20,,,,,,,,,2.54,2.38,0.89*0C

$GPRMC,092119.000,A,5131.8257,N,00003.6054,W,0.22,27.54,151121,,,A*47

$GPVTG,50.66,T,,M,0.14,N,0.27,K,A*08

$GPGGA,092123.000,5131.8258,N,00003.6051,W,1,04,2.38,50.6,M,47.0,M,,*48

$GPGGA,092127.000,5131.8258,N,00003.6051,W,1,04,2.38,50.6,M,47.0,M,,*4C

$GPGSA,A,3,06,07,17,20,,,,,,,,,2.54,2.38,0.89*0C

$GPGGA,092131.000,5131.8258,N,00003.6054,W,1,04,2.38,50.6,M,47.0,M,,*4E

$GPGSA,A,3,06,07,17,20,,,,,,,,,2.54,2.38,0.89*0C

$GPGSA,A,3,06,07,17,20,,,,,,,,,2.54,2.38,0.89*0C

$GPRMC,092134.000,A,5131.8258,N,00003.6055,W,0.08,309.47,151121,,,A*73

$GPVTG,292.35,T,,M,0.14,N,0.26,K,A*33

$GPGGA,092138.000,5131.8258,N,00003.6058,W,1,04,2.38,50.6,M,47.0,M,,*4B

$GPGGA,092142.000,5131.8257,N,00003.6062,W,1,04,2.38,50.6,M,47.0,M,,*40

$GPGSA,A,3,06,07,17,20,,,,,,,,,2.54,2.38,0.89*0C

$GPGGA,092146.000,5131.8254,N,00003.6068,W,1,04,2.38,50.6,M,47.0,M,,*4D

$GPGSA,A,3,06,07,17,20,,,,,,,,,2.54,2.38,0.89*0C

$GPGSA,A,3,06,07,17,20,,,,,,,,,2.54,2.38,0.89*0C

$GPRMC,092149.000,A,5131.8260,N,00003.6059,W,0.40,229.43,151121,,,A*75

$GPVTG,281.61,T,,M,0.08,N,0.15,K,A*3D

$GPGGA,092153.000,5131.8270,N,00003.6046,W,1,04,2.38,50.1,M,47.0,M,,*44

$GPGGA,092157.000,5131.8270,N,00003.6047,W,1,04,2.38,50.1,M,47.0,M,,*41

$GPGSA,A,3,06,07,17,20,,,,,,,,,2.54,2.38,0.89*0C

$GPGGA,092201.000,5131.8268,N,00003.6049,W,1,04,2.38,50.1,M,47.0,M,,*46

$GPGSA,A,3,06,07,17,20,,,,,,,,,2.54,2.38,0.89*0C

$GPGSA,A,3,06,07,17,20,,,,,,,,,2.54,2.38,0.89*0C

$GPRMC,092204.000,A,5131.8268,N,00003.6054,W,0.27,215.85,151121,,,A*7E

$GPVTG,12.50,T,,M,0.06,N,0.10,K,A*0C

$GPGGA,092208.000,5131.8267,N,00003.6055,W,1,04,2.79,50.1,M,47.0,M,,*48

$GPGGA,092212.000,5131.8268,N,00003.6057,W,1,04,2.38,50.1,M,47.0,M,,*4B

$GPGSA,A,3,06,07,17,20,,,,,,,,,2.54,2.38,0.89*0C

$GPGGA,092216.000,5131.8265,N,00003.6062,W,1,04,2.38,50.1,M,47.0,M,,*44

$GPGSA,A,3,06,07,17,20,,,,,,,,,2.54,2.38,0.89*0C

$GPGSA,A,3,06,07,17,20,,,,,,,,,2.54,2.38,0.89*0C

$GPRMC,092219.000,A,5131.8254,N,00003.6080,W,0.74,233.70,151121,,,A*7C

$GPVTG,231.56,T,,M,0.92,N,1.71,K,A*32

$GPGGA,092223.000,5131.8226,N,00003.6130,W,1,04,2.38,49.2,M,47.0,M,,*48

$GPGGA,092227.000,5131.8201,N,00003.6172,W,1,04,2.38,48.7,M,47.0,M,,*4B

$GPGSA,A,3,06,07,17,20,,,,,,,,,2.54,2.38,0.89*0C

$GPVTG,227.11,T,,M,1.01,N,1.86,K,A*35

$GPGGA,092231.000,5131.8185,N,00003.6199,W,1,04,2.38,48.1,M,47.0,M,,*40

$GPGGA,092234.000,5131.8176,N,00003.6213,W,1,04,2.38,47.6,M,47.0,M,,*40

$GPGSA,A,3,06,07,17,20,,,,,,,,,2.55,2.38,0.89*0D

$GPGGA,092238.000,5131.8170,N,00003.6221,W,1,04,2.38,46.9,M,47.0,M,,*45

$GPGSA,A,3,06,07,17,20,,,,,,,,,2.54,2.38,0.89*0C

$GPGGA,092242.000,5131.8172,N,00003.6222,W,1,04,2.39,46.3,M,47.0,M,,*42

$GPGSA,A,3,06,07,17,20,,,,,,,,,2.55,2.39,0.89*0C

$GPGGA,092246.000,5131.8178,N,00003.6212,W,1,04,2.38,45.7,M,47.0,M,,*49

$GPGSA,A,3,06,07,17,20,,,,,,,,,2.55,2.38,0.89*0D

$GPGGA,092249.000,5131.8182,N,00003.6204,W,1,04,2.39,45.4,M,47.0,M,,*46

$GPGSA,A,3,06,07,17,20,,,,,,,,,2.55,2.39,0.89*0C

$GPGGA,092253.000,5131.8181,N,00003.6207,W,1,04,2.38,45.4,M,47.0,M,,*4C

$GPGSA,A,3,06,07,17,20,,,,,,,,,2.55,2.38,0.89*0D

$GPGGA,092257.000,5131.8181,N,00003.6210,W,1,04,2.39,45.4,M,47.0,M,,*4F

$GPGSA,A,3,06,07,17,20,,,,,,,,,2.55,2.39,0.89*0C

$GPGGA,092301.000,5131.8184,N,00003.6212,W,1,05,2.29,45.3,M,47.0,M,,*4D

$GPGSA,A,3,06,07,17,20,09,,,,,,,,2.45,2.29,0.86*0A

$GPGGA,092305.000,5131.8197,N,00003.6168,W,1,05,2.29,44.3,M,47.0,M,,*44

$GPGSA,A,3,06,07,17,20,09,,,,,,,,2.45,2.29,0.86*0A

$GPGSV,4,3,13,07,11,168,30,17,11,213,21,20,05,285,32,26,02,055,*7D

$GPGSV,4,4,13,01,01,147,*49

$GPGGA,092312.000,5131.8205,N,00003.6160,W,1,05,2.29,44.0,M,47.0,M,,*41

$GPGSA,A,3,06,07,17,20,09,,,,,,,,2.45,2.29,0.86*0A

$GPGGA,092316.000,5131.8214,N,00003.6146,W,1,05,2.29,43.3,M,47.0,M,,*45

$GPGSA,A,3,06,07,17,20,09,,,,,,,,2.45,2.29,0.86*0A

$GPGGA,092319.000,5131.8220,N,00003.6136,W,1,05,2.30,43.0,M,47.0,M,,*41

$GPGSA,A,3,06,07,17,20,09,,,,,,,,2.45,2.30,0.86*02

$GPGGA,092323.000,5131.8219,N,00003.6139,W,1,05,2.29,42.6,M,47.0,M,,*42

$GPGSA,A,3,06,07,17,20,09,,,,,,,,2.45,2.29,0.86*0A

$GPGGA,092327.000,5131.8208,N,00003.6154,W,1,05,2.29,42.2,M,47.0,M,,*49

$GPGSA,A,3,06,07,17,20,09,,,,,,,,2.45,2.29,0.86*0A

$GPGGA,092331.000,5131.8198,N,00003.6168,W,1,05,2.81,41.9,M,47.0,M,,*41

$GPGSA,A,3,06,07,17,20,09,,,,,,,,3.27,2.81,1.67*03

$GPGGA,092334.000,5131.8198,N,00003.6171,W,1,05,2.29,41.9,M,47.0,M,,*4E

$GPGSA,A,3,06,07,17,20,09,,,,,,,,2.45,2.29,0.86*0A

$GPGGA,092338.000,5131.8199,N,00003.6174,W,1,05,2.29,41.8,M,47.0,M,,*47

$GPGSA,A,3,06,07,17,20,09,,,,,,,,2.45,2.29,0.86*0A

$GPGGA,092342.000,5131.8199,N,00003.6173,W,1,05,2.29,41.8,M,47.0,M,,*4D

$GPGSA,A,3,06,07,17,20,09,,,,,,,,2.45,2.29,0.86*0A

$GPGGA,092346.000,5131.8200,N,00003.6173,W,1,05,2.30,41.8,M,47.0,M,,*42

$GPGSA,A,3,06,07,17,20,09,,,,,,,,2.45,2.30,0.86*02

$GPGSA,A,3,06,07,17,20,09,,,,,,,,2.45,2.29,0.86*0A

$GPRMC,092349.000,A,5131.8200,N,00003.6174,W,0.18,309.74,151121,,,A*75

$GPVTG,255.69,T,,M,0.31,N,0.58,K,A*3F

$GPGGA,092353.000,5131.8200,N,00003.6178,W,1,05,2.29,41.8,M,47.0,M,,*45

$GPVTG,232.85,T,,M,0.55,N,1.03,K,A*31

$GPGGA,092357.000,5131.8197,N,00003.6185,W,1,05,2.29,41.8,M,47.0,M,,*4E

$GPVTG,217.81,T,,M,0.71,N,1.32,K,A*36

$GPGGA,092401.000,5131.8186,N,00003.6200,W,1,05,2.29,41.8,M,47.0,M,,*44

$GPVTG,212.85,T,,M,0.70,N,1.29,K,A*3C

$GPGGA,092404.000,5131.8174,N,00003.6216,W,1,05,2.29,41.9,M,47.0,M,,*4A

$GPVTG,222.88,T,,M,0.73,N,1.35,K,A*3C

$GPGGA,092408.000,5131.8165,N,00003.6226,W,1,05,2.29,41.9,M,47.0,M,,*45

$GPRMC,092411.000,A,5131.8161,N,00003.6234,W,0.64,229.69,151121,,,A*78

$GPVTG,229.69,T,,M,0.64,N,1.18,K,A*31

$GPRMC,092414.000,A,5131.8180,N,00003.6206,W,0.32,256.32,151121,,,A*76

$GPVTG,256.32,T,,M,0.32,N,0.59,K,A*30

$GPGGA,092418.000,5131.8167,N,00003.6228,W,1,05,2.29,41.6,M,47.0,M,,*47

$GPGSA,A,3,06,07,17,20,09,,,,,,,,2.45,2.29,0.86*0A

$GPGGA,092422.000,5131.8119,N,00003.6307,W,1,05,2.29,41.8,M,47.0,M,,*45

$GPGSA,A,3,06,07,17,20,09,,,,,,,,2.45,2.29,0.86*0A

$GPGGA,092426.000,5131.8086,N,00003.6361,W,1,05,2.29,41.9,M,47.0,M,,*47

$GPGSA,A,3,06,07,17,20,09,,,,,,,,2.45,2.29,0.86*0A

$GPGGA,092429.000,5131.8078,N,00003.6371,W,1,05,2.29,41.9,M,47.0,M,,*48

$GPGSA,A,3,06,07,17,20,09,,,,,,,,2.45,2.29,0.86*0A

$GPGGA,092433.000,5131.8105,N,00003.6329,W,1,05,2.29,41.6,M,47.0,M,,*4A

$GPGSA,A,3,06,07,17,20,09,,,,,,,,2.45,2.29,0.86*0A

$GPGGA,092437.000,5131.8145,N,00003.6267,W,1,04,2.40,41.6,M,47.0,M,,*4F

$GPGSA,A,3,06,07,17,20,,,,,,,,,2.56,2.40,0.89*01

$GPGGA,092441.000,5131.8162,N,00003.6250,W,1,04,2.40,41.9,M,47.0,M,,*40

$GPGSA,A,3,06,07,17,20,,,,,,,,,2.56,2.40,0.89*01

$GPGGA,092444.000,5131.8197,N,00003.6186,W,1,04,2.40,41.7,M,47.0,M,,*49

$GPGSA,A,3,06,07,17,20,,,,,,,,,2.56,2.40,0.89*01

$GPGGA,092448.000,5131.8235,N,00003.6122,W,1,04,2.40,41.6,M,47.0,M,,*41

$GPGSA,A,3,06,07,17,20,,,,,,,,,2.56,2.40,0.89*01

$GPGGA,092452.000,5131.8261,N,00003.6075,W,1,05,2.29,41.4,M,47.0,M,,*44

$GPGSA,A,3,06,07,17,20,09,,,,,,,,2.45,2.29,0.86*0A

$GPGGA,092456.000,5131.8286,N,00003.6026,W,1,05,2.29,41.1,M,47.0,M,,*4A

$GPGSA,A,3,06,07,17,20,09,,,,,,,,2.45,2.29,0.86*0A

$GPVTG,46.30,T,,M,2.43,N,4.50,K,A*08

$GPGGA,092459.000,5131.8300,N,00003.6000,W,1,05,2.29,40.9,M,47.0,M,,*47

$GPVTG,49.71,T,,M,2.12,N,3.93,K,A*0E

$GPGGA,092503.000,5131.8299,N,00003.5994,W,1,05,2.29,40.6,M,47.0,M,,*40

$GPVTG,45.10,T,,M,1.81,N,3.36,K,A*03

$GPGGA,092507.000,5131.8288,N,00003.6015,W,1,05,2.29,40.4,M,47.0,M,,*45

$GPVTG,41.34,T,,M,1.09,N,2.01,K,A*04

$GPGGA,092511.000,5131.8261,N,00003.6059,W,1,05,2.29,40.2,M,47.0,M,,*4B

$GPRMC,092513.000,A,5131.8249,N,00003.6081,W,0.61,36.12,151121,,,A*4B

$GPVTG,36.12,T,,M,0.61,N,1.14,K,A*08

$GPGGA,092517.000,5131.8236,N,00003.6099,W,1,05,2.29,39.8,M,47.0,M,,*47

$GPGSA,A,3,06,07,17,20,09,,,,,,,,2.45,2.29,0.86*0A

$GPGGA,092521.000,5131.8237,N,00003.6097,W,1,05,2.29,39.8,M,47.0,M,,*4D

$GPGSA,A,3,06,07,17,20,09,,,,,,,,2.45,2.29,0.86*0A

$GPGSA,A,3,06,07,17,20,09,,,,,,,,2.45,2.29,0.86*0A

$GPRMC,092524.000,A,5131.8237,N,00003.6096,W,0.11,151.69,151121,,,A*7B

$GPVTG,207.15,T,,M,0.27,N,0.49,K,A*34

$GPGGA,092528.000,5131.8234,N,00003.6097,W,1,05,2.29,39.7,M,47.0,M,,*48

$GPRMC,092531.000,A,5131.8230,N,00003.6100,W,0.57,220.93,151121,,,A*74

$GPVTG,220.93,T,,M,0.57,N,1.05,K,A*31

$GPGSA,A,3,06,07,17,20,09,,,,,,,,2.45,2.29,0.86*0A

$GPRMC,092534.000,A,5131.8218,N,00003.6118,W,0.67,222.50,151121,,,A*7C

$GPVTG,221.09,T,,M,0.81,N,1.50,K,A*38

$GPGGA,092538.000,5131.8192,N,00003.6160,W,1,04,2.43,39.4,M,47.0,M,,*41

$GPRMC,092541.000,A,5131.8164,N,00003.6206,W,1.24,224.29,151121,,,A*74

$GPVTG,224.29,T,,M,1.24,N,2.30,K,A*34

$GPRMC,092544.000,A,5131.8149,N,00003.6230,W,1.23,227.61,151121,,,A*73

$GPVTG,227.61,T,,M,1.23,N,2.28,K,A*35

$GPGGA,092548.000,5131.8128,N,00003.6271,W,1,04,2.43,37.3,M,47.0,M,,*4D

$GPGSA,A,3,07,17,20,09,,,,,,,,,2.59,2.43,0.89*02

$GPGGA,092552.000,5131.8178,N,00003.6191,W,1,05,2.02,35.5,M,47.0,M,,*4E

$GPGSA,A,3,07,17,19,20,09,,,,,,,,2.20,2.02,0.86*0E

$GPGGA,092556.000,5131.8183,N,00003.6190,W,1,05,2.02,34.3,M,47.0,M,,*48

$GPGSA,A,3,07,17,19,20,09,,,,,,,,2.20,2.02,0.86*0E

$GPGGA,092559.000,5131.8181,N,00003.6194,W,1,05,2.02,34.3,M,47.0,M,,*41

$GPGSA,A,3,07,17,19,20,09,,,,,,,,2.20,2.02,0.86*0E

$GPGGA,092603.000,5131.8168,N,00003.6214,W,1,05,2.02,33.6,M,47.0,M,,*43

$GPGSA,A,3,07,17,19,20,09,,,,,,,,2.20,2.02,0.86*0E

$GPGGA,092607.000,5131.8160,N,00003.6229,W,1,05,2.02,32.2,M,47.0,M,,*44

$GPGSA,A,3,07,17,19,20,09,,,,,,,,2.20,2.02,0.86*0E

$GPGGA,092610.000,5131.8141,N,00003.6260,W,1,05,2.02,31.4,M,47.0,M,,*49

$GPGSA,A,3,07,17,19,20,09,,,,,,,,2.19,2.02,0.86*04

$GPGSV,4,3,13,22,12,102,,17,10,212,15,20,06,285,34,26,03,054,*74

$GPGSV,4,4,13,31,02,023,*4A

$GPGGA,092617.000,5131.8112,N,00003.6307,W,1,05,2.02,29.3,M,47.0,M,,*46

$GPGSA,A,3,07,17,19,20,09,,,,,,,,2.19,2.02,0.86*04

$GPGGA,092621.000,5131.8108,N,00003.6318,W,1,05,2.01,28.3,M,47.0,M,,*44

$GPGSA,A,3,07,17,19,20,09,,,,,,,,2.19,2.01,0.86*07

$GPGGA,092624.000,5131.8105,N,00003.6325,W,1,04,2.47,27.7,M,47.0,M,,*4A

$GPGSA,A,3,07,19,20,09,,,,,,,,,2.61,2.47,0.86*0C

$GPGGA,092628.000,5131.8105,N,00003.6320,W,1,05,2.24,26.8,M,47.0,M,,*49

$GPGSA,A,3,06,07,19,20,09,,,,,,,,2.39,2.24,0.84*00

$GPGGA,092632.000,5131.8101,N,00003.6320,W,1,05,2.24,26.0,M,47.0,M,,*4E

$GPGSA,A,3,06,07,19,20,09,,,,,,,,2.39,2.24,0.84*00

$GPGGA,092636.000,5131.8108,N,00003.6308,W,1,05,2.24,25.5,M,47.0,M,,*4F

$GPGSA,A,3,06,07,19,20,09,,,,,,,,2.39,2.24,0.84*00

$GPGGA,092639.000,5131.8108,N,00003.6307,W,1,05,2.24,25.5,M,47.0,M,,*4F

$GPGSA,A,3,06,07,19,20,09,,,,,,,,2.39,2.24,0.84*00

$GPGGA,092643.000,5131.8110,N,00003.6304,W,1,05,2.24,25.5,M,47.0,M,,*48

$GPGSA,A,3,06,07,19,20,09,,,,,,,,2.39,2.24,0.84*00

$GPGGA,092647.000,5131.8111,N,00003.6302,W,1,05,2.51,25.5,M,47.0,M,,*49

$GPGSA,A,3,06,07,19,20,09,,,,,,,,2.95,2.51,1.55*09

$GPGGA,092651.000,5131.8111,N,00003.6300,W,1,05,2.24,25.5,M,47.0,M,,*4E

$GPGSA,A,3,06,07,19,20,09,,,,,,,,2.39,2.24,0.84*00

$GPVTG,71.29,T,,M,0.14,N,0.25,K,A*02

$GPGGA,092654.000,5131.8112,N,00003.6298,W,1,06,1.87,25.4,M,47.0,M,,*40

$GPGGA,092658.000,5131.8112,N,00003.6295,W,1,06,1.87,25.4,M,47.0,M,,*41

$GPGSA,A,3,06,07,19,20,09,17,,,,,,,2.05,1.87,0.84*03

$GPGGA,092702.000,5131.8114,N,00003.6294,W,1,06,2.16,25.4,M,47.0,M,,*43

$GPGSA,A,3,06,07,19,20,09,17,,,,,,,2.66,2.16,1.55*00

$GPVTG,5.77,T,,M,0.28,N,0.52,K,A*35

$GPGGA,092706.000,5131.8116,N,00003.6294,W,1,06,2.17,25.4,M,47.0,M,,*44

$GPVTG,47.20,T,,M,0.28,N,0.51,K,A*02

$GPGGA,092709.000,5131.8118,N,00003.6291,W,1,06,1.87,25.4,M,47.0,M,,*4A

$GPGGA,092713.000,5131.8123,N,00003.6286,W,1,06,1.87,25.4,M,47.0,M,,*4F

$GPGSA,A,3,06,07,19,20,09,17,,,,,,,2.05,1.87,0.84*03

$GPGGA,092717.000,5131.8127,N,00003.6279,W,1,06,1.87,25.4,M,47.0,M,,*4F

$GPGSA,A,3,06,07,19,20,09,17,,,,,,,2.05,1.87,0.84*03

$GPRMC,092720.000,A,5131.8150,N,00003.6246,W,0.73,37.49,151121,,,A*47

$GPVTG,37.49,T,,M,0.73,N,1.36,K,A*04

$GPGSV,4,3,13,17,10,212,15,20,06,285,35,26,03,054,,31,02,023,*74

$GPGSV,4,4,13,43,,,*7C

$GPGGA,092727.000,5131.8191,N,00003.6186,W,1,07,1.64,25.1,M,47.0,M,,*4B

$GPGSA,A,3,06,07,19,20,09,17,02,,,,,,1.83,1.64,0.82*07

$GPGGA,092731.000,5131.8210,N,00003.6150,W,1,07,1.64,25.1,M,47.0,M,,*4D

$GPGSA,A,3,06,07,19,20,09,17,02,,,,,,1.83,1.64,0.82*07

$GPGGA,092734.000,5131.8221,N,00003.6131,W,1,07,1.64,25.1,M,47.0,M,,*4D

$GPGSA,A,3,06,07,19,20,09,17,02,,,,,,1.83,1.64,0.82*07

$GPGGA,092738.000,5131.8234,N,00003.6109,W,1,07,1.64,25.1,M,47.0,M,,*4E

$GPGSA,A,3,06,07,19,20,09,17,02,,,,,,1.83,1.64,0.82*07

$GPGGA,092741.000,5131.8241,N,00003.6091,W,1,07,1.64,25.2,M,47.0,M,,*41

$GPGSA,A,3,06,07,19,20,09,17,02,,,,,,1.83,1.64,0.82*07

$GPVTG,68.30,T,,M,0.71,N,1.32,K,A*06

$GPGGA,092744.000,5131.8245,N,00003.6077,W,1,07,1.64,25.2,M,47.0,M,,*48

$GPVTG,62.67,T,,M,0.47,N,0.88,K,A*0B

$GPGGA,092748.000,5131.8250,N,00003.6067,W,1,07,1.64,25.3,M,47.0,M,,*40

$GPVTG,58.03,T,,M,0.38,N,0.71,K,A*0E

$GPGGA,092752.000,5131.8253,N,00003.6061,W,1,07,1.64,25.3,M,47.0,M,,*4E

$GPGGA,092756.000,5131.8254,N,00003.6059,W,1,07,1.64,25.3,M,47.0,M,,*46

$GPGSA,A,3,06,07,19,20,09,17,02,,,,,,1.83,1.64,0.82*07

$GPGGA,092759.000,5131.8254,N,00003.6058,W,1,07,1.64,25.3,M,47.0,M,,*48

$GPGSA,A,3,06,07,19,20,09,17,02,,,,,,1.83,1.64,0.82*07

$GPGGA,092803.000,5131.8252,N,00003.6058,W,1,07,1.64,25.3,M,47.0,M,,*4E

$GPGSA,A,3,06,07,19,20,09,17,02,,,,,,1.83,1.64,0.82*07

$GPGGA,092807.000,5131.8251,N,00003.6063,W,1,07,1.64,25.2,M,47.0,M,,*40

$GPGSA,A,3,06,07,19,20,09,17,02,,,,,,1.83,1.64,0.82*07

$GPGGA,092811.000,5131.8249,N,00003.6069,W,1,07,1.64,25.2,M,47.0,M,,*44

$GPGSA,A,3,06,07,19,20,09,17,02,,,,,,1.83,1.64,0.82*07

$GPGGA,092814.000,5131.8249,N,00003.6074,W,1,07,1.64,25.2,M,47.0,M,,*4D

$GPGSA,A,3,06,07,19,20,09,17,02,,,,,,1.83,1.64,0.82*07

$GPGGA,092818.000,5131.8248,N,00003.6079,W,1,07,1.64,25.1,M,47.0,M,,*4E

$GPGSA,A,3,06,07,19,20,09,17,02,,,,,,1.83,1.64,0.82*07

$GPGGA,092822.000,5131.8247,N,00003.6086,W,1,07,1.64,25.1,M,47.0,M,,*48

$GPGSA,A,3,06,07,19,20,09,17,02,,,,,,1.83,1.64,0.82*07

$GPGGA,092826.000,5131.8247,N,00003.6091,W,1,07,1.64,25.1,M,47.0,M,,*4A

$GPGSA,A,3,06,07,19,20,09,17,02,,,,,,1.83,1.64,0.82*07

$GPVTG,266.48,T,,M,0.39,N,0.72,K,A*3C

$GPGGA,092829.000,5131.8247,N,00003.6096,W,1,07,1.64,25.0,M,47.0,M,,*43

$GPVTG,253.61,T,,M,0.21,N,0.40,K,A*39

$GPGGA,092833.000,5131.8246,N,00003.6100,W,1,07,1.64,25.0,M,47.0,M,,*47

$GPVTG,293.20,T,,M,0.13,N,0.24,K,A*33

$GPGGA,092837.000,5131.8245,N,00003.6102,W,1,07,1.64,25.0,M,47.0,M,,*42

$GPGGA,092841.000,5131.8243,N,00003.6103,W,1,07,1.64,25.0,M,47.0,M,,*44

$GPGSA,A,3,06,07,19,20,09,17,02,,,,,,1.83,1.64,0.82*07

$GPGGA,092844.000,5131.8243,N,00003.6104,W,1,07,1.64,25.0,M,47.0,M,,*46

$GPGSA,A,3,06,07,19,20,09,17,02,,,,,,1.83,1.64,0.82*07

$GPGGA,092848.000,5131.8243,N,00003.6101,W,1,07,1.64,24.8,M,47.0,M,,*46

$GPGSA,A,3,06,07,19,20,09,17,02,,,,,,1.83,1.64,0.82*07

$GPGGA,092852.000,5131.8244,N,00003.6100,W,1,07,1.64,24.8,M,47.0,M,,*4B

$GPGSA,A,3,06,07,19,20,09,17,02,,,,,,1.83,1.64,0.82*07

$GPVTG,183.50,T,,M,0.10,N,0.19,K,A*3B

$GPGGA,092856.000,5131.8241,N,00003.6108,W,1,07,1.64,24.2,M,47.0,M,,*48

$GPRMC,092858.000,A,5131.8241,N,00003.6106,W,0.05,339.97,151121,,,A*7C

$GPVTG,339.97,T,,M,0.05,N,0.08,K,A*37

$GPGGA,092902.000,5131.8242,N,00003.6105,W,1,07,1.64,24.0,M,47.0,M,,*44

$GPGSA,A,3,06,07,19,20,09,17,02,,,,,,1.83,1.64,0.82*07

$GPGGA,092906.000,5131.8243,N,00003.6103,W,1,07,1.64,24.0,M,47.0,M,,*47

$GPGSA,A,3,06,07,19,20,09,17,02,,,,,,1.83,1.64,0.82*07

$GPGGA,092909.000,5131.8244,N,00003.6100,W,1,07,1.64,24.0,M,47.0,M,,*4C

$GPGSA,A,3,06,07,19,20,09,17,02,,,,,,1.83,1.64,0.82*07

$GPGGA,092913.000,5131.8245,N,00003.6097,W,1,07,1.64,24.0,M,47.0,M,,*49

$GPGSA,A,3,06,07,19,20,09,17,02,,,,,,1.83,1.64,0.82*07

$GPVTG,71.67,T,,M,0.14,N,0.26,K,A*0B

$GPGGA,092917.000,5131.8246,N,00003.6095,W,1,07,1.64,24.0,M,47.0,M,,*4C

$GPVTG,265.15,T,,M,0.18,N,0.33,K,A*31

$GPGGA,092921.000,5131.8246,N,00003.6095,W,1,07,1.64,24.0,M,47.0,M,,*49

$GPRMC,092923.000,A,5131.8245,N,00003.6096,W,0.14,29.60,151121,,,A*47

$GPVTG,29.60,T,,M,0.14,N,0.26,K,A*01

$GPGGA,092927.000,5131.8247,N,00003.6094,W,1,07,1.64,24.0,M,47.0,M,,*4F

$GPGSA,A,3,06,07,19,20,09,17,02,,,,,,1.83,1.64,0.83*06

$GPGGA,092931.000,5131.8248,N,00003.6089,W,1,07,1.64,24.0,M,47.0,M,,*4B

$GPGSA,A,3,06,07,19,20,09,17,02,,,,,,1.83,1.64,0.83*06

$GPGGA,092934.000,5131.8249,N,00003.6087,W,1,07,1.64,24.0,M,47.0,M,,*41

$GPGSA,A,3,06,07,19,20,09,17,02,,,,,,1.83,1.64,0.83*06

$GPGGA,092938.000,5131.8249,N,00003.6083,W,1,07,1.64,24.0,M,47.0,M,,*49

$GPGSA,A,3,06,07,19,20,09,17,02,,,,,,1.83,1.64,0.83*06

$GPGGA,092942.000,5131.8250,N,00003.6079,W,1,07,1.64,23.9,M,47.0,M,,*47

$GPGSA,A,3,06,07,19,20,09,17,02,,,,,,1.83,1.64,0.83*06

$GPGGA,092946.000,5131.8251,N,00003.6077,W,1,07,1.64,23.9,M,47.0,M,,*4C

$GPGSA,A,3,06,07,19,20,09,17,02,,,,,,1.83,1.64,0.83*06

$GPGGA,092949.000,5131.8253,N,00003.6075,W,1,07,1.64,23.9,M,47.0,M,,*43

$GPGSA,A,3,06,07,19,20,09,17,02,,,,,,1.83,1.64,0.83*06

$GPGGA,092953.000,5131.8256,N,00003.6069,W,1,07,1.64,23.9,M,47.0,M,,*40

$GPGSA,A,3,06,07,19,20,09,17,02,,,,,,1.83,1.64,0.83*06

$GPGGA,092957.000,5131.8257,N,00003.6066,W,1,07,1.64,23.9,M,47.0,M,,*4A

$GPGSA,A,3,06,07,19,20,09,17,02,,,,,,1.83,1.64,0.83*06

$GPGGA,093001.000,5131.8258,N,00003.6062,W,1,07,1.64,23.9,M,47.0,M,,*4A

$GPGSA,A,3,06,07,19,20,09,17,02,,,,,,1.83,1.64,0.83*06

$GPGSA,A,3,06,07,19,20,09,17,02,,,,,,1.83,1.64,0.83*06

$GPRMC,093004.000,A,5131.8259,N,00003.6060,W,0.17,12.48,151121,,,A*4F

$GPVTG,60.98,T,,M,0.27,N,0.50,K,A*0A

$GPGGA,093008.000,5131.8261,N,00003.6058,W,1,07,1.64,23.8,M,47.0,M,,*41

$GPRMC,093011.000,A,5131.8261,N,00003.6055,W,0.21,73.76,151121,,,A*49

$GPVTG,73.76,T,,M,0.21,N,0.39,K,A*01

$GPRMC,093014.000,A,5131.8262,N,00003.6052,W,0.23,85.93,151121,,,A*48

$GPVTG,85.93,T,,M,0.23,N,0.43,K,A*0C

$GPGGA,093018.000,5131.8261,N,00003.6048,W,1,07,1.64,23.8,M,47.0,M,,*41

$GPGSA,A,3,06,07,19,20,09,17,02,,,,,,1.83,1.64,0.83*06

$GPGGA,093022.000,5131.8261,N,00003.6044,W,1,07,1.64,23.8,M,47.0,M,,*44

$GPGSA,A,3,06,07,19,20,09,17,02,,,,,,1.83,1.64,0.83*06

$GPGGA,093026.000,5131.8261,N,00003.6040,W,1,07,1.64,23.8,M,47.0,M,,*44

$GPGSA,A,3,06,07,19,20,09,17,02,,,,,,1.83,1.64,0.83*06

$GPGGA,093029.000,5131.8262,N,00003.6036,W,1,07,1.64,23.8,M,47.0,M,,*49

$GPGSA,A,3,06,07,19,20,09,17,02,,,,,,1.83,1.64,0.83*06

$GPGGA,093033.000,5131.8264,N,00003.6035,W,1,07,1.64,23.8,M,47.0,M,,*47

$GPGSA,A,3,06,07,19,20,09,17,02,,,,,,1.83,1.64,0.83*06

$GPVTG,273.52,T,,M,0.05,N,0.09,K,A*30

$GPGGA,093037.000,5131.8264,N,00003.6035,W,1,07,1.64,23.8,M,47.0,M,,*43

$GPGGA,093041.000,5131.8264,N,00003.6035,W,1,07,1.64,23.8,M,47.0,M,,*42

$GPGSA,A,3,06,07,19,20,09,17,02,,,,,,1.83,1.64,0.83*06

$GPVTG,18.46,T,,M,0.06,N,0.11,K,A*00

$GPGGA,093044.000,5131.8265,N,00003.6034,W,1,07,1.64,23.8,M,47.0,M,,*47

$GPGGA,093048.000,5131.8263,N,00003.6037,W,1,07,1.64,23.6,M,47.0,M,,*40

$GPGSA,A,3,06,07,19,20,09,17,02,,,,,,1.83,1.64,0.83*06

$GPGGA,093052.000,5131.8260,N,00003.6050,W,1,07,1.64,23.5,M,47.0,M,,*4A

$GPGSA,A,3,06,07,19,20,09,17,02,,,,,,1.83,1.64,0.83*06

$GPGGA,093056.000,5131.8260,N,00003.6053,W,1,06,1.86,23.5,M,47.0,M,,*40

$GPGSA,A,3,06,07,19,20,09,02,,,,,,,2.03,1.86,0.83*07

$GPGSA,A,3,06,07,19,20,09,02,,,,,,,2.03,1.86,0.83*07

$GPRMC,093059.000,A,5131.8260,N,00003.6055,W,0.26,264.31,151121,,,A*74

$GPVTG,229.33,T,,M,0.47,N,0.86,K,A*39

$GPGGA,093103.000,5131.8258,N,00003.6060,W,1,06,1.86,23.5,M,47.0,M,,*4A

$GPRMC,093106.000,A,5131.8256,N,00003.6063,W,0.29,264.10,151121,,,A*73

$GPVTG,264.10,T,,M,0.29,N,0.54,K,A*36

$GPGGA,093109.000,5131.8256,N,00003.6065,W,1,06,1.85,23.5,M,47.0,M,,*48

$GPGSA,A,3,06,07,19,20,09,02,,,,,,,2.03,1.85,0.83*04

$GPGGA,093113.000,5131.8255,N,00003.6068,W,1,06,1.85,23.5,M,47.0,M,,*4D

$GPGSA,A,3,06,07,19,20,09,02,,,,,,,2.03,1.85,0.83*04

$GPGGA,093117.000,5131.8254,N,00003.6071,W,1,06,1.85,23.5,M,47.0,M,,*40

$GPGSA,A,3,06,07,19,20,09,02,,,,,,,2.03,1.85,0.83*04

$GPGGA,093121.000,5131.8254,N,00003.6076,W,1,06,1.85,23.5,M,47.0,M,,*42

$GPGSA,A,3,06,07,19,20,09,02,,,,,,,2.03,1.85,0.83*04

$GPGGA,093124.000,5131.8254,N,00003.6079,W,1,06,1.85,23.5,M,47.0,M,,*48

$GPGSA,A,3,06,07,19,20,09,02,,,,,,,2.03,1.85,0.83*04

$GPGGA,093128.000,5131.8254,N,00003.6080,W,1,06,1.85,23.5,M,47.0,M,,*42

$GPGSA,A,3,06,07,19,20,09,02,,,,,,,2.03,1.85,0.83*04

$GPGGA,093132.000,5131.8255,N,00003.6077,W,1,06,1.85,23.4,M,47.0,M,,*41

$GPGSA,A,3,06,07,19,20,09,02,,,,,,,2.03,1.85,0.83*04

$GPGGA,093136.000,5131.8256,N,00003.6071,W,1,06,1.85,23.4,M,47.0,M,,*40

$GPGSA,A,3,06,07,19,20,09,02,,,,,,,2.03,1.85,0.83*04

$GPGGA,093139.000,5131.8256,N,00003.6064,W,1,06,1.85,23.4,M,47.0,M,,*4B

$GPGSA,A,3,06,07,19,20,09,02,,,,,,,2.03,1.85,0.83*04

$GPGGA,093143.000,5131.8255,N,00003.6060,W,1,06,1.85,23.4,M,47.0,M,,*41

$GPGSA,A,3,06,07,19,20,09,02,,,,,,,2.03,1.85,0.83*04

$GPGGA,093147.000,5131.8253,N,00003.6057,W,1,06,1.85,23.4,M,47.0,M,,*47

$GPGSA,A,3,06,07,19,20,09,02,,,,,,,2.03,1.85,0.83*04

$GPVTG,119.46,T,,M,0.10,N,0.19,K,A*3F

$GPGGA,093151.000,5131.8253,N,00003.6054,W,1,06,1.85,23.4,M,47.0,M,,*43

$GPGGA,093154.000,5131.8255,N,00003.6055,W,1,06,1.85,23.4,M,47.0,M,,*41

$GPGSA,A,3,06,07,19,20,09,02,,,,,,,2.03,1.85,0.83*04

$GPGGA,093158.000,5131.8256,N,00003.6058,W,1,06,1.85,23.4,M,47.0,M,,*43

$GPGSA,A,3,06,07,19,20,09,02,,,,,,,2.03,1.85,0.83*04

$GPGGA,093202.000,5131.8255,N,00003.6060,W,1,07,1.64,23.4,M,47.0,M,,*49

$GPGSA,A,3,06,07,17,19,20,09,02,,,,,,1.84,1.64,0.83*01

$GPGGA,093206.000,5131.8255,N,00003.6062,W,1,07,1.64,23.4,M,47.0,M,,*4F

$GPGSA,A,3,06,07,17,19,20,09,02,,,,,,1.84,1.64,0.83*01

$GPGSA,A,3,06,07,17,19,20,09,02,,,,,,1.84,1.64,0.83*01

$GPRMC,093209.000,A,5131.8254,N,00003.6064,W,0.29,207.92,151121,,,A*75

$GPVTG,239.89,T,,M,0.49,N,0.91,K,A*31

$GPGGA,093213.000,5131.8251,N,00003.6070,W,1,07,1.64,23.4,M,47.0,M,,*4C

$GPRMC,093216.000,A,5131.8250,N,00003.6072,W,0.19,239.79,151121,,,A*73

$GPVTG,239.79,T,,M,0.19,N,0.36,K,A*36

$GPRMC,093219.000,A,5131.8249,N,00003.6074,W,0.08,130.59,151121,,,A*7A

$GPVTG,130.59,T,,M,0.08,N,0.15,K,A*3F

$GPGGA,093223.000,5131.8248,N,00003.6072,W,1,06,1.85,23.4,M,47.0,M,,*4B

$GPGSA,A,3,06,07,19,20,09,02,,,,,,,2.03,1.85,0.83*04

$GPGGA,093227.000,5131.8248,N,00003.6073,W,1,06,1.85,23.4,M,47.0,M,,*4E

$GPGSA,A,3,06,07,19,20,09,02,,,,,,,2.03,1.85,0.83*04

$GPGGA,093231.000,5131.8248,N,00003.6072,W,1,06,1.85,23.4,M,47.0,M,,*48

$GPGSA,A,3,06,07,19,20,09,02,,,,,,,2.03,1.85,0.84*03

$GPGGA,093234.000,5131.8249,N,00003.6070,W,1,07,1.64,23.5,M,47.0,M,,*41

$GPGSA,A,3,06,07,17,19,20,09,02,,,,,,1.84,1.64,0.83*01

$GPGGA,093238.000,5131.8251,N,00003.6065,W,1,07,1.64,23.5,M,47.0,M,,*40

$GPGSA,A,3,06,07,17,19,20,09,02,,,,,,1.84,1.64,0.83*01

$GPGGA,093242.000,5131.8252,N,00003.6062,W,1,07,1.64,23.5,M,47.0,M,,*49

$GPGSA,A,3,06,07,17,19,20,09,02,,,,,,1.84,1.64,0.83*01

$GPGGA,093246.000,5131.8252,N,00003.6060,W,1,07,1.64,23.5,M,47.0,M,,*4F

$GPGSA,A,3,06,07,17,19,20,09,02,,,,,,1.84,1.64,0.83*01

$GPGSA,A,3,06,07,17,19,20,09,02,,,,,,1.84,1.64,0.83*01

$GPRMC,093249.000,A,5131.8251,N,00003.6059,W,0.13,169.09,151121,,,A*7A

$GPVTG,25.69,T,,M,0.10,N,0.18,K,A*0D

$GPGGA,093253.000,5131.8252,N,00003.6058,W,1,07,1.64,23.4,M,47.0,M,,*41

$GPGGA,093257.000,5131.8253,N,00003.6057,W,1,07,1.88,23.4,M,47.0,M,,*49

$GPGSA,A,3,06,07,17,19,20,09,02,,,,,,2.41,1.88,1.51*07

$GPGGA,093301.000,5131.8254,N,00003.6057,W,1,07,1.64,23.4,M,47.0,M,,*4E

$GPGSA,A,3,06,07,17,19,20,09,02,,,,,,1.84,1.64,0.83*01

$GPGSA,A,3,06,07,17,19,20,09,02,,,,,,1.84,1.64,0.83*01

$GPRMC,093304.000,A,5131.8255,N,00003.6055,W,0.14,117.29,151121,,,A*76

$GPVTG,306.17,T,,M,0.08,N,0.15,K,A*32

$GPGGA,093308.000,5131.8254,N,00003.6055,W,1,07,1.64,23.4,M,47.0,M,,*45

$GPGGA,093312.000,5131.8254,N,00003.6054,W,1,07,1.64,23.4,M,47.0,M,,*4F

$GPGSA,A,3,06,07,17,19,20,09,02,,,,,,1.84,1.64,0.84*06

$GPGGA,093316.000,5131.8255,N,00003.6050,W,1,07,1.64,23.4,M,47.0,M,,*4E

$GPGSA,A,3,06,07,17,19,20,09,02,,,,,,1.84,1.64,0.84*06

$GPGGA,093319.000,5131.8251,N,00003.6048,W,1,07,1.64,23.2,M,47.0,M,,*4A

$GPGSA,A,3,06,07,17,19,20,09,02,,,,,,1.84,1.64,0.84*06

$GPGGA,093323.000,5131.8247,N,00003.6049,W,1,07,1.64,23.1,M,47.0,M,,*46

$GPGSA,A,3,06,07,17,19,20,09,02,,,,,,1.84,1.64,0.84*06

$GPGGA,093327.000,5131.8248,N,00003.6048,W,1,07,1.88,23.1,M,47.0,M,,*4E

$GPGSA,A,3,06,07,17,19,20,09,02,,,,,,2.42,1.88,1.52*07

$GPGGA,093331.000,5131.8250,N,00003.6047,W,1,07,1.64,23.1,M,47.0,M,,*4D

$GPGSA,A,3,06,07,17,19,20,09,02,,,,,,1.84,1.64,0.84*06

$GPGSA,A,3,06,07,17,19,20,09,02,,,,,,1.84,1.64,0.84*06

$GPRMC,093334.000,A,5131.8257,N,00003.6043,W,0.41,21.38,151121,,,A*44

$GPVTG,48.89,T,,M,0.25,N,0.47,K,A*04

$GPGGA,093338.000,5131.8261,N,00003.6034,W,1,07,1.64,22.6,M,47.0,M,,*44

$GPGGA,093342.000,5131.8261,N,00003.6035,W,1,07,1.64,22.6,M,47.0,M,,*48

$GPGSA,A,3,06,07,17,19,20,09,02,,,,,,1.84,1.64,0.84*06

$GPGGA,093346.000,5131.8265,N,00003.6028,W,1,07,1.64,22.5,M,47.0,M,,*47

$GPGSA,A,3,06,07,17,19,20,09,02,,,,,,1.84,1.64,0.84*06

$GPGSA,A,3,06,07,17,19,20,09,02,,,,,,1.84,1.64,0.84*06

$GPRMC,093349.000,A,5131.8267,N,00003.6019,W,0.38,94.80,151121,,,A*41

$GPVTG,99.13,T,,M,0.37,N,0.68,K,A*05

$GPGGA,093353.000,5131.8269,N,00003.6010,W,1,07,1.64,22.4,M,47.0,M,,*45

$GPVTG,46.13,T,,M,0.29,N,0.54,K,A*07

$GPGGA,093357.000,5131.8270,N,00003.6006,W,1,07,1.64,22.4,M,47.0,M,,*4E

$GPGGA,093401.000,5131.8271,N,00003.6003,W,1,07,1.64,22.4,M,47.0,M,,*4E

$GPGSA,A,3,06,07,17,19,20,09,02,,,,,,1.84,1.64,0.84*06

$GPGSA,A,3,06,07,17,19,20,09,02,,,,,,1.84,1.64,0.84*06

$GPRMC,093404.000,A,5131.8272,N,00003.6002,W,0.09,244.97,151121,,,A*7A

$GPVTG,265.77,T,,M,0.09,N,0.17,K,A*33

$GPGGA,093408.000,5131.8271,N,00003.6004,W,1,07,1.64,22.4,M,47.0,M,,*40

$GPGGA,093412.000,5131.8273,N,00003.6006,W,1,06,1.85,22.4,M,47.0,M,,*45

$GPGSA,A,3,06,07,19,20,09,02,,,,,,,2.03,1.85,0.84*03

$GPGGA,093416.000,5131.8272,N,00003.6010,W,1,06,1.85,22.4,M,47.0,M,,*47

$GPGSA,A,3,06,07,19,20,09,02,,,,,,,2.03,1.85,0.84*03

$GPGSA,A,3,06,07,19,20,09,02,,,,,,,2.03,1.84,0.84*02

$GPRMC,093419.000,A,5131.8271,N,00003.6015,W,0.54,244.99,151121,,,A*75

$GPVTG,237.00,T,,M,0.75,N,1.39,K,A*32

$GPGGA,093423.000,5131.8264,N,00003.6035,W,1,06,1.85,21.8,M,47.0,M,,*4E

$GPGGA,093427.000,5131.8264,N,00003.6045,W,1,06,1.84,21.1,M,47.0,M,,*45

$GPGSA,A,3,06,07,19,20,09,02,,,,,,,2.03,1.84,0.84*02

$GPGGA,093431.000,5131.8263,N,00003.6051,W,1,06,1.84,21.1,M,47.0,M,,*40

$GPGSA,A,3,06,07,19,20,09,02,,,,,,,2.03,1.84,0.84*02

$GPGSA,A,3,06,07,19,20,09,02,,,,,,,2.03,1.84,0.84*02

$GPRMC,093434.000,A,5131.8263,N,00003.6054,W,0.28,264.03,151121,,,A*76

$GPVTG,257.30,T,,M,0.19,N,0.34,K,A*31

$GPGGA,093438.000,5131.8262,N,00003.6057,W,1,06,1.84,21.1,M,47.0,M,,*4E

$GPGGA,093442.000,5131.8260,N,00003.6063,W,1,06,1.84,21.1,M,47.0,M,,*46

$GPGSA,A,3,06,07,19,20,09,02,,,,,,,2.03,1.84,0.84*02

$GPGGA,093446.000,5131.8259,N,00003.6063,W,1,05,1.94,21.1,M,47.0,M,,*4A

$GPGSA,A,3,06,07,19,20,02,,,,,,,,2.13,1.94,0.88*07

$GPRMC,093449.000,A,5131.8260,N,00003.6061,W,0.30,62.45,151121,,,A*46

$GPVTG,62.45,T,,M,0.30,N,0.55,K,A*0B

$GPGGA,093453.000,5131.8261,N,00003.6056,W,1,05,1.94,21.0,M,47.0,M,,*42

$GPGSA,A,3,06,07,19,20,02,,,,,,,,2.13,1.94,0.88*07

$GPGGA,093457.000,5131.8261,N,00003.6052,W,1,05,1.94,21.0,M,47.0,M,,*42

$GPGSA,A,3,06,07,19,20,02,,,,,,,,2.13,1.94,0.88*07

$GPGGA,093501.000,5131.8262,N,00003.6049,W,1,05,1.94,21.0,M,47.0,M,,*49

$GPGSA,A,3,06,07,19,20,02,,,,,,,,2.13,1.94,0.88*07

$GPGSA,A,3,06,07,19,20,02,,,,,,,,2.13,1.94,0.88*07

$GPRMC,093504.000,A,5131.8263,N,00003.6047,W,0.18,32.95,151121,,,A*4B

$GPVTG,331.03,T,,M,0.17,N,0.32,K,A*38

$GPGGA,093508.000,5131.8265,N,00003.6047,W,1,05,1.94,21.0,M,47.0,M,,*49

$GPGGA,093512.000,5131.8267,N,00003.6047,W,1,06,1.84,20.9,M,47.0,M,,*4A

$GPGSA,A,3,06,07,19,20,09,02,,,,,,,2.03,1.84,0.84*02

$GPGGA,093516.000,5131.8269,N,00003.6046,W,1,06,1.84,20.9,M,47.0,M,,*41

$GPGSA,A,3,06,07,19,20,09,02,,,,,,,2.03,1.84,0.84*02

$GPRMC,093519.000,A,5131.8270,N,00003.6045,W,0.07,136.30,151121,,,A*73

$GPVTG,136.30,T,,M,0.07,N,0.12,K,A*3E

$GPGGA,093523.000,5131.8270,N,00003.6043,W,1,06,1.84,20.9,M,47.0,M,,*4A

$GPGSA,A,3,06,07,19,20,09,02,,,,,,,2.03,1.84,0.84*02

$GPGGA,093527.000,5131.8272,N,00003.6036,W,1,07,1.64,20.9,M,47.0,M,,*41

$GPGSA,A,3,06,07,19,20,09,17,02,,,,,,1.84,1.64,0.84*06

$GPGGA,093531.000,5131.8271,N,00003.6030,W,1,07,1.64,20.8,M,47.0,M,,*42

$GPGSA,A,3,06,07,19,20,09,17,02,,,,,,1.84,1.64,0.84*06

$GPGSA,A,3,06,07,19,20,09,17,02,,,,,,1.84,1.64,0.84*06

$GPRMC,093534.000,A,5131.8270,N,00003.6026,W,0.34,98.95,151121,,,A*43

$GPVTG,84.56,T,,M,0.07,N,0.13,K,A*07

$GPGGA,093538.000,5131.8270,N,00003.6023,W,1,07,1.64,20.8,M,47.0,M,,*48

$GPGGA,093542.000,5131.8271,N,00003.6023,W,1,07,1.91,20.8,M,47.0,M,,*4E

$GPGSA,A,3,06,07,19,20,09,17,02,,,,,,2.47,1.91,1.56*0E

$GPGGA,093546.000,5131.8271,N,00003.6029,W,1,07,1.64,20.7,M,47.0,M,,*45

$GPGSA,A,3,06,07,19,20,09,17,02,,,,,,1.84,1.64,0.84*06

$GPGSA,A,3,06,07,19,20,09,17,02,,,,,,1.84,1.64,0.84*06

$GPRMC,093549.000,A,5131.8269,N,00003.6033,W,0.33,247.36,151121,,,A*7B

$GPVTG,246.11,T,,M,0.37,N,0.68,K,A*37

$GPGGA,093553.000,5131.8268,N,00003.6039,W,1,07,1.64,20.7,M,47.0,M,,*48

$GPGGA,093557.000,5131.8268,N,00003.6043,W,1,07,1.64,20.7,M,47.0,M,,*41

$GPGSA,A,3,06,07,19,20,09,17,02,,,,,,1.84,1.64,0.84*06

$GPGGA,093601.000,5131.8270,N,00003.6044,W,1,07,1.92,20.6,M,47.0,M,,*47

$GPGSA,A,3,06,07,19,20,09,17,02,,,,,,2.48,1.92,1.56*02

$GPGSA,A,3,06,07,19,20,09,17,02,,,,,,1.84,1.64,0.84*06

$GPRMC,093604.000,A,5131.8271,N,00003.6043,W,0.09,68.50,151121,,,A*49

$GPVTG,32.95,T,,M,0.22,N,0.40,K,A*04

$GPGGA,093608.000,5131.8272,N,00003.6042,W,1,07,1.64,20.6,M,47.0,M,,*43

$GPVTG,62.14,T,,M,0.35,N,0.65,K,A*09

$GPGGA,093612.000,5131.8274,N,00003.6036,W,1,07,1.64,20.6,M,47.0,M,,*4D

$GPVTG,67.38,T,,M,0.41,N,0.76,K,A*03

$GPGGA,093616.000,5131.8277,N,00003.6029,W,1,07,1.64,20.6,M,47.0,M,,*44

$GPGGA,093619.000,5131.8279,N,00003.6025,W,1,07,1.64,20.6,M,47.0,M,,*49

$GPGSA,A,3,06,07,19,20,09,17,02,,,,,,1.84,1.64,0.84*06

$GPGGA,093623.000,5131.8280,N,00003.6024,W,1,07,1.64,20.6,M,47.0,M,,*47

$GPGSA,A,3,06,07,19,20,09,17,02,,,,,,1.84,1.64,0.84*06

$GPGGA,093627.000,5131.8282,N,00003.6024,W,1,07,1.93,20.6,M,47.0,M,,*49

$GPGSA,A,3,06,07,19,20,09,17,02,,,,,,2.49,1.93,1.57*03

$GPGGA,093631.000,5131.8284,N,00003.6025,W,1,07,1.64,20.6,M,47.0,M,,*41

$GPGSA,A,3,06,07,19,20,09,17,02,,,,,,1.84,1.64,0.84*06

$GPRMC,093634.000,A,5131.8286,N,00003.6026,W,0.30,4.14,151121,,,A*71

$GPVTG,4.14,T,,M,0.30,N,0.55,K,A*3F

$GPGGA,093638.000,5131.8289,N,00003.6025,W,1,07,1.93,20.6,M,47.0,M,,*4D

$GPGSA,A,3,06,07,19,20,09,17,02,,,,,,2.49,1.93,1.58*0C

$GPGGA,093642.000,5131.8290,N,00003.6025,W,1,07,1.64,20.6,M,47.0,M,,*40

$GPGSA,A,3,06,07,19,20,09,17,02,,,,,,1.84,1.64,0.84*06

$GPGGA,093646.000,5131.8291,N,00003.6022,W,1,07,1.64,20.4,M,47.0,M,,*40

$GPGSA,A,3,06,07,19,20,09,17,02,,,,,,1.84,1.64,0.84*06

$GPGSA,A,3,06,07,19,20,09,17,02,,,,,,1.84,1.64,0.84*06

$GPRMC,093649.000,A,5131.8290,N,00003.6019,W,0.31,68.41,151121,,,A*4B

$GPVTG,57.33,T,,M,0.26,N,0.48,K,A*07

$GPGGA,093653.000,5131.8288,N,00003.6019,W,1,07,1.64,20.2,M,47.0,M,,*42

$GPGGA,093657.000,5131.8284,N,00003.6013,W,1,07,1.64,20.1,M,47.0,M,,*43

$GPGSA,A,3,06,07,19,20,09,17,02,,,,,,1.84,1.64,0.84*06

$GPGGA,093701.000,5131.8283,N,00003.6007,W,1,07,1.64,20.0,M,47.0,M,,*42

$GPGSA,A,3,06,07,19,20,09,17,02,,,,,,1.84,1.64,0.85*07

$GPGSA,A,3,06,07,19,20,09,17,02,,,,,,1.84,1.64,0.85*07

$GPRMC,093704.000,A,5131.8284,N,00003.6003,W,0.27,135.17,151121,,,A*70

$GPVTG,72.05,T,,M,0.27,N,0.50,K,A*0D

$GPGGA,093708.000,5131.8284,N,00003.5998,W,1,07,1.64,19.7,M,47.0,M,,*4D

$GPGGA,093712.000,5131.8284,N,00003.5996,W,1,07,1.64,19.7,M,47.0,M,,*48

$GPGSA,A,3,06,07,19,20,09,17,02,,,,,,1.84,1.64,0.85*07

$GPGGA,093716.000,5131.8283,N,00003.5992,W,1,07,1.64,19.7,M,47.0,M,,*4F

$GPGSA,A,3,06,07,19,20,09,17,02,,,,,,1.84,1.64,0.85*07

$GPRMC,093719.000,A,5131.8282,N,00003.5991,W,0.17,131.63,151121,,,A*7F

$GPVTG,131.63,T,,M,0.17,N,0.32,K,A*3C

$GPGGA,093723.000,5131.8281,N,00003.5989,W,1,07,1.64,19.7,M,47.0,M,,*41

$GPGSA,A,3,06,07,19,20,09,17,02,,,,,,1.84,1.64,0.85*07

$GPGGA,093727.000,5131.8280,N,00003.5984,W,1,07,1.64,19.7,M,47.0,M,,*49

$GPGSA,A,3,06,07,19,20,09,17,02,,,,,,1.84,1.64,0.85*07

$GPGGA,093731.000,5131.8281,N,00003.5976,W,1,07,1.64,19.7,M,47.0,M,,*42

$GPGSA,A,3,06,07,19,20,09,17,02,,,,,,1.84,1.64,0.85*07

$GPGSA,A,3,06,07,19,20,09,17,02,,,,,,1.84,1.64,0.85*07

$GPRMC,093734.000,A,5131.8284,N,00003.5967,W,0.58,62.56,151121,,,A*45

$GPVTG,64.64,T,,M,0.57,N,1.05,K,A*0B

$GPGGA,093738.000,5131.8289,N,00003.5952,W,1,07,1.64,19.5,M,47.0,M,,*47

$GPGGA,093742.000,5131.8291,N,00003.5953,W,1,07,1.64,19.3,M,47.0,M,,*44

$GPGSA,A,3,06,07,19,20,09,17,02,,,,,,1.84,1.64,0.85*07

$GPGGA,093746.000,5131.8293,N,00003.5948,W,1,07,1.64,19.2,M,47.0,M,,*49

$GPGSA,A,3,06,07,19,20,09,17,02,,,,,,1.84,1.64,0.85*07

$GPRMC,093749.000,A,5131.8295,N,00003.5944,W,0.39,59.61,151121,,,A*45

$GPVTG,59.61,T,,M,0.39,N,0.72,K,A*09

$GPGGA,093753.000,5131.8297,N,00003.5939,W,1,07,1.64,19.2,M,47.0,M,,*4F

$GPGSA,A,3,06,07,19,20,09,17,02,,,,,,1.84,1.64,0.85*07

$GPGGA,093757.000,5131.8299,N,00003.5937,W,1,07,1.64,19.3,M,47.0,M,,*4A

$GPGSA,A,3,06,07,19,20,09,17,02,,,,,,1.84,1.64,0.85*07

$GPGGA,093801.000,5131.8301,N,00003.5937,W,1,07,1.95,19.3,M,47.0,M,,*48

$GPGSA,A,3,06,07,19,20,09,17,02,,,,,,2.52,1.95,1.60*0B

$GPRMC,093804.000,A,5131.8301,N,00003.5938,W,0.08,88.21,151121,,,A*4E

$GPVTG,88.21,T,,M,0.08,N,0.15,K,A*02

$GPGGA,093808.000,5131.8301,N,00003.5936,W,1,07,1.64,19.3,M,47.0,M,,*4E

$GPGSA,A,3,06,07,19,20,09,17,02,,,,,,1.84,1.64,0.85*07

$GPGGA,093812.000,5131.8300,N,00003.5936,W,1,07,1.64,19.3,M,47.0,M,,*44

$GPGSA,A,3,06,07,19,20,09,17,02,,,,,,1.85,1.64,0.85*06

$GPGGA,093816.000,5131.8298,N,00003.5936,W,1,07,1.64,19.3,M,47.0,M,,*40

$GPGSA,A,3,06,07,19,20,09,17,02,,,,,,1.85,1.64,0.85*06

$GPRMC,093819.000,A,5131.8298,N,00003.5936,W,0.11,36.84,151121,,,A*4F

$GPVTG,36.84,T,,M,0.11,N,0.20,K,A*06

$GPGGA,093823.000,5131.8299,N,00003.5934,W,1,07,1.64,19.3,M,47.0,M,,*45

$GPGSA,A,3,06,07,19,20,09,17,02,,,,,,1.85,1.64,0.85*06

$GPGGA,093827.000,5131.8300,N,00003.5934,W,1,07,1.64,19.3,M,47.0,M,,*40

$GPGSA,A,3,06,07,19,20,09,17,02,,,,,,1.85,1.64,0.85*06

$GPGGA,093831.000,5131.8300,N,00003.5933,W,1,07,1.64,19.3,M,47.0,M,,*40

$GPGSA,A,3,06,07,19,20,09,17,02,,,,,,1.85,1.64,0.85*06

$GPRMC,093834.000,A,5131.8300,N,00003.5931,W,0.03,25.52,151121,,,A*4D

$GPVTG,25.52,T,,M,0.03,N,0.05,K,A*0B

$GPGGA,093838.000,5131.8300,N,00003.5932,W,1,07,1.64,19.3,M,47.0,M,,*48

$GPGSA,A,3,06,07,19,20,09,17,02,,,,,,1.85,1.64,0.85*06

$GPGGA,093842.000,5131.8300,N,00003.5937,W,1,07,1.64,19.3,M,47.0,M,,*40

$GPGSA,A,3,06,07,19,20,09,17,02,,,,,,1.85,1.64,0.85*06

$GPGGA,093846.000,5131.8298,N,00003.5943,W,1,07,1.64,19.3,M,47.0,M,,*47

$GPGSA,A,3,06,07,19,20,09,17,02,,,,,,1.85,1.64,0.85*06

$GPRMC,093849.000,A,5131.8297,N,00003.5948,W,0.60,223.03,151121,,,A*73

$GPVTG,223.03,T,,M,0.60,N,1.12,K,A*39

$GPGGA,093853.000,5131.8287,N,00003.5967,W,1,07,1.64,19.4,M,47.0,M,,*4C

$GPGSA,A,3,06,07,19,20,09,17,02,,,,,,1.85,1.64,0.85*06

$GPGGA,093857.000,5131.8285,N,00003.5975,W,1,07,1.64,19.4,M,47.0,M,,*49

$GPGSA,A,3,06,07,19,20,09,17,02,,,,,,1.85,1.64,0.85*06

$GPGGA,093901.000,5131.8285,N,00003.5978,W,1,07,1.64,19.4,M,47.0,M,,*46

$GPGSA,A,3,06,07,19,20,09,17,02,,,,,,1.85,1.64,0.85*06

$GPRMC,093904.000,A,5131.8284,N,00003.5981,W,0.21,244.74,151121,,,A*78

$GPVTG,244.74,T,,M,0.21,N,0.38,K,A*34

$GPGGA,093908.000,5131.8283,N,00003.5984,W,1,07,1.64,19.4,M,47.0,M,,*4A

$GPGSA,A,3,06,07,19,20,09,17,02,,,,,,1.85,1.64,0.85*06

$GPGGA,093912.000,5131.8283,N,00003.5986,W,1,07,1.64,19.4,M,47.0,M,,*43

$GPGSA,A,3,06,07,19,20,09,17,02,,,,,,1.85,1.64,0.85*06

$GPGGA,093916.000,5131.8284,N,00003.5987,W,1,07,1.64,19.4,M,47.0,M,,*41

$GPGSA,A,3,06,07,19,20,09,17,02,,,,,,1.85,1.64,0.85*06

$GPGGA,093919.000,5131.8284,N,00003.5988,W,1,07,1.64,19.4,M,47.0,M,,*41

$GPGSA,A,3,06,07,19,20,09,17,02,,,,,,1.85,1.64,0.85*06

$GPGGA,093923.000,5131.8284,N,00003.5988,W,1,07,1.64,19.4,M,47.0,M,,*48

$GPGSA,A,3,06,07,19,20,09,17,02,,,,,,1.85,1.64,0.85*06

$GPGGA,093927.000,5131.8285,N,00003.5985,W,1,07,1.64,19.4,M,47.0,M,,*40

$GPGSA,A,3,06,07,19,20,09,17,02,,,,,,1.85,1.64,0.85*06

$GPGGA,093931.000,5131.8286,N,00003.5984,W,1,07,1.98,19.4,M,47.0,M,,*46

$GPGSA,A,3,06,07,19,20,09,17,02,,,,,,2.56,1.98,1.62*00

$GPRMC,093934.000,A,5131.8286,N,00003.5987,W,0.37,268.84,151121,,,A*79

$GPVTG,268.84,T,,M,0.37,N,0.68,K,A*37

$GPGGA,093938.000,5131.8285,N,00003.5994,W,1,07,1.64,19.4,M,47.0,M,,*4E

$GPGSA,A,3,06,07,19,20,09,17,02,,,,,,1.85,1.64,0.85*06

$GPGGA,093942.000,5131.8285,N,00003.5999,W,1,07,1.64,19.4,M,47.0,M,,*4E

$GPGSA,A,3,06,07,19,20,09,17,02,,,,,,1.85,1.64,0.85*06

$GPGGA,093946.000,5131.8285,N,00003.6003,W,1,07,1.64,19.4,M,47.0,M,,*43

$GPGSA,A,3,06,07,19,20,09,17,02,,,,,,1.85,1.64,0.85*06

$GPGSA,A,3,06,07,19,20,09,17,02,,,,,,1.85,1.64,0.85*06

$GPRMC,093949.000,A,5131.8285,N,00003.6006,W,0.08,307.88,151121,,,A*7B

$GPVTG,351.49,T,,M,0.15,N,0.28,K,A*39

$GPGGA,093953.000,5131.8286,N,00003.6006,W,1,07,1.98,19.4,M,47.0,M,,*42

$GPGGA,093957.000,5131.8286,N,00003.6007,W,1,07,1.98,19.5,M,47.0,M,,*46

$GPGSA,A,3,06,07,19,20,09,17,02,,,,,,2.57,1.98,1.63*00

$GPGGA,094001.000,5131.8285,N,00003.6010,W,1,07,1.64,19.5,M,47.0,M,,*4D

$GPGSA,A,3,06,07,19,20,09,17,02,,,,,,1.85,1.64,0.85*06

$GPRMC,094004.000,A,5131.8285,N,00003.6013,W,0.17,325.48,151121,,,A*7A

$GPVTG,325.48,T,,M,0.17,N,0.32,K,A*32

$GPGGA,094008.000,5131.8287,N,00003.6014,W,1,06,2.00,19.5,M,47.0,M,,*42

$GPGSA,A,3,06,07,19,20,17,02,,,,,,,2.75,2.00,1.88*0E

$GPGGA,094012.000,5131.8287,N,00003.6016,W,1,06,1.75,19.5,M,47.0,M,,*4A

$GPGSA,A,3,06,07,19,20,17,02,,,,,,,1.96,1.75,0.88*00

$GPGGA,094016.000,5131.8287,N,00003.6016,W,1,06,2.00,19.5,M,47.0,M,,*4F

$GPGSA,A,3,06,07,19,20,17,02,,,,,,,2.75,2.00,1.89*0F

$GPGGA,094019.000,5131.8288,N,00003.6015,W,1,06,1.75,19.5,M,47.0,M,,*4D

$GPGSA,A,3,06,07,19,20,17,02,,,,,,,1.96,1.75,0.88*00

$GPGGA,094023.000,5131.8288,N,00003.6011,W,1,06,1.75,19.5,M,47.0,M,,*40

$GPGSA,A,3,06,07,19,20,17,02,,,,,,,1.96,1.75,0.88*00

$GPGGA,094027.000,5131.8288,N,00003.6009,W,1,05,1.95,19.5,M,47.0,M,,*40

$GPGSA,A,3,06,07,19,20,02,,,,,,,,2.14,1.95,0.89*00

$GPGGA,094031.000,5131.8290,N,00003.6012,W,1,05,1.95,19.5,M,47.0,M,,*44

$GPGSA,A,3,06,07,19,20,02,,,,,,,,2.14,1.95,0.89*00

$GPGSA,A,3,06,07,19,20,02,,,,,,,,2.14,1.95,0.89*00

$GPRMC,094034.000,A,5131.8289,N,00003.6013,W,0.05,12.54,151121,,,A*4C

$GPVTG,195.93,T,,M,0.13,N,0.24,K,A*3E

$GPGGA,094038.000,5131.8289,N,00003.6012,W,1,05,1.95,19.5,M,47.0,M,,*45

$GPGGA,094042.000,5131.8289,N,00003.6011,W,1,06,1.83,19.5,M,47.0,M,,*4F

$GPGSA,A,3,06,07,19,09,20,02,,,,,,,2.02,1.83,0.86*06

$GPGGA,094046.000,5131.8289,N,00003.6005,W,1,06,1.82,19.5,M,47.0,M,,*4F

$GPGSA,A,3,06,07,19,09,20,02,,,,,,,2.02,1.82,0.86*07

$GPGSA,A,3,06,07,19,09,20,02,,,,,,,2.02,1.82,0.86*07

$GPRMC,094049.000,A,5131.8290,N,00003.6001,W,0.18,53.63,151121,,,A*40

$GPVTG,26.77,T,,M,0.17,N,0.31,K,A*0D

$GPGGA,094053.000,5131.8292,N,00003.6000,W,1,06,1.83,19.5,M,47.0,M,,*45

$GPGGA,094057.000,5131.8292,N,00003.6000,W,1,06,1.83,19.6,M,47.0,M,,*42

$GPGSA,A,3,06,07,19,09,20,02,,,,,,,2.02,1.83,0.86*06

$GPGGA,094101.000,5131.8292,N,00003.5999,W,1,06,1.82,19.6,M,47.0,M,,*4B

$GPGSA,A,3,06,07,19,09,20,02,,,,,,,2.02,1.82,0.86*07

$GPGSA,A,3,06,07,19,09,20,02,,,,,,,2.02,1.82,0.86*07

$GPRMC,094104.000,A,5131.8293,N,00003.5999,W,0.09,116.42,151121,,,A*73

$GPVTG,71.19,T,,M,0.25,N,0.46,K,A*06

$GPGGA,094108.000,5131.8293,N,00003.5995,W,1,06,1.82,19.6,M,47.0,M,,*4F

$GPGGA,094112.000,5131.8295,N,00003.5993,W,1,06,1.82,19.6,M,47.0,M,,*44

$GPGSA,A,3,06,07,19,09,20,02,,,,,,,2.02,1.82,0.86*07

$GPGGA,094116.000,5131.8296,N,00003.5993,W,1,05,1.95,19.6,M,47.0,M,,*46

$GPGSA,A,3,06,07,19,20,02,,,,,,,,2.15,1.95,0.89*01

$GPRMC,094119.000,A,5131.8296,N,00003.5993,W,0.15,89.14,151121,,,A*49

$GPVTG,89.14,T,,M,0.15,N,0.28,K,A*07

$GPGGA,094123.000,5131.8296,N,00003.5989,W,1,05,1.95,19.6,M,47.0,M,,*4B

$GPGSA,A,3,06,07,19,20,02,,,,,,,,2.15,1.95,0.89*01

$GPGGA,094127.000,5131.8298,N,00003.5983,W,1,05,1.95,19.6,M,47.0,M,,*4B

$GPGSA,A,3,06,07,19,20,02,,,,,,,,2.15,1.95,0.89*01

$GPVTG,98.25,T,,M,0.20,N,0.38,K,A*02

$GPGGA,094131.000,5131.8298,N,00003.5981,W,1,05,1.95,19.6,M,47.0,M,,*4E

$GPVTG,96.84,T,,M,0.23,N,0.42,K,A*09

$GPGGA,094134.000,5131.8298,N,00003.5977,W,1,05,1.95,19.6,M,47.0,M,,*42

$GPVTG,255.23,T,,M,0.02,N,0.03,K,A*3F

$GPGGA,094138.000,5131.8299,N,00003.5975,W,1,05,1.95,19.6,M,47.0,M,,*4D

$GPGGA,094142.000,5131.8300,N,00003.5979,W,1,05,1.95,19.6,M,47.0,M,,*4D

$GPGSA,A,3,06,07,19,20,02,,,,,,,,2.15,1.95,0.89*01

$GPGGA,094146.000,5131.8299,N,00003.5985,W,1,05,1.95,19.6,M,47.0,M,,*4B

$GPGSA,A,3,06,07,19,20,02,,,,,,,,2.15,1.95,0.89*01

$GPRMC,094149.000,A,5131.8297,N,00003.5988,W,0.27,235.17,151121,,,A*70

$GPVTG,235.17,T,,M,0.27,N,0.50,K,A*3F

$GPGGA,094153.000,5131.8295,N,00003.5990,W,1,05,1.95,19.6,M,47.0,M,,*47

$GPGSA,A,3,06,07,19,20,02,,,,,,,,2.15,1.95,0.89*01

$GPGGA,094157.000,5131.8297,N,00003.5985,W,1,06,1.82,19.6,M,47.0,M,,*40

$GPGSA,A,3,06,07,19,20,09,02,,,,,,,2.01,1.82,0.86*04

$GPGGA,094201.000,5131.8300,N,00003.5972,W,1,06,1.82,19.5,M,47.0,M,,*44

$GPGSA,A,3,06,07,19,20,09,02,,,,,,,2.01,1.82,0.86*04

$GPGSA,A,3,06,07,19,20,02,,,,,,,,2.15,1.95,0.89*01

$GPRMC,094204.000,A,5131.8302,N,00003.5963,W,0.53,58.42,151121,,,A*48

$GPVTG,82.39,T,,M,0.39,N,0.72,K,A*02

$GPGGA,094208.000,5131.8304,N,00003.5955,W,1,05,1.95,19.4,M,47.0,M,,*48

$GPGGA,094212.000,5131.8306,N,00003.5947,W,1,05,1.95,19.4,M,47.0,M,,*42

$GPGSA,A,3,06,07,19,20,02,,,,,,,,2.15,1.95,0.89*01

$GPGGA,094216.000,5131.8308,N,00003.5939,W,1,05,1.96,19.4,M,47.0,M,,*42

$GPGSA,A,3,06,07,19,20,02,,,,,,,,2.15,1.96,0.89*02

$GPGSA,A,3,06,07,19,20,02,,,,,,,,2.15,1.95,0.89*01

$GPRMC,094219.000,A,5131.8309,N,00003.5934,W,0.36,73.82,151121,,,A*4B

$GPVTG,74.49,T,,M,0.10,N,0.19,K,A*0A

$GPGGA,094223.000,5131.8310,N,00003.5930,W,1,05,1.95,19.4,M,47.0,M,,*47

$GPGGA,094227.000,5131.8310,N,00003.5930,W,1,05,1.96,19.4,M,47.0,M,,*40

$GPGSA,A,3,06,07,19,20,02,,,,,,,,2.15,1.96,0.89*02

$GPGGA,094231.000,5131.8309,N,00003.5931,W,1,05,1.95,19.5,M,47.0,M,,*4C

$GPGSA,A,3,06,07,19,20,02,,,,,,,,2.15,1.95,0.89*01

$GPVTG,75.38,T,,M,0.20,N,0.38,K,A*0D

$GPGGA,094235.000,5131.8308,N,00003.5929,W,1,06,1.82,19.5,M,47.0,M,,*45

$GPGSV,3,3,12,22,06,106,,26,06,048,,17,04,209,15,38,,,30*40

$GPRMC,094238.000,A,5131.8310,N,00003.5927,W,0.22,76.68,151121,,,A*46

$GPVTG,97.00,T,,M,0.07,N,0.13,K,A*06

$GPGGA,094242.000,5131.8310,N,00003.5925,W,1,06,1.82,19.5,M,47.0,M,,*40

$GPGGA,094246.000,5131.8310,N,00003.5927,W,1,06,1.82,19.5,M,47.0,M,,*46

$GPGSA,A,3,06,07,09,19,20,02,,,,,,,2.01,1.82,0.86*04

$GPGSA,A,3,06,07,09,19,20,02,,,,,,,2.01,1.82,0.86*04

$GPRMC,094249.000,A,5131.8309,N,00003.5928,W,0.09,167.99,151121,,,A*71

$GPVTG,132.52,T,,M,0.03,N,0.06,K,A*3F

$GPGGA,094253.000,5131.8309,N,00003.5927,W,1,06,1.82,19.5,M,47.0,M,,*4A

$GPRMC,094256.000,A,5131.8308,N,00003.5926,W,0.08,130.19,151121,,,A*7B

$GPVTG,130.19,T,,M,0.08,N,0.14,K,A*3A

$GPGGA,094300.000,5131.8308,N,00003.5925,W,1,06,2.12,19.5,M,47.0,M,,*44

$GPGSA,A,3,06,07,09,19,20,02,,,,,,,2.73,2.12,1.72*01

$GPGSV,3,3,12,22,06,106,,26,06,048,,17,04,209,13,45,,,*4F

$GPRMC,094303.000,A,5131.8309,N,00003.5926,W,0.09,103.20,151121,,,A*70

$GPVTG,237.89,T,,M,0.00,N,0.01,K,A*3B

$GPGGA,094307.000,5131.8309,N,00003.5925,W,1,06,1.82,19.5,M,47.0,M,,*48

$GPGGA,094311.000,5131.8309,N,00003.5924,W,1,06,1.82,19.5,M,47.0,M,,*4E

$GPGSA,A,3,06,07,09,19,20,02,,,,,,,2.01,1.82,0.87*05

$GPGGA,094314.000,5131.8309,N,00003.5923,W,1,06,1.82,19.5,M,47.0,M,,*4C

$GPGSA,A,3,06,07,09,19,20,02,,,,,,,2.01,1.82,0.87*05

$GPGGA,094318.000,5131.8312,N,00003.5919,W,1,06,1.82,19.5,M,47.0,M,,*43

$GPGSA,A,3,06,07,09,19,20,02,,,,,,,2.01,1.82,0.87*05

$GPGGA,094322.000,5131.8316,N,00003.5916,W,1,06,1.82,19.6,M,47.0,M,,*42

$GPGSA,A,3,06,07,09,19,20,02,,,,,,,2.01,1.82,0.87*05

$GPGGA,094326.000,5131.8318,N,00003.5910,W,1,06,1.82,19.6,M,47.0,M,,*4E

$GPGSA,A,3,06,07,09,19,20,02,,,,,,,2.01,1.82,0.87*05

$GPGSA,A,3,06,07,09,19,20,02,,,,,,,2.01,1.82,0.87*05

$GPRMC,094329.000,A,5131.8320,N,00003.5904,W,0.45,65.32,151121,,,A*49

$GPVTG,65.50,T,,M,0.25,N,0.46,K,A*0E

$GPGGA,094333.000,5131.8322,N,00003.5898,W,1,06,1.82,19.6,M,47.0,M,,*42

$GPGGA,094337.000,5131.8323,N,00003.5896,W,1,06,1.82,19.6,M,47.0,M,,*49

$GPGSA,A,3,06,07,09,19,20,02,,,,,,,2.01,1.82,0.87*05

$GPGGA,094341.000,5131.8322,N,00003.5898,W,1,06,1.82,19.6,M,47.0,M,,*47

$GPGSA,A,3,06,07,09,19,20,02,,,,,,,2.01,1.82,0.87*05

$GPGGA,094344.000,5131.8322,N,00003.5899,W,1,06,1.82,19.6,M,47.0,M,,*43

$GPGSA,A,3,06,07,09,19,20,02,,,,,,,2.01,1.82,0.87*05

$GPGGA,094348.000,5131.8321,N,00003.5900,W,1,06,1.82,19.6,M,47.0,M,,*4D

$GPGSA,A,3,06,07,09,19,20,02,,,,,,,2.01,1.82,0.87*05

$GPGGA,094352.000,5131.8320,N,00003.5901,W,1,06,1.81,19.7,M,47.0,M,,*44

$GPGSA,A,3,06,07,09,19,20,02,,,,,,,2.01,1.81,0.87*06

$GPGGA,094356.000,5131.8320,N,00003.5904,W,1,06,1.81,19.7,M,47.0,M,,*45

$GPGSA,A,3,06,07,09,19,20,02,,,,,,,2.01,1.81,0.87*06

$GPGSA,A,3,06,07,19,20,02,,,,,,,,2.15,1.96,0.89*02

$GPRMC,094359.000,A,5131.8319,N,00003.5904,W,0.20,184.06,151121,,,A*7E

$GPVTG,261.21,T,,M,0.07,N,0.13,K,A*3E

$GPGGA,094403.000,5131.8318,N,00003.5904,W,1,05,1.96,19.7,M,47.0,M,,*4C

$GPGGA,094407.000,5131.8318,N,00003.5907,W,1,05,1.96,19.7,M,47.0,M,,*4B

$GPGSA,A,3,06,07,19,20,02,,,,,,,,2.15,1.96,0.89*02

$GPGGA,094411.000,5131.8317,N,00003.5905,W,1,05,1.96,19.7,M,47.0,M,,*41

$GPGSA,A,3,06,07,19,20,02,,,,,,,,2.16,1.96,0.90*09

$GPGSA,A,3,06,07,19,20,02,,,,,,,,2.16,1.96,0.89*01

$GPRMC,094414.000,A,5131.8316,N,00003.5907,W,0.13,255.71,151121,,,A*73

$GPVTG,209.84,T,,M,0.17,N,0.31,K,A*3E

$GPGGA,094418.000,5131.8315,N,00003.5909,W,1,05,1.96,19.7,M,47.0,M,,*46

$GPVTG,154.57,T,,M,0.13,N,0.23,K,A*3C

$GPGGA,094422.000,5131.8313,N,00003.5910,W,1,06,1.81,19.7,M,47.0,M,,*44

$GPVTG,209.28,T,,M,0.24,N,0.45,K,A*3B

$GPGGA,094426.000,5131.8311,N,00003.5910,W,1,06,1.81,19.7,M,47.0,M,,*42

$GPGSA,A,3,06,07,09,19,20,02,,,,,,,2.01,1.81,0.87*06

$GPRMC,094429.000,A,5131.8310,N,00003.5910,W,0.05,164.71,151121,,,A*7B

$GPVTG,72.48,T,,M,0.09,N,0.17,K,A*0B

$GPGGA,094433.000,5131.8310,N,00003.5909,W,1,06,1.81,19.7,M,47.0,M,,*4F

$GPGGA,094437.000,5131.8312,N,00003.5908,W,1,06,2.14,19.8,M,47.0,M,,*48

$GPGSA,A,3,06,07,09,19,20,02,,,,,,,2.77,2.14,1.76*07

$GPGGA,094441.000,5131.8314,N,00003.5905,W,1,06,1.81,19.8,M,47.0,M,,*4D

$GPGSA,A,3,06,07,09,19,20,02,,,,,,,2.01,1.81,0.87*06

$GPGSA,A,3,06,07,09,19,20,02,,,,,,,2.01,1.81,0.87*06

$GPRMC,094444.000,A,5131.8315,N,00003.5902,W,0.16,2.93,151121,,,A*79

$GPVTG,322.48,T,,M,0.07,N,0.13,K,A*37

$GPGGA,094448.000,5131.8316,N,00003.5902,W,1,06,1.81,19.8,M,47.0,M,,*41

$GPGGA,094452.000,5131.8316,N,00003.5904,W,1,06,1.81,19.8,M,47.0,M,,*4C

$GPGSA,A,3,06,07,09,19,20,02,,,,,,,2.01,1.81,0.87*06

$GPGGA,094456.000,5131.8317,N,00003.5905,W,1,06,1.81,19.8,M,47.0,M,,*48

$GPGSA,A,3,06,07,09,19,20,02,,,,,,,2.01,1.81,0.87*06

$GPGSA,A,3,06,07,09,19,20,02,,,,,,,2.01,1.81,0.87*06

$GPRMC,094459.000,A,5131.8317,N,00003.5904,W,0.15,66.20,151121,,,A*48

$GPVTG,75.40,T,,M,0.41,N,0.76,K,A*0F

$GPGGA,094503.000,5131.8318,N,00003.5899,W,1,06,1.81,19.8,M,47.0,M,,*42

$GPGGA,094507.000,5131.8321,N,00003.5901,W,1,06,1.81,19.9,M,47.0,M,,*4D

$GPGSA,A,3,06,07,09,19,20,02,,,,,,,2.01,1.81,0.87*06

$GPGGA,094511.000,5131.8326,N,00003.5897,W,1,05,1.96,19.9,M,47.0,M,,*46

$GPGSA,A,3,06,07,19,20,02,,,,,,,,2.16,1.96,0.90*09

$GPRMC,094514.000,A,5131.8327,N,00003.5895,W,0.13,76.50,151121,,,A*4A

$GPVTG,76.50,T,,M,0.13,N,0.25,K,A*0C

$GPGGA,094518.000,5131.8327,N,00003.5894,W,1,06,2.15,19.9,M,47.0,M,,*46

$GPGSA,A,3,06,07,09,19,20,02,,,,,,,2.79,2.15,1.77*09

$GPGGA,094522.000,5131.8327,N,00003.5895,W,1,06,1.81,19.8,M,47.0,M,,*41

$GPGSA,A,3,06,07,09,19,20,02,,,,,,,2.01,1.81,0.87*06

$GPGGA,094526.000,5131.8324,N,00003.5900,W,1,06,1.81,19.8,M,47.0,M,,*4B

$GPGSA,A,3,06,07,09,19,20,02,,,,,,,2.01,1.81,0.87*06

$GPRMC,094529.000,A,5131.8323,N,00003.5903,W,0.09,205.69,151121,,,A*79

$GPVTG,205.69,T,,M,0.09,N,0.17,K,A*3A

$GPGGA,094533.000,5131.8323,N,00003.5904,W,1,06,1.81,19.9,M,47.0,M,,*4D

$GPGSA,A,3,06,07,09,19,20,02,,,,,,,2.01,1.81,0.87*06

$GPGGA,094537.000,5131.8323,N,00003.5905,W,1,06,1.81,19.9,M,47.0,M,,*48

$GPGSA,A,3,06,07,09,19,20,02,,,,,,,2.01,1.81,0.87*06

$GPGGA,094541.000,5131.8323,N,00003.5909,W,1,06,1.81,19.9,M,47.0,M,,*45

$GPGSA,A,3,06,07,09,19,20,02,,,,,,,2.01,1.81,0.87*06

$GPRMC,094544.000,A,5131.8322,N,00003.5912,W,0.12,260.36,151121,,,A*70

$GPVTG,260.36,T,,M,0.12,N,0.23,K,A*3E

$GPGGA,094548.000,5131.8322,N,00003.5914,W,1,06,1.81,19.9,M,47.0,M,,*41

$GPGSA,A,3,06,07,09,19,20,02,,,,,,,2.01,1.81,0.87*06

