$GPGGA,134733.000,5131.8359,N,00003.9744,W,2,09,1.05,11.2,M,47.0,M,0000,0000*4C

$GPRMC,134733.000,A,5131.8359,N,00003.9744,W,0.07,217.20,161121,,,D*71

$GPRMC,134738.000,A,5131.8359,N,00003.9745,W,0.07,293.95,161121,,,D*79

$GPGGA,134739.000,5131.8359,N,00003.9745,W,2,09,1.05,11.2,M,47.0,M,0000,0000*47

$GPRMC,134744.000,A,5131.8352,N,00003.9740,W,1.50,130.66,161121,,,D*79

$GPGGA,134745.000,5131.8346,N,00003.9740,W,2,09,0.94,11.1,M,47.0,M,0000,0000*4D

$GPRMC,134750.000,A,5131.8312,N,00003.9748,W,2.67,185.11,161121,,,D*79

$GPGGA,134751.000,5131.8305,N,00003.9750,W,2,09,0.94,10.6,M,47.0,M,0000,0000*48

$GPRMC,134756.000,A,5131.8282,N,00003.9729,W,2.99,122.96,161121,,,D*73

$GPGGA,134757.000,5131.8277,N,00003.9721,W,2,09,0.94,9.9,M,47.0,M,0000,0000*7B

$GPRMC,134802.000,A,5131.8253,N,00003.9688,W,2.68,133.36,161121,,,D*7F

$GPGGA,134803.000,5131.8249,N,00003.9680,W,2,09,0.94,9.2,M,47.0,M,0000,0000*79

$GPRMC,134808.000,A,5131.8228,N,00003.9641,W,2.49,141.78,161121,,,D*70

$GPGGA,134809.000,5131.8224,N,00003.9631,W,2,09,0.94,8.3,M,47.0,M,0000,0000*72

$GPRMC,134814.000,A,5131.8201,N,00003.9587,W,2.45,126.61,161121,,,D*7A

$GPGGA,134815.000,5131.8198,N,00003.9578,W,2,09,0.94,7.5,M,47.0,M,0000,0000*7C

$GPRMC,134820.000,A,5131.8172,N,00003.9535,W,2.62,137.79,161121,,,D*7F

$GPGGA,134821.000,5131.8166,N,00003.9526,W,2,09,0.94,6.6,M,47.0,M,0000,0000*73

$GPRMC,134826.000,A,5131.8143,N,00003.9486,W,2.60,131.73,161121,,,D*7C

$GPGGA,134827.000,5131.8138,N,00003.9478,W,2,09,0.94,6.0,M,47.0,M,0000,0000*72

$GPRMC,134832.000,A,5131.8117,N,00003.9432,W,2.60,141.12,161121,,,D*77

$GPGGA,134833.000,5131.8109,N,00003.9429,W,2,09,0.94,5.2,M,47.0,M,0000,0000*70

$GPRMC,134838.000,A,5131.8076,N,00003.9401,W,2.57,153.74,161121,,,D*7C

$GPGGA,134839.000,5131.8072,N,00003.9399,W,2,09,0.94,5.9,M,47.0,M,0000,0000*70

$GPRMC,134844.000,A,5131.8083,N,00003.9369,W,1.99,72.00,161121,,,D*44

$GPGGA,134845.000,5131.8082,N,00003.9358,W,2,09,0.94,6.8,M,47.0,M,0000,0000*7B

$GPRMC,134850.000,A,5131.8076,N,00003.9304,W,2.38,96.29,161121,,,D*49

$GPGGA,134851.000,5131.8075,N,00003.9294,W,2,09,0.94,7.9,M,47.0,M,0000,0000*77

$GPRMC,134856.000,A,5131.8074,N,00003.9240,W,2.31,76.86,161121,,,D*4E

$GPGGA,134857.000,5131.8074,N,00003.9229,W,2,09,0.94,8.4,M,47.0,M,0000,0000*74

$GPRMC,134902.000,A,5131.8076,N,00003.9177,W,2.39,78.24,161121,,,D*45

$GPGGA,134903.000,5131.8077,N,00003.9166,W,2,09,0.94,9.2,M,47.0,M,0000,0000*78

$GPRMC,134908.000,A,5131.8081,N,00003.9110,W,2.50,76.33,161121,,,D*41

$GPGGA,134909.000,5131.8082,N,00003.9097,W,2,09,0.94,9.9,M,47.0,M,0000,0000*7C

$GPRMC,134914.000,A,5131.8086,N,00003.9044,W,2.46,80.77,161121,,,D*45

$GPGGA,134915.000,5131.8086,N,00003.9036,W,2,09,0.94,10.5,M,47.0,M,0000,0000*4A

$GPRMC,134920.000,A,5131.8077,N,00003.8995,W,1.99,110.59,161121,,,D*7D

$GPGGA,134921.000,5131.8074,N,00003.8987,W,2,09,0.94,11.5,M,47.0,M,0000,0000*43

$GPRMC,134926.000,A,5131.8056,N,00003.8960,W,1.98,149.08,161121,,,D*7B

$GPGGA,134927.000,5131.8054,N,00003.8957,W,2,09,0.94,12.4,M,47.0,M,0000,0000*48

$GPRMC,134932.000,A,5131.8047,N,00003.8934,W,1.30,157.04,161121,,,D*7E

$GPGGA,134933.000,5131.8044,N,00003.8930,W,2,09,0.94,13.4,M,47.0,M,0000,0000*4C

$GPRMC,134938.000,A,5131.8036,N,00003.8888,W,1.62,106.02,161121,,,D*71

$GPGGA,134939.000,5131.8037,N,00003.8876,W,2,09,0.94,14.3,M,47.0,M,0000,0000*41

$GPRMC,134944.000,A,5131.8032,N,00003.8825,W,2.02,90.63,161121,,,D*45

$GPGGA,134945.000,5131.8030,N,00003.8814,W,2,09,0.94,14.9,M,47.0,M,0000,0000*43

$GPRMC,134950.000,A,5131.8026,N,00003.8755,W,2.25,81.08,161121,,,D*45

$GPGGA,134951.000,5131.8025,N,00003.8746,W,2,09,0.94,15.4,M,47.0,M,0000,0000*46

$GPRMC,134956.000,A,5131.8023,N,00003.8705,W,1.74,81.33,161121,,,D*4C

$GPGGA,134957.000,5131.8024,N,00003.8698,W,2,09,0.94,16.3,M,47.0,M,0000,0000*47

$GPRMC,135002.000,A,5131.8021,N,00003.8658,W,1.62,95.59,161121,,,D*40

$GPGGA,135003.000,5131.8024,N,00003.8644,W,2,09,0.94,17.4,M,47.0,M,0000,0000*49

$GPRMC,135008.000,A,5131.8024,N,00003.8603,W,1.20,84.01,161121,,,D*4A

$GPGGA,135009.000,5131.8023,N,00003.8597,W,2,09,0.94,18.1,M,47.0,M,0000,0000*43

$GPRMC,135014.000,A,5131.8009,N,00003.8571,W,1.22,121.89,161121,,,D*72

$GPGGA,135015.000,5131.8008,N,00003.8564,W,2,09,0.94,18.9,M,47.0,M,0000,0000*43

$GPRMC,135020.000,A,5131.8009,N,00003.8519,W,1.38,98.13,161121,,,D*40

$GPGGA,135021.000,5131.8010,N,00003.8506,W,2,09,0.94,19.6,M,47.0,M,0000,0000*47

$GPRMC,135026.000,A,5131.8018,N,00003.8439,W,1.99,83.56,161121,,,D*45

$GPGGA,135027.000,5131.8017,N,00003.8429,W,2,09,0.94,20.4,M,47.0,M,0000,0000*42

$GPRMC,135032.000,A,5131.8024,N,00003.8368,W,1.85,93.65,161121,,,D*40

$GPGGA,135033.000,5131.8026,N,00003.8354,W,2,09,0.94,21.6,M,47.0,M,0000,0000*4B

$GPRMC,135038.000,A,5131.8053,N,00003.8277,W,2.62,71.19,161121,,,D*48

$GPGGA,135039.000,5131.8059,N,00003.8262,W,2,09,0.94,22.8,M,47.0,M,0000,0000*40

$GPRMC,135044.000,A,5131.8084,N,00003.8210,W,2.17,68.08,161121,,,D*42

$GPGGA,135045.000,5131.8089,N,00003.8199,W,2,09,0.94,23.4,M,47.0,M,0000,0000*4C

$GPRMC,135050.000,A,5131.8109,N,00003.8144,W,2.14,70.79,161121,,,D*4D

$GPGGA,135051.000,5131.8112,N,00003.8132,W,2,09,0.94,24.6,M,47.0,M,0000,0000*4E

$GPRMC,135056.000,A,5131.8136,N,00003.8074,W,2.19,64.94,161121,,,D*4E

$GPGGA,135057.000,5131.8138,N,00003.8063,W,2,09,0.94,25.7,M,47.0,M,0000,0000*45

$GPRMC,135102.000,A,5131.8154,N,00003.8017,W,2.01,70.73,161121,,,D*4A

$GPGGA,135103.000,5131.8158,N,00003.8004,W,2,09,0.94,26.7,M,47.0,M,0000,0000*41

$GPRMC,135108.000,A,5131.8177,N,00003.7959,W,1.67,60.12,161121,,,D*48

$GPGGA,135109.000,5131.8182,N,00003.7951,W,2,09,0.94,27.5,M,47.0,M,0000,0000*49

$GPRMC,135114.000,A,5131.8190,N,00003.7897,W,2.13,81.72,161121,,,D*46

$GPGGA,135115.000,5131.8193,N,00003.7879,W,2,09,0.94,28.0,M,47.0,M,0000,0000*45

$GPRMC,135120.000,A,5131.8192,N,00003.7822,W,2.23,92.02,161121,,,D*4B

$GPGGA,135121.000,5131.8194,N,00003.7813,W,2,09,0.94,28.3,M,47.0,M,0000,0000*4A

$GPRMC,135126.000,A,5131.8199,N,00003.7763,W,2.19,90.10,161121,,,D*44

$GPGGA,135127.000,5131.8203,N,00003.7752,W,2,09,0.94,29.0,M,47.0,M,0000,0000*49

$GPRMC,135132.000,A,5131.8219,N,00003.7692,W,2.41,76.30,161121,,,D*42

$GPGGA,135133.000,5131.8222,N,00003.7685,W,2,09,0.94,29.9,M,47.0,M,0000,0000*4D

$GPRMC,135138.000,A,5131.8235,N,00003.7650,W,1.65,66.21,161121,,,D*4C

$GPGGA,135139.000,5131.8239,N,00003.7642,W,2,09,0.94,30.5,M,47.0,M,0000,0000*42

$GPRMC,135144.000,A,5131.8250,N,00003.7602,W,1.52,80.22,161121,,,D*4C

$GPGGA,135145.000,5131.8253,N,00003.7593,W,2,09,0.94,31.2,M,47.0,M,0000,0000*4C

$GPRMC,135150.000,A,5131.8255,N,00003.7554,W,1.24,96.03,161121,,,D*49

$GPGGA,135151.000,5131.8253,N,00003.7550,W,2,09,0.94,32.5,M,47.0,M,0000,0000*42

$GPRMC,135156.000,A,5131.8262,N,00003.7505,W,1.66,79.85,161121,,,D*46

$GPGGA,135157.000,5131.8263,N,00003.7499,W,2,09,0.94,33.7,M,47.0,M,0000,0000*40

$GPRMC,135202.000,A,5131.8280,N,00003.7445,W,2.13,72.48,161121,,,D*46

$GPGGA,135203.000,5131.8283,N,00003.7432,W,2,09,0.94,34.6,M,47.0,M,0000,0000*4B

$GPRMC,135208.000,A,5131.8305,N,00003.7366,W,2.46,71.17,161121,,,D*4F

$GPGGA,135209.000,5131.8309,N,00003.7354,W,2,09,0.94,35.3,M,47.0,M,0000,0000*41

$GPRMC,135214.000,A,5131.8323,N,00003.7286,W,2.23,67.24,161121,,,D*4D

$GPGGA,135215.000,5131.8325,N,00003.7270,W,2,09,0.94,35.6,M,47.0,M,0000,0000*40

$GPRMC,135220.000,A,5131.8325,N,00003.7200,W,2.50,83.58,161121,,,D*47

$GPGGA,135221.000,5131.8326,N,00003.7190,W,2,09,0.94,35.9,M,47.0,M,0000,0000*46

$GPRMC,135226.000,A,5131.8340,N,00003.7145,W,2.41,68.73,161121,,,D*4C

$GPGGA,135227.000,5131.8344,N,00003.7134,W,2,09,0.93,36.1,M,47.0,M,0000,0000*46

$GPRMC,135232.000,A,5131.8355,N,00003.7079,W,2.45,87.22,161121,,,D*42

$GPGGA,135233.000,5131.8357,N,00003.7068,W,2,09,0.93,36.4,M,47.0,M,0000,0000*4C

$GPRMC,135238.000,A,5131.8371,N,00003.7020,W,1.99,73.68,161121,,,D*45

$GPGGA,135239.000,5131.8371,N,00003.7011,W,2,08,1.00,37.0,M,47.0,M,0000,0000*43

$GPRMC,135244.000,A,5131.8388,N,00003.6956,W,1.87,60.95,161121,,,D*4E

$GPGGA,135245.000,5131.8394,N,00003.6941,W,2,09,0.93,36.7,M,47.0,M,0000,0000*42

$GPRMC,135250.000,A,5131.8405,N,00003.6901,W,1.55,89.34,161121,,,D*48

$GPGGA,135251.000,5131.8408,N,00003.6893,W,2,09,0.93,35.3,M,47.0,M,0000,0000*4C

$GPRMC,135256.000,A,5131.8413,N,00003.6829,W,2.27,98.45,161121,,,D*42

$GPGGA,135257.000,5131.8414,N,00003.6818,W,2,09,0.93,34.1,M,47.0,M,0000,0000*47

$GPRMC,135302.000,A,5131.8405,N,00003.6784,W,1.67,135.47,161121,,,D*7E

$GPGGA,135303.000,5131.8400,N,00003.6781,W,2,09,0.93,34.2,M,47.0,M,0000,0000*4E

$GPRMC,135308.000,A,5131.8372,N,00003.6764,W,1.72,153.73,161121,,,D*7E

$GPGGA,135309.000,5131.8363,N,00003.6761,W,2,08,0.97,34.0,M,47.0,M,0000,0000*4F

$GPRMC,135314.000,A,5131.8329,N,00003.6738,W,2.18,158.95,161121,,,D*78

$GPGGA,135315.000,5131.8323,N,00003.6735,W,2,09,0.93,34.2,M,47.0,M,0000,0000*40

$GPRMC,135320.000,A,5131.8287,N,00003.6702,W,2.22,154.73,161121,,,D*7E

$GPGGA,135321.000,5131.8279,N,00003.6695,W,2,08,0.97,34.6,M,47.0,M,0000,0000*43

$GPRMC,135326.000,A,5131.8238,N,00003.6665,W,2.34,154.07,161121,,,D*78

$GPGGA,135327.000,5131.8229,N,00003.6660,W,2,09,0.93,35.0,M,47.0,M,0000,0000*48

$GPRMC,135332.000,A,5131.8193,N,00003.6643,W,2.25,158.73,161121,,,D*74

$GPGGA,135333.000,5131.8184,N,00003.6639,W,2,08,1.02,35.4,M,47.0,M,0000,0000*49

$GPRMC,135338.000,A,5131.8144,N,00003.6624,W,2.24,167.26,161121,,,D*78

$GPGGA,135339.000,5131.8136,N,00003.6622,W,2,08,1.02,35.6,M,47.0,M,0000,0000*42

$GPRMC,135344.000,A,5131.8107,N,00003.6542,W,2.14,109.11,161121,,,D*78

$GPGGA,135345.000,5131.8105,N,00003.6530,W,2,08,1.02,35.8,M,47.0,M,0000,0000*47

$GPRMC,135350.000,A,5131.8098,N,00003.6481,W,2.17,84.30,161121,,,D*40

$GPGGA,135351.000,5131.8097,N,00003.6470,W,2,08,1.02,36.5,M,47.0,M,0000,0000*43

$GPRMC,135356.000,A,5131.8097,N,00003.6428,W,1.86,80.47,161121,,,D*45

$GPGGA,135357.000,5131.8098,N,00003.6418,W,2,08,1.02,37.0,M,47.0,M,0000,0000*40

$GPRMC,135402.000,A,5131.8109,N,00003.6375,W,2.06,68.50,161121,,,D*41

$GPGGA,135403.000,5131.8109,N,00003.6364,W,2,08,1.02,37.6,M,47.0,M,0000,0000*45

$GPRMC,135408.000,A,5131.8111,N,00003.6318,W,2.06,75.02,161121,,,D*42

$GPGGA,135409.000,5131.8110,N,00003.6310,W,2,08,1.02,38.2,M,47.0,M,0000,0000*4F

$GPRMC,135414.000,A,5131.8120,N,00003.6273,W,1.83,60.38,161121,,,D*42

$GPGGA,135415.000,5131.8121,N,00003.6264,W,2,08,1.02,38.7,M,47.0,M,0000,0000*47

$GPRMC,135420.000,A,5131.8124,N,00003.6239,W,0.93,67.36,161121,,,D*46

$GPGGA,135421.000,5131.8128,N,00003.6235,W,2,08,1.02,39.4,M,47.0,M,0000,0000*4F

$GPRMC,135426.000,A,5131.8153,N,00003.6230,W,1.80,357.71,161121,,,D*79

$GPGGA,135427.000,5131.8159,N,00003.6231,W,2,08,1.06,40.0,M,47.0,M,0000,0000*45

$GPRMC,135432.000,A,5131.8186,N,00003.6237,W,2.03,345.39,161121,,,D*74

$GPGGA,135433.000,5131.8193,N,00003.6241,W,2,08,1.06,40.9,M,47.0,M,0000,0000*48

$GPRMC,135438.000,A,5131.8222,N,00003.6252,W,2.23,337.26,161121,,,D*79

$GPGGA,135439.000,5131.8228,N,00003.6251,W,2,08,1.02,41.7,M,47.0,M,0000,0000*4B

$GPRMC,135444.000,A,5131.8266,N,00003.6239,W,2.36,328.84,161121,,,D*7D

$GPGGA,135445.000,5131.8273,N,00003.6240,W,2,08,1.02,41.7,M,47.0,M,0000,0000*4E

$GPRMC,135450.000,A,5131.8298,N,00003.6240,W,1.04,60.92,161121,,,D*4D

$GPGGA,135451.000,5131.8301,N,00003.6239,W,2,08,1.02,41.9,M,47.0,M,0000,0000*4F

$GPRMC,135456.000,A,5131.8308,N,00003.6223,W,1.02,72.92,161121,,,D*43

$GPGGA,135457.000,5131.8310,N,00003.6219,W,2,09,0.93,42.3,M,47.0,M,0000,0000*4A

$GPRMC,135502.000,A,5131.8332,N,00003.6176,W,2.34,76.10,161121,,,D*41

$GPGGA,135503.000,5131.8341,N,00003.6160,W,2,09,0.93,42.4,M,47.0,M,0000,0000*44

$GPRMC,135508.000,A,5131.8366,N,00003.6092,W,0.96,91.51,161121,,,D*47

$GPGGA,135509.000,5131.8365,N,00003.6085,W,2,09,0.93,43.1,M,47.0,M,0000,0000*46

$GPRMC,135514.000,A,5131.8354,N,00003.6062,W,1.21,144.47,161121,,,D*77

$GPGGA,135515.000,5131.8349,N,00003.6057,W,2,09,0.93,44.1,M,47.0,M,0000,0000*4D

$GPRMC,135520.000,A,5131.8317,N,00003.6021,W,1.89,155.29,161121,,,D*7A

$GPGGA,135521.000,5131.8315,N,00003.6013,W,2,09,0.93,44.9,M,47.0,M,0000,0000*4B

$GPRMC,135526.000,A,5131.8301,N,00003.5981,W,1.55,157.64,161121,,,D*71

$GPGGA,135527.000,5131.8300,N,00003.5976,W,2,09,0.93,46.3,M,47.0,M,0000,0000*48

$GPRMC,135532.000,A,5131.8289,N,00003.5963,W,1.15,153.37,161121,,,D*7F

$GPGGA,135533.000,5131.8287,N,00003.5961,W,2,09,0.93,47.2,M,47.0,M,0000,0000*45

$GPRMC,135538.000,A,5131.8277,N,00003.5950,W,0.99,149.77,161121,,,D*7E

$GPGGA,135539.000,5131.8275,N,00003.5948,W,2,09,0.93,48.1,M,47.0,M,0000,0000*45

$GPRMC,135544.000,A,5131.8262,N,00003.5937,W,0.99,150.29,161121,,,D*73

$GPGGA,135545.000,5131.8258,N,00003.5934,W,2,07,1.03,49.1,M,47.0,M,0000,0000*4D

$GPRMC,135550.000,A,5131.8246,N,00003.5926,W,0.97,152.61,161121,,,D*70

$GPGGA,135551.000,5131.8246,N,00003.5927,W,2,06,1.11,50.1,M,47.0,M,0000,0000*4F

$GPRMC,135556.000,A,5131.8257,N,00003.5918,W,0.61,141.11,161121,,,D*77

$GPGGA,135557.000,5131.8261,N,00003.5912,W,2,06,1.11,51.1,M,47.0,M,0000,0000*4B

$GPRMC,135602.000,A,5131.8261,N,00003.5900,W,0.61,101.61,161121,,,D*7A

$GPGGA,135603.000,5131.8266,N,00003.5889,W,2,04,3.26,51.4,M,47.0,M,0000,0000*4C

$GPRMC,135608.000,A,5131.8291,N,00003.5899,W,0.47,56.51,161121,,,D*4A

$GPGGA,135609.000,5131.8292,N,00003.5897,W,2,06,1.13,51.6,M,47.0,M,0000,0000*46

$GPRMC,135614.000,A,5131.8330,N,00003.5843,W,0.25,38.24,161121,,,D*44

$GPGGA,135615.000,5131.8337,N,00003.5833,W,2,06,1.13,51.2,M,47.0,M,0000,0000*4F

$GPRMC,135620.000,A,5131.8341,N,00003.5791,W,0.12,310.29,161121,,,D*75

$GPGGA,135621.000,5131.8341,N,00003.5792,W,2,09,0.93,50.9,M,47.0,M,0000,0000*41

$GPRMC,135626.000,A,5131.8341,N,00003.5798,W,0.49,282.65,161121,,,D*76

$GPGGA,135627.000,5131.8342,N,00003.5800,W,2,09,0.93,50.9,M,47.0,M,0000,0000*40

$GPRMC,135632.000,A,5131.8343,N,00003.5807,W,0.31,250.44,161121,,,D*7B

$GPGGA,135633.000,5131.8342,N,00003.5808,W,2,09,0.93,50.9,M,47.0,M,0000,0000*4D

$GPRMC,135638.000,A,5131.8341,N,00003.5814,W,0.38,245.01,161121,,,D*7D

$GPGGA,135639.000,5131.8340,N,00003.5816,W,2,09,0.93,50.9,M,47.0,M,0000,0000*4A

$GPRMC,135644.000,A,5131.8339,N,00003.5822,W,0.17,251.75,161121,,,D*77

$GPGGA,135645.000,5131.8339,N,00003.5823,W,2,08,1.05,50.9,M,47.0,M,0000,0000*46

