$GPGGA,162257.000,5131.7984,N,00003.5763,W,1,05,2.74,38.3,M,47.0,M,,*44

$GPRMC,162257.000,A,5131.7984,N,00003.5763,W,0.14,92.48,111121,,,A*48

$GPRMC,162302.000,A,5131.7974,N,00003.5792,W,1.21,257.51,111121,,,A*7C

$GPGGA,162303.000,5131.7972,N,00003.5804,W,1,05,2.74,38.4,M,47.0,M,,*44

$GPRMC,162308.000,A,5131.7967,N,00003.5830,W,1.64,255.71,111121,,,A*72

$GPGGA,162309.000,5131.7967,N,00003.5833,W,1,05,2.74,37.5,M,47.0,M,,*40

$GPRMC,162314.000,A,5131.7958,N,00003.5869,W,1.66,262.46,111121,,,A*7D

$GPGGA,162315.000,5131.7956,N,00003.5875,W,1,05,2.74,36.2,M,47.0,M,,*4B

$GPRMC,162320.000,A,5131.7936,N,00003.5928,W,2.04,248.83,111121,,,A*70

$GPGGA,162321.000,5131.7930,N,00003.5941,W,1,05,2.74,35.1,M,47.0,M,,*4A

$GPRMC,162326.000,A,5131.7911,N,00003.5980,W,1.25,258.72,111121,,,A*7E

$GPGGA,162327.000,5131.7910,N,00003.5983,W,1,05,2.74,34.2,M,47.0,M,,*42

$GPRMC,162332.000,A,5131.7898,N,00003.6018,W,1.21,248.14,111121,,,A*75

$GPGGA,162333.000,5131.7897,N,00003.6020,W,1,05,2.74,32.4,M,47.0,M,,*4A

$GPRMC,162338.000,A,5131.7873,N,00003.6083,W,2.86,290.86,111121,,,A*78

$GPGGA,162339.000,5131.7874,N,00003.6093,W,1,05,2.73,32.1,M,47.0,M,,*47

$GPRMC,162344.000,A,5131.7877,N,00003.6117,W,0.99,321.63,111121,,,A*77

$GPGGA,162345.000,5131.7878,N,00003.6121,W,1,05,2.73,31.8,M,47.0,M,,*42

$GPRMC,162350.000,A,5131.7888,N,00003.6133,W,0.89,296.15,111121,,,A*79

$GPGGA,162351.000,5131.7888,N,00003.6136,W,1,05,2.73,31.9,M,47.0,M,,*4F

$GPRMC,162356.000,A,5131.7881,N,00003.6160,W,1.08,258.43,111121,,,A*79

$GPGGA,162357.000,5131.7882,N,00003.6168,W,1,05,2.73,32.0,M,47.0,M,,*42

$GPRMC,162402.000,A,5131.7889,N,00003.6203,W,1.81,327.70,111121,,,A*79

$GPGGA,162403.000,5131.7894,N,00003.6207,W,1,04,3.45,32.6,M,47.0,M,,*4A

$GPRMC,162408.000,A,5131.7933,N,00003.6187,W,1.86,11.61,111121,,,A*4D

$GPGGA,162409.000,5131.7939,N,00003.6187,W,1,05,5.83,33.7,M,47.0,M,,*40

$GPGGA,162414.000,5131.7963,N,00003.6200,W,1,05,5.84,35.1,M,47.0,M,,*48

$GPRMC,162414.000,A,5131.7963,N,00003.6200,W,1.97,334.99,111121,,,A*7A

$GPRMC,162419.000,A,5131.7985,N,00003.6225,W,1.40,319.77,111121,,,A*7D

$GPGGA,162420.000,5131.7972,N,00003.6243,W,1,05,2.73,36.1,M,47.0,M,,*44

$GPRMC,162425.000,A,5131.7933,N,00003.6316,W,1.54,311.66,111121,,,A*73

$GPGGA,162426.000,5131.7928,N,00003.6329,W,1,05,2.73,35.5,M,47.0,M,,*47

$GPRMC,162431.000,A,5131.7849,N,00003.6460,W,2.80,235.08,111121,,,A*79

$GPGGA,162432.000,5131.7815,N,00003.6511,W,1,05,1.31,38.9,M,47.0,M,,*44

$GPRMC,162437.000,A,5131.7663,N,00003.6754,W,2.95,245.14,111121,,,A*73

$GPGGA,162438.000,5131.7630,N,00003.6809,W,1,06,1.24,50.1,M,47.0,M,,*42

$GPRMC,162443.000,A,5131.7588,N,00003.6898,W,2.64,244.33,111121,,,A*73

$GPGGA,162444.000,5131.7582,N,00003.6909,W,1,05,1.31,52.6,M,47.0,M,,*40

$GPRMC,162449.000,A,5131.7562,N,00003.6967,W,2.69,250.43,111121,,,A*73

$GPGGA,162450.000,5131.7558,N,00003.6977,W,1,05,1.31,53.9,M,47.0,M,,*45

$GPRMC,162455.000,A,5131.7547,N,00003.7034,W,2.71,266.15,111121,,,A*78

$GPGGA,162456.000,5131.7543,N,00003.7046,W,1,06,1.24,55.0,M,47.0,M,,*4B

$GPRMC,162501.000,A,5131.7529,N,00003.7101,W,2.60,244.51,111121,,,A*77

$GPGGA,162502.000,5131.7524,N,00003.7113,W,1,05,1.31,56.0,M,47.0,M,,*4F

$GPRMC,162507.000,A,5131.7508,N,00003.7168,W,2.04,247.64,111121,,,A*7A

$GPGGA,162508.000,5131.7502,N,00003.7174,W,1,06,1.24,57.0,M,47.0,M,,*46

$GPRMC,162513.000,A,5131.7488,N,00003.7227,W,2.68,264.00,111121,,,A*77

$GPGGA,162514.000,5131.7485,N,00003.7237,W,1,06,1.24,57.6,M,47.0,M,,*47

$GPRMC,162519.000,A,5131.7455,N,00003.7264,W,3.70,199.19,111121,,,A*7B

$GPGGA,162520.000,5131.7447,N,00003.7269,W,1,05,1.40,58.2,M,47.0,M,,*4F

$GPRMC,162525.000,A,5131.7423,N,00003.7310,W,2.61,252.08,111121,,,A*72

$GPGGA,162526.000,5131.7420,N,00003.7321,W,1,06,1.24,59.7,M,47.0,M,,*40

$GPRMC,162531.000,A,5131.7402,N,00003.7364,W,2.40,236.80,111121,,,A*76

$GPGGA,162532.000,5131.7397,N,00003.7370,W,1,06,1.24,62.1,M,47.0,M,,*44

$GPRMC,162537.000,A,5131.7383,N,00003.7404,W,1.96,256.09,111121,,,A*70

$GPGGA,162538.000,5131.7381,N,00003.7410,W,1,06,1.24,63.8,M,47.0,M,,*40

$GPRMC,162543.000,A,5131.7364,N,00003.7450,W,2.34,253.73,111121,,,A*78

$GPGGA,162544.000,5131.7362,N,00003.7461,W,1,06,1.24,64.9,M,47.0,M,,*46

$GPRMC,162549.000,A,5131.7362,N,00003.7521,W,2.58,267.44,111121,,,A*7A

$GPGGA,162550.000,5131.7363,N,00003.7532,W,1,06,1.24,66.2,M,47.0,M,,*4C

$GPRMC,162555.000,A,5131.7366,N,00003.7594,W,2.22,278.14,111121,,,A*7B

$GPGGA,162556.000,5131.7367,N,00003.7609,W,1,06,1.24,67.0,M,47.0,M,,*46

$GPRMC,162601.000,A,5131.7367,N,00003.7686,W,1.67,283.64,111121,,,A*79

$GPGGA,162602.000,5131.7368,N,00003.7700,W,1,06,1.24,66.3,M,47.0,M,,*41

$GPRMC,162607.000,A,5131.7361,N,00003.7772,W,2.78,255.81,111121,,,A*7E

$GPGGA,162608.000,5131.7358,N,00003.7787,W,1,06,1.24,67.0,M,47.0,M,,*45

$GPRMC,162613.000,A,5131.7349,N,00003.7848,W,2.07,286.86,111121,,,A*76

$GPGGA,162614.000,5131.7348,N,00003.7859,W,1,06,1.24,68.3,M,47.0,M,,*49

$GPRMC,162619.000,A,5131.7336,N,00003.7906,W,2.40,280.65,111121,,,A*77

$GPGGA,162620.000,5131.7334,N,00003.7916,W,1,06,1.24,70.1,M,47.0,M,,*44

$GPRMC,162625.000,A,5131.7322,N,00003.7946,W,1.50,293.85,111121,,,A*77

$GPGGA,162626.000,5131.7322,N,00003.7953,W,1,06,1.24,72.1,M,47.0,M,,*46

$GPRMC,162631.000,A,5131.7317,N,00003.8002,W,1.49,276.09,111121,,,A*75

$GPGGA,162632.000,5131.7315,N,00003.8015,W,1,06,1.24,75.0,M,47.0,M,,*45

$GPRMC,162637.000,A,5131.7303,N,00003.8075,W,2.36,273.60,111121,,,A*77

$GPGGA,162638.000,5131.7301,N,00003.8085,W,1,06,1.24,78.4,M,47.0,M,,*4A

$GPRMC,162643.000,A,5131.7297,N,00003.8139,W,2.30,269.50,111121,,,A*7F

$GPGGA,162644.000,5131.7296,N,00003.8149,W,1,06,1.24,81.3,M,47.0,M,,*4E

$GPRMC,162649.000,A,5131.7297,N,00003.8203,W,2.56,276.37,111121,,,A*70

$GPGGA,162650.000,5131.7298,N,00003.8215,W,1,06,1.24,84.8,M,47.0,M,,*41

$GPRMC,162655.000,A,5131.7297,N,00003.8277,W,2.69,272.61,111121,,,A*75

$GPGGA,162656.000,5131.7295,N,00003.8292,W,1,06,1.24,87.7,M,47.0,M,,*49

$GPRMC,162701.000,A,5131.7295,N,00003.8349,W,1.83,281.05,111121,,,A*72

$GPGGA,162702.000,5131.7296,N,00003.8356,W,1,06,1.24,90.8,M,47.0,M,,*4A

$GPRMC,162707.000,A,5131.7325,N,00003.8396,W,2.16,338.02,111121,,,A*77

$GPGGA,162708.000,5131.7334,N,00003.8402,W,1,06,1.24,92.3,M,47.0,M,,*46

$GPRMC,162713.000,A,5131.7361,N,00003.8433,W,2.24,337.92,111121,,,A*7D

$GPGGA,162714.000,5131.7365,N,00003.8438,W,1,06,1.24,91.1,M,47.0,M,,*47

$GPRMC,162719.000,A,5131.7394,N,00003.8457,W,2.20,345.28,111121,,,A*7F

$GPGGA,162720.000,5131.7401,N,00003.8464,W,1,06,1.38,89.0,M,47.0,M,,*49

$GPRMC,162725.000,A,5131.7401,N,00003.8497,W,2.21,324.71,111121,,,A*7D

$GPGGA,162726.000,5131.7402,N,00003.8506,W,1,06,1.24,85.2,M,47.0,M,,*4A

$GPRMC,162731.000,A,5131.7401,N,00003.8521,W,2.18,331.20,111121,,,A*7E

$GPGGA,162732.000,5131.7402,N,00003.8508,W,1,07,1.11,80.7,M,47.0,M,,*46

$GPRMC,162737.000,A,5131.7417,N,00003.8510,W,2.77,344.33,111121,,,A*74

$GPGGA,162738.000,5131.7418,N,00003.8510,W,1,07,1.11,75.4,M,47.0,M,,*47

$GPRMC,162743.000,A,5131.7430,N,00003.8510,W,2.48,351.71,111121,,,A*7C

$GPGGA,162744.000,5131.7436,N,00003.8513,W,1,07,1.19,70.6,M,47.0,M,,*4C

$GPRMC,162749.000,A,5131.7462,N,00003.8521,W,2.31,347.01,111121,,,A*7D

$GPGGA,162750.000,5131.7465,N,00003.8523,W,1,07,1.19,65.5,M,47.0,M,,*4B

$GPRMC,162755.000,A,5131.7462,N,00003.8561,W,2.15,253.17,111121,,,A*71

$GPGGA,162756.000,5131.7461,N,00003.8570,W,1,07,1.11,62.6,M,47.0,M,,*43

$GPRMC,162801.000,A,5131.7471,N,00003.8605,W,2.32,285.61,111121,,,A*73

$GPGGA,162802.000,5131.7474,N,00003.8614,W,1,08,1.02,61.5,M,47.0,M,,*45

$GPRMC,162807.000,A,5131.7474,N,00003.8662,W,2.55,273.90,111121,,,A*77

$GPGGA,162808.000,5131.7476,N,00003.8667,W,1,08,1.02,60.8,M,47.0,M,,*45

$GPRMC,162813.000,A,5131.7488,N,00003.8704,W,2.33,267.80,111121,,,A*74

$GPGGA,162814.000,5131.7488,N,00003.8712,W,1,08,1.02,60.0,M,47.0,M,,*42

$GPRMC,162819.000,A,5131.7481,N,00003.8756,W,2.40,261.69,111121,,,A*75

$GPGGA,162820.000,5131.7476,N,00003.8766,W,1,08,1.02,59.1,M,47.0,M,,*4C

$GPRMC,162824.000,A,5131.7464,N,00003.8809,W,2.42,267.67,111121,,,A*7F

$GPGGA,162825.000,5131.7460,N,00003.8820,W,1,08,1.02,57.7,M,47.0,M,,*4B

$GPRMC,162830.000,A,5131.7444,N,00003.8880,W,2.76,257.31,111121,,,A*7E

$GPGGA,162831.000,5131.7443,N,00003.8893,W,1,08,1.02,56.0,M,47.0,M,,*41

$GPGGA,162836.000,5131.7443,N,00003.8942,W,1,08,1.02,55.2,M,47.0,M,,*4A

$GPRMC,162836.000,A,5131.7443,N,00003.8942,W,2.02,271.05,111121,,,A*70

$GPRMC,162841.000,A,5131.7474,N,00003.8977,W,2.82,330.49,111121,,,A*76

$GPGGA,162842.000,5131.7480,N,00003.8983,W,1,08,1.02,54.6,M,47.0,M,,*4E

$GPRMC,162847.000,A,5131.7518,N,00003.9008,W,2.35,341.01,111121,,,A*7D

$GPGGA,162848.000,5131.7525,N,00003.9012,W,1,08,1.02,53.7,M,47.0,M,,*4C

$GPRMC,162853.000,A,5131.7573,N,00003.9036,W,2.66,348.68,111121,,,A*78

$GPGGA,162854.000,5131.7579,N,00003.9042,W,1,07,1.15,52.6,M,47.0,M,,*44

$GPRMC,162859.000,A,5131.7621,N,00003.9060,W,2.30,344.67,111121,,,A*75

$GPGGA,162900.000,5131.7630,N,00003.9061,W,1,07,1.13,50.9,M,47.0,M,,*40

$GPRMC,162905.000,A,5131.7667,N,00003.9072,W,2.19,339.04,111121,,,A*78

$GPGGA,162906.000,5131.7675,N,00003.9073,W,1,07,1.13,49.2,M,47.0,M,,*47

$GPRMC,162911.000,A,5131.7726,N,00003.9078,W,2.77,352.94,111121,,,A*7F

$GPGGA,162912.000,5131.7735,N,00003.9080,W,1,07,1.15,47.0,M,47.0,M,,*41

$GPRMC,162917.000,A,5131.7770,N,00003.9100,W,2.62,334.64,111121,,,A*7F

$GPGGA,162918.000,5131.7775,N,00003.9104,W,1,07,1.13,43.8,M,47.0,M,,*48

$GPRMC,162923.000,A,5131.7779,N,00003.9139,W,2.34,344.56,111121,,,A*7E

$GPGGA,162924.000,5131.7774,N,00003.9152,W,1,07,1.13,37.4,M,47.0,M,,*4A

$GPRMC,162929.000,A,5131.7742,N,00003.9199,W,2.53,345.83,111121,,,A*7E

$GPGGA,162930.000,5131.7746,N,00003.9201,W,1,07,1.14,29.6,M,47.0,M,,*41

$GPRMC,162935.000,A,5131.7764,N,00003.9204,W,2.51,345.88,111121,,,A*79

$GPGGA,162936.000,5131.7769,N,00003.9206,W,1,07,1.14,27.9,M,47.0,M,,*4C

$GPRMC,162941.000,A,5131.7779,N,00003.9220,W,1.27,18.32,111121,,,A*48

$GPGGA,162942.000,5131.7780,N,00003.9221,W,1,07,1.13,26.3,M,47.0,M,,*41

$GPGGA,162947.000,5131.7802,N,00003.9221,W,2,07,1.14,24.7,M,47.0,M,0000,0000*43

$GPRMC,162947.000,A,5131.7802,N,00003.9221,W,1.70,356.61,111121,,,D*74

$GPRMC,162952.000,A,5131.7830,N,00003.9235,W,1.92,340.44,111121,,,D*78

$GPGGA,162953.000,5131.7840,N,00003.9237,W,2,07,1.13,21.4,M,47.0,M,0000,0000*46

$GPRMC,162958.000,A,5131.7877,N,00003.9261,W,2.56,338.68,111121,,,D*7A

$GPGGA,162959.000,5131.7886,N,00003.9264,W,2,07,1.13,19.6,M,47.0,M,0000,0000*49

$GPRMC,163004.000,A,5131.7924,N,00003.9269,W,1.94,330.04,111121,,,D*7B

$GPGGA,163005.000,5131.7936,N,00003.9270,W,2,07,1.13,18.0,M,47.0,M,0000,0000*40

$GPRMC,163010.000,A,5131.7981,N,00003.9284,W,2.40,340.93,111121,,,D*71

$GPGGA,163011.000,5131.7993,N,00003.9285,W,2,07,1.13,16.3,M,47.0,M,0000,0000*4D

$GPRMC,163016.000,A,5131.8030,N,00003.9297,W,2.56,349.15,111121,,,D*79

$GPGGA,163017.000,5131.8036,N,00003.9299,W,2,07,1.14,14.4,M,47.0,M,0000,0000*4D

$GPGGA,163022.000,5131.8067,N,00003.9310,W,2,07,1.13,11.9,M,47.0,M,0000,0000*40

$GPRMC,163022.000,A,5131.8067,N,00003.9310,W,2.02,333.16,111121,,,D*7D

$GPRMC,163027.000,A,5131.8087,N,00003.9336,W,2.01,333.07,111121,,,D*71

$GPGGA,163028.000,5131.8092,N,00003.9340,W,2,07,1.13,9.3,M,47.0,M,0000,0000*76

$GPRMC,163033.000,A,5131.8118,N,00003.9350,W,2.05,344.99,111121,,,D*70

$GPGGA,163034.000,5131.8124,N,00003.9350,W,2,07,1.13,7.9,M,47.0,M,0000,0000*72

$GPRMC,163039.000,A,5131.8182,N,00003.9349,W,2.32,339.10,111121,,,D*7E

$GPGGA,163040.000,5131.8187,N,00003.9352,W,2,07,1.13,8.9,M,47.0,M,0000,0000*75

$GPRMC,163045.000,A,5131.8220,N,00003.9364,W,2.35,337.50,111121,,,D*7C

$GPGGA,163046.000,5131.8228,N,00003.9368,W,2,07,1.13,8.1,M,47.0,M,0000,0000*74

$GPRMC,163051.000,A,5131.8262,N,00003.9365,W,1.52,354.01,111121,,,D*7D

$GPGGA,163052.000,5131.8269,N,00003.9367,W,2,07,1.14,8.8,M,47.0,M,0000,0000*75

$GPRMC,163057.000,A,5131.8310,N,00003.9372,W,3.14,358.13,111121,,,D*76

$GPGGA,163058.000,5131.8322,N,00003.9372,W,2,07,1.14,9.1,M,47.0,M,0000,0000*7D

$GPRMC,163103.000,A,5131.8361,N,00003.9387,W,2.68,345.07,111121,,,D*79

$GPGGA,163104.000,5131.8370,N,00003.9389,W,2,07,1.14,8.3,M,47.0,M,0000,0000*75

$GPRMC,163109.000,A,5131.8410,N,00003.9410,W,2.33,339.80,111121,,,D*71

$GPGGA,163110.000,5131.8420,N,00003.9415,W,2,07,1.12,8.0,M,47.0,M,0000,0000*75

$GPRMC,163115.000,A,5131.8449,N,00003.9418,W,1.41,354.79,111121,,,D*73

$GPGGA,163116.000,5131.8458,N,00003.9422,W,2,07,1.14,7.2,M,47.0,M,0000,0000*73

$GPRMC,163121.000,A,5131.8501,N,00003.9443,W,2.35,340.31,111121,,,D*7E

$GPGGA,163122.000,5131.8508,N,00003.9446,W,2,07,1.12,7.3,M,47.0,M,0000,0000*75

$GPRMC,163127.000,A,5131.8535,N,00003.9459,W,1.79,347.09,111121,,,D*73

$GPGGA,163128.000,5131.8541,N,00003.9464,W,2,07,1.14,6.5,M,47.0,M,0000,0000*73

$GPRMC,163133.000,A,5131.8573,N,00003.9489,W,2.90,356.45,111121,,,D*75

$GPGGA,163134.000,5131.8579,N,00003.9492,W,2,07,1.14,5.8,M,47.0,M,0000,0000*72

$GPRMC,163139.000,A,5131.8616,N,00003.9500,W,2.31,341.24,111121,,,D*75

$GPGGA,163140.000,5131.8623,N,00003.9501,W,2,07,1.12,5.1,M,47.0,M,0000,0000*79

$GPRMC,163145.000,A,5131.8664,N,00003.9517,W,2.16,349.41,111121,,,D*73

$GPGGA,163146.000,5131.8669,N,00003.9517,W,2,07,1.14,4.4,M,47.0,M,0000,0000*74

$GPRMC,163151.000,A,5131.8688,N,00003.9533,W,2.99,279.92,111121,,,D*79

$GPGGA,163152.000,5131.8687,N,00003.9546,W,2,07,1.12,4.3,M,47.0,M,0000,0000*74

$GPRMC,163157.000,A,5131.8681,N,00003.9585,W,1.37,276.35,111121,,,D*7E

$GPGGA,163158.000,5131.8685,N,00003.9592,W,2,07,1.12,4.2,M,47.0,M,0000,0000*74

$GPRMC,163203.000,A,5131.8694,N,00003.9650,W,1.99,268.84,111121,,,D*72

$GPGGA,163204.000,5131.8694,N,00003.9662,W,2,07,1.12,3.8,M,47.0,M,0000,0000*7F

$GPRMC,163209.000,A,5131.8684,N,00003.9714,W,2.48,253.18,111121,,,D*7A

$GPGGA,163210.000,5131.8683,N,00003.9725,W,2,07,1.12,3.5,M,47.0,M,0000,0000*73

$GPRMC,163215.000,A,5131.8677,N,00003.9779,W,2.61,257.74,111121,,,D*75

$GPGGA,163216.000,5131.8676,N,00003.9790,W,2,07,1.12,3.6,M,47.0,M,0000,0000*72

$GPRMC,163221.000,A,5131.8679,N,00003.9852,W,2.50,260.32,111121,,,D*7E

$GPGGA,163222.000,5131.8679,N,00003.9864,W,2,07,1.12,5.0,M,47.0,M,0000,0000*7E

$GPRMC,163227.000,A,5131.8674,N,00003.9925,W,2.56,271.59,111121,,,D*7F

$GPGGA,163228.000,5131.8671,N,00003.9936,W,2,07,1.12,5.6,M,47.0,M,0000,0000*7C

$GPRMC,163233.000,A,5131.8662,N,00003.9999,W,3.13,256.77,111121,,,D*73

$GPGGA,163234.000,5131.8659,N,00004.0012,W,2,07,1.12,5.8,M,47.0,M,0000,0000*74

$GPRMC,163239.000,A,5131.8656,N,00004.0069,W,2.03,273.10,111121,,,D*70

$GPGGA,163240.000,5131.8655,N,00004.0080,W,2,07,1.12,5.9,M,47.0,M,0000,0000*71

$GPRMC,163245.000,A,5131.8651,N,00004.0135,W,2.05,258.35,111121,,,D*7C

$GPGGA,163246.000,5131.8648,N,00004.0145,W,2,07,1.12,6.2,M,47.0,M,0000,0000*7B

$GPRMC,163251.000,A,5131.8657,N,00004.0207,W,2.71,269.68,111121,,,D*74

$GPGGA,163252.000,5131.8657,N,00004.0219,W,2,07,1.12,7.0,M,47.0,M,0000,0000*79

$GPRMC,163257.000,A,5131.8657,N,00004.0282,W,2.52,257.72,111121,,,D*78

$GPGGA,163258.000,5131.8654,N,00004.0293,W,2,07,1.12,7.3,M,47.0,M,0000,0000*71

$GPRMC,163303.000,A,5131.8643,N,00004.0337,W,1.13,285.06,111121,,,D*78

$GPGGA,163304.000,5131.8643,N,00004.0341,W,2,07,1.12,7.3,M,47.0,M,0000,0000*71

$GPRMC,163309.000,A,5131.8645,N,00004.0347,W,0.13,23.15,111121,,,D*4E

$GPGGA,163310.000,5131.8645,N,00004.0347,W,2,07,1.12,7.3,M,47.0,M,0000,0000*74

$GPRMC,163315.000,A,5131.8646,N,00004.0348,W,0.02,327.63,111121,,,D*79

$GPGGA,163316.000,5131.8645,N,00004.0348,W,2,07,1.12,7.3,M,47.0,M,0000,0000*7D

$GPRMC,163321.000,A,5131.8642,N,00004.0347,W,0.00,323.92,111121,,,D*7D

$GPGGA,163322.000,5131.8643,N,00004.0348,W,2,07,1.12,7.0,M,47.0,M,0000,0000*7F

$GPRMC,163327.000,A,5131.8646,N,00004.0348,W,0.13,88.23,111121,,,D*4A

$GPGGA,163328.000,5131.8650,N,00004.0350,W,2,07,1.12,6.5,M,47.0,M,0000,0000*7A

$GPRMC,163333.000,A,5131.8655,N,00004.0360,W,0.11,299.05,111121,,,D*73

$GPGGA,163334.000,5131.8656,N,00004.0360,W,2,09,0.89,5.8,M,47.0,M,0000,0000*71

$GPRMC,163339.000,A,5131.8658,N,00004.0369,W,0.25,240.74,111121,,,D*78

$GPGGA,163340.000,5131.8657,N,00004.0370,W,2,09,0.89,5.8,M,47.0,M,0000,0000*72

$GPRMC,163345.000,A,5131.8657,N,00004.0373,W,0.06,222.88,111121,,,D*71

$GPGGA,163346.000,5131.8657,N,00004.0373,W,2,09,0.89,5.8,M,47.0,M,0000,0000*77

$GPRMC,163351.000,A,5131.8658,N,00004.0371,W,0.05,22.34,111121,,,D*4F

$GPGGA,163352.000,5131.8658,N,00004.0370,W,2,09,0.89,5.5,M,47.0,M,0000,0000*73

$GPRMC,163357.000,A,5131.8657,N,00004.0369,W,0.13,183.40,111121,,,D*71

$GPGGA,163358.000,5131.8657,N,00004.0369,W,2,09,0.89,5.5,M,47.0,M,0000,0000*7E

$GPRMC,163403.000,A,5131.8657,N,00004.0371,W,0.65,229.47,111121,,,D*7B

$GPGGA,163404.000,5131.8656,N,00004.0366,W,2,09,0.89,5.5,M,47.0,M,0000,0000*7E

$GPRMC,163408.000,A,5131.8658,N,00004.0361,W,0.17,95.80,111121,,,D*45

$GPGGA,163409.000,5131.8658,N,00004.0358,W,2,09,0.89,5.5,M,47.0,M,0000,0000*70

$GPGGA,163414.000,5131.8662,N,00004.0361,W,2,09,0.89,4.6,M,47.0,M,0000,0000*7D

$GPRMC,163414.000,A,5131.8662,N,00004.0361,W,0.12,292.70,111121,,,D*7E

$GPRMC,163419.000,A,5131.8662,N,00004.0363,W,0.27,228.79,111121,,,D*7F

$GPGGA,163420.000,5131.8662,N,00004.0363,W,2,09,0.89,4.3,M,47.0,M,0000,0000*7D

$GPRMC,163425.000,A,5131.8661,N,00004.0357,W,0.17,15.34,111121,,,D*42

$GPGGA,163426.000,5131.8668,N,00004.0357,W,2,09,0.89,4.6,M,47.0,M,0000,0000*73

$GPRMC,163431.000,A,5131.8696,N,00004.0381,W,2.65,342.15,111121,,,D*71

$GPGGA,163432.000,5131.8704,N,00004.0386,W,2,09,0.89,4.3,M,47.0,M,0000,0000*74

$GPRMC,163437.000,A,5131.8712,N,00004.0430,W,2.34,271.21,111121,,,D*75

$GPGGA,163438.000,5131.8712,N,00004.0440,W,2,09,0.89,5.3,M,47.0,M,0000,0000*75

$GPRMC,163443.000,A,5131.8731,N,00004.0450,W,1.83,348.76,111121,,,D*77

$GPGGA,163444.000,5131.8736,N,00004.0452,W,2,09,0.89,6.3,M,47.0,M,0000,0000*78

$GPRMC,163449.000,A,5131.8767,N,00004.0474,W,1.79,341.60,111121,,,D*73

$GPGGA,163450.000,5131.8773,N,00004.0479,W,2,09,0.89,6.6,M,47.0,M,0000,0000*70

$GPRMC,163455.000,A,5131.8815,N,00004.0497,W,2.55,350.53,111121,,,D*74

$GPGGA,163456.000,5131.8823,N,00004.0499,W,2,09,0.89,6.1,M,47.0,M,0000,0000*75

$GPRMC,163501.000,A,5131.8858,N,00004.0497,W,2.43,359.50,111121,,,D*70

$GPGGA,163502.000,5131.8867,N,00004.0498,W,2,09,0.89,5.9,M,47.0,M,0000,0000*7F

$GPRMC,163507.000,A,5131.8897,N,00004.0497,W,2.22,2.08,111121,,,D*72

$GPGGA,163508.000,5131.8902,N,00004.0497,W,2,09,0.89,5.7,M,47.0,M,0000,0000*76

$GPRMC,163513.000,A,5131.8927,N,00004.0511,W,1.91,342.44,111121,,,D*76

$GPGGA,163514.000,5131.8935,N,00004.0515,W,2,09,0.89,5.8,M,47.0,M,0000,0000*7B

$GPRMC,163519.000,A,5131.8974,N,00004.0523,W,2.28,352.90,111121,,,D*72

$GPGGA,163520.000,5131.8981,N,00004.0524,W,2,09,0.89,5.6,M,47.0,M,0000,0000*7F

$GPRMC,163525.000,A,5131.9008,N,00004.0514,W,2.32,0.42,111121,,,D*7A

$GPGGA,163526.000,5131.9017,N,00004.0515,W,2,09,0.89,6.4,M,47.0,M,0000,0000*7D

$GPRMC,163531.000,A,5131.9056,N,00004.0533,W,1.60,343.41,111121,,,D*72

$GPGGA,163532.000,5131.9063,N,00004.0535,W,2,09,0.89,5.2,M,47.0,M,0000,0000*7C

$GPRMC,163537.000,A,5131.9085,N,00004.0543,W,1.39,1.33,111121,,,D*71

$GPGGA,163538.000,5131.9090,N,00004.0545,W,2,09,0.89,4.3,M,47.0,M,0000,0000*7D

$GPGGA,163543.000,5131.9117,N,00004.0567,W,2,09,0.89,4.2,M,47.0,M,0000,0000*7E

$GPRMC,163543.000,A,5131.9117,N,00004.0567,W,2.01,322.51,111121,,,D*70

$GPRMC,163548.000,A,5131.9134,N,00004.0620,W,2.36,297.31,111121,,,D*77

$GPGGA,163549.000,5131.9136,N,00004.0630,W,2,09,0.89,4.2,M,47.0,M,0000,0000*76

$GPRMC,163554.000,A,5131.9147,N,00004.0652,W,0.39,293.38,111121,,,D*7B

$GPGGA,163555.000,5131.9147,N,00004.0654,W,2,09,0.89,4.5,M,47.0,M,0000,0000*78

$GPRMC,163600.000,A,5131.9151,N,00004.0650,W,0.14,31.61,111121,,,D*45

$GPGGA,163601.000,5131.9151,N,00004.0650,W,2,09,0.89,4.3,M,47.0,M,0000,0000*7F

$GPRMC,163606.000,A,5131.9152,N,00004.0651,W,0.17,38.22,111121,,,D*4C

$GPGGA,163607.000,5131.9153,N,00004.0650,W,2,09,0.89,4.3,M,47.0,M,0000,0000*7B

$GPRMC,163612.000,A,5131.9155,N,00004.0649,W,0.20,294.19,111121,,,D*7F

$GPGGA,163613.000,5131.9155,N,00004.0649,W,2,08,0.94,4.3,M,47.0,M,0000,0000*7D

$GPRMC,163618.000,A,5131.9157,N,00004.0650,W,0.20,26.91,111121,,,D*44

$GPGGA,163619.000,5131.9158,N,00004.0650,W,2,09,0.89,4.3,M,47.0,M,0000,0000*7F

$GPRMC,163624.000,A,5131.9159,N,00004.0649,W,0.09,11.64,111121,,,D*48

$GPGGA,163625.000,5131.9160,N,00004.0649,W,2,08,0.94,4.3,M,47.0,M,0000,0000*7E

$GPRMC,163630.000,A,5131.9160,N,00004.0649,W,0.02,356.27,111121,,,D*7B

$GPGGA,163631.000,5131.9160,N,00004.0649,W,2,09,0.89,4.4,M,47.0,M,0000,0000*71

$GPRMC,163636.000,A,5131.9162,N,00004.0650,W,0.20,337.31,111121,,,D*77

$GPGGA,163637.000,5131.9165,N,00004.0650,W,2,09,0.89,4.6,M,47.0,M,0000,0000*78

$GPGGA,163642.000,5131.9169,N,00004.0639,W,2,09,0.89,5.8,M,47.0,M,0000,0000*76

$GPRMC,163642.000,A,5131.9169,N,00004.0639,W,0.11,9.85,111121,,,D*73

$GPRMC,163647.000,A,5131.9174,N,00004.0637,W,0.13,7.48,111121,,,D*79

$GPGGA,163648.000,5131.9174,N,00004.0637,W,2,09,0.89,6.0,M,47.0,M,0000,0000*75

$GPRMC,163653.000,A,5131.9175,N,00004.0639,W,0.22,293.58,111121,,,D*7F

$GPGGA,163654.000,5131.9175,N,00004.0640,W,2,09,0.89,6.0,M,47.0,M,0000,0000*79

$GPRMC,163659.000,A,5131.9176,N,00004.0642,W,0.16,0.73,111121,,,D*7C

$GPGGA,163700.000,5131.9176,N,00004.0642,W,2,09,0.89,6.0,M,47.0,M,0000,0000*78

$GPRMC,163705.000,A,5131.9176,N,00004.0640,W,0.02,129.86,111121,,,D*73

$GPGGA,163706.000,5131.9176,N,00004.0640,W,2,09,0.89,6.0,M,47.0,M,0000,0000*7C

$GPRMC,163711.000,A,5131.9177,N,00004.0639,W,0.19,348.84,111121,,,D*74

$GPGGA,163712.000,5131.9178,N,00004.0639,W,2,09,0.89,6.1,M,47.0,M,0000,0000*78

$GPRMC,163717.000,A,5131.9189,N,00004.0648,W,0.34,337.08,111121,,,D*76

$GPGGA,163718.000,5131.9190,N,00004.0649,W,2,09,0.89,6.4,M,47.0,M,0000,0000*76

$GPRMC,163723.000,A,5131.9194,N,00004.0654,W,0.14,268.69,111121,,,D*7E

$GPGGA,163724.000,5131.9194,N,00004.0655,W,2,09,0.89,6.4,M,47.0,M,0000,0000*70

$GPRMC,163729.000,A,5131.9195,N,00004.0657,W,0.10,352.80,111121,,,D*7D

$GPGGA,163730.000,5131.9196,N,00004.0657,W,2,09,0.89,6.4,M,47.0,M,0000,0000*75

$GPRMC,163735.000,A,5131.9197,N,00004.0659,W,0.06,197.41,111121,,,D*7D

$GPGGA,163736.000,5131.9196,N,00004.0659,W,2,09,0.89,6.4,M,47.0,M,0000,0000*7D

$GPRMC,163741.000,A,5131.9197,N,00004.0658,W,0.07,85.18,111121,,,D*40

$GPGGA,163742.000,5131.9197,N,00004.0658,W,2,09,0.89,6.4,M,47.0,M,0000,0000*7E

$GPRMC,163747.000,A,5131.9196,N,00004.0656,W,0.10,257.97,111121,,,D*75

$GPGGA,163748.000,5131.9196,N,00004.0654,W,2,09,0.89,6.4,M,47.0,M,0000,0000*79

$GPRMC,163753.000,A,5131.9191,N,00004.0656,W,0.18,269.39,111121,,,D*76

$GPGGA,163754.000,5131.9190,N,00004.0655,W,2,09,0.89,6.9,M,47.0,M,0000,0000*7E

$GPRMC,163759.000,A,5131.9189,N,00004.0657,W,0.16,197.95,111121,,,D*7E

$GPGGA,163800.000,5131.9190,N,00004.0658,W,2,08,0.94,7.6,M,47.0,M,0000,0000*7E

$GPRMC,163805.000,A,5131.9191,N,00004.0670,W,0.12,208.62,111121,,,D*7D

$GPGGA,163806.000,5131.9192,N,00004.0674,W,2,08,0.94,7.9,M,47.0,M,0000,0000*7B

$GPRMC,163811.000,A,5131.9196,N,00004.0686,W,0.22,272.15,111121,,,D*78

$GPGGA,163812.000,5131.9196,N,00004.0687,W,2,08,0.94,8.2,M,47.0,M,0000,0000*72

$GPRMC,163817.000,A,5131.9195,N,00004.0688,W,0.05,30.67,111121,,,D*47

$GPGGA,163818.000,5131.9193,N,00004.0686,W,2,09,0.89,8.4,M,47.0,M,0000,0000*77

$GPRMC,163823.000,A,5131.9189,N,00004.0672,W,0.07,146.51,111121,,,D*7F

$GPGGA,163824.000,5131.9190,N,00004.0672,W,2,09,0.89,9.0,M,47.0,M,0000,0000*75

$GPRMC,163829.000,A,5131.9184,N,00004.0664,W,0.09,158.91,111121,,,D*72

$GPGGA,163830.000,5131.9183,N,00004.0664,W,2,09,0.89,9.5,M,47.0,M,0000,0000*70

$GPGGA,163835.000,5131.9179,N,00004.0660,W,2,08,0.94,9.8,M,47.0,M,0000,0000*74

$GPRMC,163835.000,A,5131.9179,N,00004.0660,W,0.17,228.09,111121,,,D*73

$GPRMC,163840.000,A,5131.9179,N,00004.0660,W,0.13,188.53,111121,,,D*73

$GPGGA,163841.000,5131.9178,N,00004.0660,W,2,08,0.94,9.9,M,47.0,M,0000,0000*77

$GPRMC,163846.000,A,5131.9178,N,00004.0658,W,0.04,323.73,111121,,,D*78

$GPGGA,163847.000,5131.9177,N,00004.0659,W,2,09,0.89,10.5,M,47.0,M,0000,0000*4D

$GPRMC,163852.000,A,5131.9175,N,00004.0660,W,0.16,251.25,111121,,,D*7F

$GPGGA,163853.000,5131.9174,N,00004.0662,W,2,09,0.89,11.1,M,47.0,M,0000,0000*46

$GPRMC,163858.000,A,5131.9173,N,00004.0664,W,0.09,142.58,111121,,,D*72

$GPGGA,163859.000,5131.9173,N,00004.0663,W,2,09,0.89,11.5,M,47.0,M,0000,0000*4E

$GPGGA,163904.000,5131.9173,N,00004.0663,W,2,09,0.89,11.5,M,47.0,M,0000,0000*47

$GPRMC,163904.000,A,5131.9173,N,00004.0663,W,0.10,256.64,111121,,,D*7C

$GPRMC,163909.000,A,5131.9173,N,00004.0665,W,0.12,294.32,111121,,,D*78

$GPGGA,163910.000,5131.9173,N,00004.0666,W,2,09,0.89,11.5,M,47.0,M,0000,0000*47

$GPRMC,163915.000,A,5131.9173,N,00004.0666,W,0.13,243.42,111121,,,D*7A

$GPGGA,163916.000,5131.9173,N,00004.0667,W,2,09,0.89,11.5,M,47.0,M,0000,0000*40

$GPRMC,163921.000,A,5131.9173,N,00004.0668,W,0.02,95.15,111121,,,D*48

$GPGGA,163922.000,5131.9173,N,00004.0668,W,2,09,0.89,11.5,M,47.0,M,0000,0000*48

$GPRMC,163927.000,A,5131.9173,N,00004.0667,W,0.06,316.01,111121,,,D*78

$GPGGA,163928.000,5131.9174,N,00004.0668,W,2,09,0.89,11.5,M,47.0,M,0000,0000*45

$GPRMC,163933.000,A,5131.9173,N,00004.0668,W,0.10,349.04,111121,,,D*7A

$GPGGA,163934.000,5131.9174,N,00004.0668,W,2,09,0.89,11.5,M,47.0,M,0000,0000*48

$GPRMC,163939.000,A,5131.9173,N,00004.0668,W,0.07,191.21,111121,,,D*76

$GPGGA,163940.000,5131.9173,N,00004.0668,W,2,09,0.89,11.5,M,47.0,M,0000,0000*4C

$GPRMC,163945.000,A,5131.9173,N,00004.0670,W,0.13,60.57,111121,,,D*4F

$GPGGA,163946.000,5131.9173,N,00004.0669,W,2,09,0.89,11.5,M,47.0,M,0000,0000*4B

$GPRMC,163951.000,A,5131.9170,N,00004.0665,W,1.02,136.08,111121,,,D*74

$GPGGA,163952.000,5131.9167,N,00004.0662,W,2,09,0.89,11.5,M,47.0,M,0000,0000*40

$GPRMC,163957.000,A,5131.9154,N,00004.0633,W,1.70,129.38,111121,,,D*7F

$GPGGA,163958.000,5131.9149,N,00004.0627,W,2,09,0.89,11.5,M,47.0,M,0000,0000*47

$GPRMC,164003.000,A,5131.9126,N,00004.0600,W,2.28,153.79,111121,,,D*73

$GPGGA,164004.000,5131.9122,N,00004.0596,W,2,09,0.89,11.4,M,47.0,M,0000,0000*45

$GPGGA,164009.000,5131.9098,N,00004.0578,W,2,09,0.89,11.3,M,47.0,M,0000,0000*4F

$GPRMC,164009.000,A,5131.9098,N,00004.0578,W,2.26,161.59,111121,,,D*7C

$GPRMC,164014.000,A,5131.9067,N,00004.0566,W,2.52,169.89,111121,,,D*79

$GPGGA,164015.000,5131.9064,N,00004.0563,W,2,09,0.89,11.1,M,47.0,M,0000,0000*49

$GPGGA,164020.000,5131.9032,N,00004.0552,W,2,09,0.89,11.1,M,47.0,M,0000,0000*4E

$GPRMC,164020.000,A,5131.9032,N,00004.0552,W,2.56,170.65,111121,,,D*77

$GPRMC,164025.000,A,5131.9002,N,00004.0548,W,2.24,177.24,111121,,,D*7D

$GPGGA,164026.000,5131.8997,N,00004.0548,W,2,09,0.89,11.0,M,47.0,M,0000,0000*45

$GPRMC,164031.000,A,5131.8983,N,00004.0550,W,0.36,199.70,111121,,,D*70

$GPGGA,164032.000,5131.8982,N,00004.0549,W,2,09,0.89,11.4,M,47.0,M,0000,0000*41

$GPRMC,164037.000,A,5131.8981,N,00004.0527,W,1.56,161.58,111121,,,D*7E

$GPGGA,164038.000,5131.8975,N,00004.0525,W,2,09,0.89,13.1,M,47.0,M,0000,0000*4E

$GPRMC,164043.000,A,5131.8931,N,00004.0525,W,2.03,162.94,111121,,,D*74

$GPGGA,164044.000,5131.8921,N,00004.0524,W,2,09,0.89,14.2,M,47.0,M,0000,0000*41

$GPRMC,164049.000,A,5131.8877,N,00004.0526,W,1.79,171.16,111121,,,D*78

$GPGGA,164050.000,5131.8871,N,00004.0525,W,2,09,0.89,15.3,M,47.0,M,0000,0000*41

$GPRMC,164055.000,A,5131.8830,N,00004.0519,W,1.54,150.00,111121,,,D*71

$GPGGA,164056.000,5131.8824,N,00004.0515,W,2,09,0.89,16.9,M,47.0,M,0000,0000*4D

$GPRMC,164101.000,A,5131.8783,N,00004.0507,W,2.22,175.33,111121,,,D*7C

$GPGGA,164102.000,5131.8775,N,00004.0505,W,2,09,0.89,17.6,M,47.0,M,0000,0000*49

$GPRMC,164107.000,A,5131.8745,N,00004.0478,W,1.80,107.35,111121,,,D*71

$GPGGA,164108.000,5131.8740,N,00004.0469,W,2,09,0.89,18.5,M,47.0,M,0000,0000*42

$GPRMC,164113.000,A,5131.8729,N,00004.0417,W,2.03,69.55,111121,,,D*40

$GPGGA,164114.000,5131.8728,N,00004.0406,W,2,09,0.89,19.1,M,47.0,M,0000,0000*4D

$GPRMC,164119.000,A,5131.8724,N,00004.0343,W,2.50,91.38,111121,,,D*4B

$GPGGA,164120.000,5131.8724,N,00004.0330,W,2,09,0.89,19.4,M,47.0,M,0000,0000*41

$GPRMC,164125.000,A,5131.8726,N,00004.0271,W,2.19,88.50,111121,,,D*4D

$GPGGA,164126.000,5131.8727,N,00004.0258,W,2,08,1.05,20.3,M,47.0,M,0000,0000*42

$GPRMC,164131.000,A,5131.8736,N,00004.0186,W,2.76,71.08,111121,,,D*40

$GPGGA,164132.000,5131.8738,N,00004.0172,W,2,09,0.89,21.4,M,47.0,M,0000,0000*40

$GPRMC,164137.000,A,5131.8738,N,00004.0111,W,2.55,88.78,111121,,,D*46

$GPGGA,164138.000,5131.8738,N,00004.0099,W,2,09,0.89,22.0,M,47.0,M,0000,0000*49

$GPRMC,164143.000,A,5131.8730,N,00004.0049,W,2.26,105.06,111121,,,D*78

$GPGGA,164144.000,5131.8728,N,00004.0038,W,2,09,0.89,22.4,M,47.0,M,0000,0000*4C

$GPRMC,164149.000,A,5131.8734,N,00003.9982,W,2.42,81.96,111121,,,D*40

$GPGGA,164150.000,5131.8733,N,00003.9970,W,2,09,0.89,22.1,M,47.0,M,0000,0000*4D

$GPRMC,164155.000,A,5131.8735,N,00003.9909,W,2.65,87.60,111121,,,D*45

$GPGGA,164156.000,5131.8735,N,00003.9897,W,2,09,0.89,21.7,M,47.0,M,0000,0000*40

$GPRMC,164201.000,A,5131.8747,N,00003.9834,W,2.84,79.09,111121,,,D*4C

$GPGGA,164202.000,5131.8750,N,00003.9822,W,2,09,0.89,21.1,M,47.0,M,0000,0000*49

$GPRMC,164207.000,A,5131.8761,N,00003.9762,W,2.29,74.61,111121,,,D*46

$GPGGA,164208.000,5131.8761,N,00003.9751,W,2,09,0.89,20.4,M,47.0,M,0000,0000*4E

$GPRMC,164213.000,A,5131.8770,N,00003.9690,W,2.79,70.79,111121,,,D*47

$GPGGA,164214.000,5131.8772,N,00003.9679,W,2,09,0.89,19.6,M,47.0,M,0000,0000*42

$GPGGA,164219.000,5131.8764,N,00003.9638,W,2,09,0.89,18.9,M,47.0,M,0000,0000*43

$GPRMC,164219.000,A,5131.8764,N,00003.9638,W,1.84,118.17,111121,,,D*7C

$GPRMC,164224.000,A,5131.8753,N,00003.9600,W,1.69,100.02,111121,,,D*73

$GPGGA,164225.000,5131.8752,N,00003.9592,W,2,09,0.89,18.1,M,47.0,M,0000,0000*42

$GPRMC,164230.000,A,5131.8750,N,00003.9545,W,1.79,104.30,111121,,,D*73

$GPGGA,164231.000,5131.8753,N,00003.9531,W,2,09,0.89,18.1,M,47.0,M,0000,0000*4F

$GPRMC,164236.000,A,5131.8761,N,00003.9470,W,2.06,97.12,111121,,,D*40

$GPGGA,164237.000,5131.8759,N,00003.9461,W,2,09,0.89,18.5,M,47.0,M,0000,0000*43

$GPRMC,164242.000,A,5131.8753,N,00003.9411,W,1.87,102.17,111121,,,D*77

$GPGGA,164243.000,5131.8749,N,00003.9403,W,2,09,0.89,18.7,M,47.0,M,0000,0000*47

$GPRMC,164248.000,A,5131.8755,N,00003.9349,W,2.36,86.58,111121,,,D*4E

$GPGGA,164249.000,5131.8759,N,00003.9335,W,2,08,1.05,19.6,M,47.0,M,0000,0000*4A

$GPRMC,164254.000,A,5131.8764,N,00003.9265,W,2.45,96.35,111121,,,D*40

$GPGGA,164255.000,5131.8762,N,00003.9254,W,2,08,1.04,20.2,M,47.0,M,0000,0000*46

$GPRMC,164300.000,A,5131.8767,N,00003.9190,W,2.02,86.09,111121,,,D*47

$GPGGA,164301.000,5131.8774,N,00003.9172,W,2,08,1.05,20.6,M,47.0,M,0000,0000*43

$GPRMC,164306.000,A,5131.8789,N,00003.9108,W,2.38,85.96,111121,,,D*4C

$GPGGA,164307.000,5131.8791,N,00003.9095,W,2,08,1.05,21.3,M,47.0,M,0000,0000*42

$GPGGA,164312.000,5131.8805,N,00003.9035,W,2,08,1.05,21.1,M,47.0,M,0000,0000*4C

$GPRMC,164312.000,A,5131.8805,N,00003.9035,W,2.34,72.96,111121,,,D*49

$GPRMC,164317.000,A,5131.8807,N,00003.8981,W,2.32,90.32,111121,,,D*4D

$GPGGA,164318.000,5131.8809,N,00003.8969,W,2,09,0.89,20.8,M,47.0,M,0000,0000*47

$GPRMC,164323.000,A,5131.8816,N,00003.8909,W,1.91,98.05,111121,,,D*4C

$GPGGA,164324.000,5131.8815,N,00003.8900,W,2,09,0.89,21.1,M,47.0,M,0000,0000*42

$GPRMC,164329.000,A,5131.8813,N,00003.8849,W,2.59,94.59,111121,,,D*44

$GPGGA,164330.000,5131.8810,N,00003.8839,W,2,09,0.89,20.9,M,47.0,M,0000,0000*40

$GPRMC,164335.000,A,5131.8820,N,00003.8772,W,2.35,91.38,111121,,,D*46

$GPGGA,164336.000,5131.8825,N,00003.8757,W,2,08,1.04,20.2,M,47.0,M,0000,0000*49

$GPRMC,164341.000,A,5131.8837,N,00003.8691,W,2.63,80.98,111121,,,D*46

$GPGGA,164342.000,5131.8840,N,00003.8678,W,2,09,0.89,19.6,M,47.0,M,0000,0000*4E

$GPRMC,164347.000,A,5131.8859,N,00003.8611,W,2.08,77.31,111121,,,D*46

$GPGGA,164348.000,5131.8861,N,00003.8602,W,2,09,0.89,18.9,M,47.0,M,0000,0000*44

$GPRMC,164353.000,A,5131.8864,N,00003.8550,W,2.22,92.61,111121,,,D*4D

$GPGGA,164354.000,5131.8866,N,00003.8538,W,2,09,0.89,18.8,M,47.0,M,0000,0000*45

$GPRMC,164359.000,A,5131.8876,N,00003.8476,W,1.95,80.74,111121,,,D*49

$GPGGA,164400.000,5131.8876,N,00003.8463,W,2,09,0.89,18.6,M,47.0,M,0000,0000*43

$GPRMC,164405.000,A,5131.8885,N,00003.8411,W,1.66,128.18,111121,,,D*7F

$GPGGA,164406.000,5131.8884,N,00003.8403,W,2,09,0.89,18.3,M,47.0,M,0000,0000*4B

$GPRMC,164411.000,A,5131.8866,N,00003.8368,W,2.80,159.58,111121,,,D*77

$GPGGA,164412.000,5131.8861,N,00003.8359,W,2,09,0.89,17.5,M,47.0,M,0000,0000*44

$GPRMC,164417.000,A,5131.8841,N,00003.8320,W,2.05,99.76,111121,,,D*44

$GPGGA,164418.000,5131.8842,N,00003.8308,W,2,08,1.04,17.0,M,47.0,M,0000,0000*4B

$GPRMC,164423.000,A,5131.8849,N,00003.8255,W,2.32,68.20,111121,,,D*41

$GPGGA,164424.000,5131.8854,N,00003.8245,W,2,09,0.89,17.0,M,47.0,M,0000,0000*4E

$GPRMC,164429.000,A,5131.8854,N,00003.8192,W,2.59,89.87,111121,,,D*40

$GPGGA,164430.000,5131.8856,N,00003.8180,W,2,09,0.89,16.8,M,47.0,M,0000,0000*4A

$GPRMC,164435.000,A,5131.8859,N,00003.8128,W,2.34,91.03,111121,,,D*4F

$GPGGA,164436.000,5131.8859,N,00003.8118,W,2,09,0.89,15.8,M,47.0,M,0000,0000*41

$GPRMC,164441.000,A,5131.8871,N,00003.8078,W,1.51,66.72,111121,,,D*4C

$GPGGA,164442.000,5131.8873,N,00003.8073,W,2,09,0.89,15.3,M,47.0,M,0000,0000*4D

$GPRMC,164447.000,A,5131.8885,N,00003.8028,W,1.82,84.41,111121,,,D*46

$GPGGA,164448.000,5131.8886,N,00003.8020,W,2,09,0.89,14.8,M,47.0,M,0000,0000*41

$GPRMC,164453.000,A,5131.8893,N,00003.7957,W,2.52,78.68,111121,,,D*4C

$GPGGA,164454.000,5131.8895,N,00003.7945,W,2,08,0.94,14.3,M,47.0,M,0000,0000*4D

$GPRMC,164459.000,A,5131.8906,N,00003.7878,W,1.89,98.50,111121,,,D*47

$GPGGA,164500.000,5131.8906,N,00003.7868,W,2,09,0.89,13.6,M,47.0,M,0000,0000*47

$GPRMC,164505.000,A,5131.8905,N,00003.7814,W,2.28,83.03,111121,,,D*42

$GPGGA,164506.000,5131.8907,N,00003.7802,W,2,09,0.89,13.7,M,47.0,M,0000,0000*4D

$GPRMC,164511.000,A,5131.8917,N,00003.7742,W,2.35,76.56,111121,,,D*4E

$GPGGA,164512.000,5131.8920,N,00003.7730,W,2,09,0.89,13.4,M,47.0,M,0000,0000*40

$GPRMC,164517.000,A,5131.8933,N,00003.7668,W,2.11,80.42,111121,,,D*4D

$GPGGA,164518.000,5131.8939,N,00003.7659,W,2,09,0.89,13.1,M,47.0,M,0000,0000*49

$GPRMC,164523.000,A,5131.8957,N,00003.7606,W,2.32,70.87,111121,,,D*47

$GPGGA,164524.000,5131.8960,N,00003.7598,W,2,09,0.89,12.5,M,47.0,M,0000,0000*41

$GPRMC,164529.000,A,5131.8982,N,00003.7552,W,2.55,78.70,111121,,,D*46

$GPGGA,164530.000,5131.8986,N,00003.7538,W,2,09,0.89,13.0,M,47.0,M,0000,0000*42

$GPRMC,164535.000,A,5131.8988,N,00003.7472,W,2.44,77.90,111121,,,D*43

$GPGGA,164536.000,5131.8988,N,00003.7459,W,2,09,0.89,12.8,M,47.0,M,0000,0000*45

$GPRMC,164541.000,A,5131.9009,N,00003.7392,W,2.12,63.58,111121,,,D*4A

$GPGGA,164542.000,5131.9014,N,00003.7382,W,2,09,0.89,11.4,M,47.0,M,0000,0000*45

$GPRMC,164547.000,A,5131.9032,N,00003.7339,W,1.89,58.77,111121,,,D*41

$GPGGA,164548.000,5131.9035,N,00003.7328,W,2,09,0.89,10.4,M,47.0,M,0000,0000*4D

$GPRMC,164553.000,A,5131.9030,N,00003.7275,W,1.79,76.54,111121,,,D*4D

$GPGGA,164554.000,5131.9028,N,00003.7265,W,2,09,0.89,9.6,M,47.0,M,0000,0000*7E

$GPRMC,164559.000,A,5131.9023,N,00003.7200,W,2.20,81.41,111121,,,D*44

$GPGGA,164600.000,5131.9023,N,00003.7189,W,2,09,0.89,9.1,M,47.0,M,0000,0000*71

$GPRMC,164605.000,A,5131.9029,N,00003.7125,W,2.36,78.97,111121,,,D*4A

$GPGGA,164606.000,5131.9030,N,00003.7113,W,2,09,0.89,8.8,M,47.0,M,0000,0000*7E

$GPRMC,164611.000,A,5131.9044,N,00003.7047,W,3.14,66.21,111121,,,D*42

$GPGGA,164612.000,5131.9046,N,00003.7033,W,2,09,0.89,8.1,M,47.0,M,0000,0000*70

$GPGGA,164617.000,5131.9051,N,00003.6960,W,2,09,0.89,8.1,M,47.0,M,0000,0000*7D

$GPRMC,164617.000,A,5131.9051,N,00003.6960,W,2.57,79.47,111121,,,D*45

$GPRMC,164622.000,A,5131.9066,N,00003.6899,W,2.01,71.64,111121,,,D*4A

$GPGGA,164623.000,5131.9070,N,00003.6889,W,2,09,0.89,7.9,M,47.0,M,0000,0000*78

$GPRMC,164628.000,A,5131.9088,N,00003.6838,W,2.23,75.76,111121,,,D*4C

$GPGGA,164629.000,5131.9091,N,00003.6826,W,2,09,0.89,8.9,M,47.0,M,0000,0000*77

$GPRMC,164634.000,A,5131.9094,N,00003.6767,W,1.97,93.75,111121,,,D*4E

$GPGGA,164635.000,5131.9092,N,00003.6755,W,2,09,0.89,9.8,M,47.0,M,0000,0000*72

$GPRMC,164640.000,A,5131.9093,N,00003.6709,W,1.26,83.49,111121,,,D*46

$GPGGA,164641.000,5131.9095,N,00003.6702,W,2,09,0.89,10.1,M,47.0,M,0000,0000*45

$GPRMC,164646.000,A,5131.9115,N,00003.6646,W,1.76,67.27,111121,,,D*42

$GPGGA,164647.000,5131.9117,N,00003.6638,W,2,09,0.89,10.0,M,47.0,M,0000,0000*41

$GPRMC,164652.000,A,5131.9148,N,00003.6590,W,2.48,54.81,111121,,,D*45

$GPGGA,164653.000,5131.9158,N,00003.6580,W,2,09,0.89,10.2,M,47.0,M,0000,0000*4D

$GPRMC,164658.000,A,5131.9179,N,00003.6515,W,2.50,74.31,111121,,,D*40

$GPGGA,164659.000,5131.9184,N,00003.6504,W,2,09,0.89,9.3,M,47.0,M,0000,0000*73

$GPRMC,164704.000,A,5131.9207,N,00003.6448,W,2.45,65.69,111121,,,D*42

$GPGGA,164705.000,5131.9215,N,00003.6440,W,2,09,0.89,9.6,M,47.0,M,0000,0000*74

$GPRMC,164710.000,A,5131.9189,N,00003.6378,W,2.45,89.76,111121,,,D*4A

$GPGGA,164711.000,5131.9187,N,00003.6358,W,2,09,0.89,14.5,M,47.0,M,0000,0000*48

$GPRMC,164716.000,A,5131.9199,N,00003.6262,W,2.24,91.66,111121,,,D*48

$GPGGA,164717.000,5131.9199,N,00003.6247,W,2,09,0.89,18.0,M,47.0,M,0000,0000*47

$GPRMC,164722.000,A,5131.9212,N,00003.6183,W,2.80,70.86,111121,,,D*4C

$GPGGA,164723.000,5131.9214,N,00003.6169,W,2,09,0.89,19.5,M,47.0,M,0000,0000*4D

$GPRMC,164728.000,A,5131.9221,N,00003.6110,W,2.92,82.78,111121,,,D*43

$GPGGA,164729.000,5131.9224,N,00003.6097,W,2,09,0.89,19.9,M,47.0,M,0000,0000*48

$GPRMC,164734.000,A,5131.9226,N,00003.6049,W,1.82,108.95,111121,,,D*76

$GPGGA,164735.000,5131.9224,N,00003.6039,W,2,09,0.89,19.7,M,47.0,M,0000,0000*4F

$GPRMC,164740.000,A,5131.9227,N,00003.5986,W,2.28,80.23,111121,,,D*42

$GPGGA,164741.000,5131.9228,N,00003.5977,W,2,09,0.89,19.3,M,47.0,M,0000,0000*44

$GPRMC,164746.000,A,5131.9242,N,00003.5905,W,2.34,83.32,111121,,,D*42

$GPGGA,164747.000,5131.9243,N,00003.5891,W,2,09,0.89,20.2,M,47.0,M,0000,0000*4D

$GPRMC,164752.000,A,5131.9270,N,00003.5826,W,2.33,52.45,111121,,,D*4D

$GPGGA,164753.000,5131.9274,N,00003.5819,W,2,09,0.89,19.7,M,47.0,M,0000,0000*43

$GPRMC,164758.000,A,5131.9294,N,00003.5792,W,0.96,52.96,111121,,,D*4E

$GPGGA,164759.000,5131.9295,N,00003.5790,W,2,09,0.89,18.9,M,47.0,M,0000,0000*47

$GPGGA,164804.000,5131.9300,N,00003.5783,W,2,09,0.89,18.7,M,47.0,M,0000,0000*41

$GPRMC,164804.000,A,5131.9300,N,00003.5783,W,0.51,46.97,111121,,,D*4B

$GPRMC,164809.000,A,5131.9304,N,00003.5774,W,0.49,61.23,111121,,,D*49

$GPGGA,164810.000,5131.9305,N,00003.5773,W,2,09,0.89,18.6,M,47.0,M,0000,0000*4F

$GPRMC,164815.000,A,5131.9308,N,00003.5763,W,0.48,42.94,111121,,,D*42

$GPGGA,164816.000,5131.9309,N,00003.5762,W,2,07,1.18,18.5,M,47.0,M,0000,0000*41

$GPRMC,164821.000,A,5131.9314,N,00003.5754,W,0.50,35.57,111121,,,D*4A

$GPGGA,164822.000,5131.9316,N,00003.5753,W,2,06,1.24,18.5,M,47.0,M,0000,0000*44

$GPRMC,164827.000,A,5131.9321,N,00003.5747,W,0.51,29.87,111121,,,D*49

$GPGGA,164828.000,5131.9323,N,00003.5746,W,2,04,1.54,18.5,M,47.0,M,0000,0000*49

$GPRMC,164833.000,A,5131.9327,N,00003.5740,W,0.57,35.58,111121,,,D*44

$GPGGA,164834.000,5131.9323,N,00003.5742,W,2,03,2.81,18.5,M,47.0,M,0000,0000*4C

$GPRMC,164839.000,A,5131.9308,N,00003.5744,W,0.20,76.87,111121,,,D*42

$GPGGA,164840.000,5131.9308,N,00003.5743,W,2,04,2.44,18.5,M,47.0,M,0000,0000*49

$GPRMC,164845.000,A,5131.9338,N,00003.5737,W,0.88,23.76,111121,,,D*42

$GPGGA,164846.000,5131.9339,N,00003.5734,W,2,03,2.81,18.5,M,47.0,M,0000,0000*43

$GPRMC,164851.000,A,5131.9340,N,00003.5718,W,0.82,31.44,111121,,,D*4D

$GPGGA,164852.000,5131.9342,N,00003.5718,W,2,03,2.81,18.5,M,47.0,M,0000,0000*44

$GPGGA,164857.000,5131.9322,N,00003.5716,W,2,03,2.81,18.5,M,47.0,M,0000,0000*49

$GPRMC,164857.000,A,5131.9322,N,00003.5716,W,0.40,40.93,111121,,,D*43

$GPRMC,164902.000,A,5131.9320,N,00003.5711,W,0.26,73.61,111121,,,D*4A

$GPGGA,164903.000,5131.9321,N,00003.5710,W,6,03,2.81,18.5,M,47.0,M,0000,0000*48

$GPGGA,164908.000,5131.9322,N,00003.5704,W,6,00,99.99,18.5,M,47.0,M,,*7D

$GPRMC,164908.000,V,,,,,0.26,75.40,111121,,,E*75

