$GPRMC,121241.000,A,5131.8358,N,00003.6124,W,1.54,10.91,161121,,,A*46

$GPGGA,121242.000,5131.8362,N,00003.6130,W,1,04,18.12,58.8,M,47.0,M,,*7E

$GPRMC,121247.000,A,5131.8357,N,00003.6150,W,1.14,9.24,161121,,,A*7E

$GPGGA,121248.000,5131.8354,N,00003.6157,W,1,05,2.98,58.3,M,47.0,M,,*43

$GPGGA,121253.000,5131.8297,N,00003.6086,W,1,05,2.38,56.9,M,47.0,M,,*44

$GPRMC,121253.000,A,5131.8297,N,00003.6086,W,0.64,78.27,161121,,,A*4F

$GPGGA,121258.000,5131.8266,N,00003.6041,W,1,05,2.38,55.6,M,47.0,M,,*46

$GPRMC,121258.000,A,5131.8266,N,00003.6041,W,0.66,100.99,161121,,,A*78

$GPRMC,121303.000,A,5131.8253,N,00003.6067,W,0.55,98.40,161121,,,A*41

$GPGGA,121304.000,5131.8251,N,00003.6073,W,1,05,2.38,54.8,M,47.0,M,,*44

$GPGGA,121309.000,5131.8249,N,00003.6071,W,1,05,2.38,54.6,M,47.0,M,,*4C

$GPRMC,121309.000,A,5131.8249,N,00003.6071,W,0.44,98.40,161121,,,A*47

$GPGGA,121314.000,5131.8249,N,00003.6063,W,1,05,2.38,54.6,M,47.0,M,,*43

$GPRMC,121314.000,A,5131.8249,N,00003.6063,W,0.42,98.40,161121,,,A*4E

$GPGGA,121319.000,5131.8250,N,00003.6056,W,1,05,2.38,54.6,M,47.0,M,,*40

$GPRMC,121319.000,A,5131.8250,N,00003.6056,W,0.40,98.40,161121,,,A*4F

$GPGGA,121324.000,5131.8255,N,00003.6053,W,1,05,2.99,54.6,M,47.0,M,,*45

$GPRMC,121324.000,A,5131.8255,N,00003.6053,W,0.46,98.40,161121,,,A*47

$GPGGA,121329.000,5131.8261,N,00003.6052,W,1,05,2.99,54.5,M,47.0,M,,*4D

$GPRMC,121329.000,A,5131.8261,N,00003.6052,W,0.43,98.40,161121,,,A*49

$GPGGA,121334.000,5131.8265,N,00003.6053,W,1,05,2.38,54.5,M,47.0,M,,*4F

$GPRMC,121334.000,A,5131.8265,N,00003.6053,W,0.20,98.40,161121,,,A*45

$GPGGA,121339.000,5131.8267,N,00003.6059,W,1,05,2.38,54.5,M,47.0,M,,*4A

$GPRMC,121339.000,A,5131.8267,N,00003.6059,W,0.29,98.40,161121,,,A*49

$GPGGA,121344.000,5131.8266,N,00003.6066,W,1,05,2.38,54.5,M,47.0,M,,*4D

$GPRMC,121344.000,A,5131.8266,N,00003.6066,W,0.33,98.40,161121,,,A*45

$GPGGA,121349.000,5131.8264,N,00003.6073,W,1,05,2.38,54.5,M,47.0,M,,*46

$GPRMC,121349.000,A,5131.8264,N,00003.6073,W,0.31,98.40,161121,,,A*4C

$GPGGA,121354.000,5131.8259,N,00003.6077,W,1,03,5.64,54.5,M,47.0,M,,*48

$GPRMC,121354.000,A,5131.8259,N,00003.6077,W,0.54,98.40,161121,,,A*49

$GPGGA,121359.000,5131.8253,N,00003.6081,W,6,02,99.99,54.5,M,47.0,M,,*77

$GPRMC,121359.000,V,,,,,0.41,98.40,161121,,,E*7F

$GPRMC,121416.000,A,5131.8401,N,00003.5756,W,0.34,98.40,161121,,,A*42

$GPGGA,121417.000,5131.8400,N,00003.5757,W,1,05,2.38,43.9,M,47.0,M,,*46

$GPGGA,121422.000,5131.8397,N,00003.5759,W,1,05,2.38,44.0,M,47.0,M,,*49

$GPRMC,121422.000,A,5131.8397,N,00003.5759,W,0.15,98.40,161121,,,A*41

$GPGGA,121427.000,5131.8398,N,00003.5756,W,1,05,2.38,44.0,M,47.0,M,,*4C

$GPRMC,121427.000,A,5131.8398,N,00003.5756,W,0.21,98.40,161121,,,A*43

$GPGGA,121432.000,5131.8398,N,00003.5751,W,1,05,2.38,44.0,M,47.0,M,,*4F

$GPRMC,121432.000,A,5131.8398,N,00003.5751,W,0.38,98.40,161121,,,A*48

$GPGGA,121437.000,5131.8397,N,00003.5751,W,1,05,2.38,44.0,M,47.0,M,,*45

$GPRMC,121437.000,A,5131.8397,N,00003.5751,W,0.10,98.40,161121,,,A*48

$GPGGA,121442.000,5131.8394,N,00003.5756,W,1,05,2.38,44.1,M,47.0,M,,*42

$GPRMC,121442.000,A,5131.8394,N,00003.5756,W,0.43,98.40,161121,,,A*48

$GPRMC,121447.000,A,5131.8373,N,00003.5795,W,0.70,232.85,161121,,,A*70

$GPGGA,121448.000,5131.8365,N,00003.5810,W,1,05,2.38,43.9,M,47.0,M,,*44

$GPRMC,121453.000,A,5131.8304,N,00003.5931,W,1.08,228.52,161121,,,A*7A

$GPGGA,121454.000,5131.8292,N,00003.5951,W,1,05,2.38,41.3,M,47.0,M,,*4C

$GPRMC,121459.000,A,5131.8255,N,00003.6018,W,1.47,226.89,161121,,,A*77

$GPGGA,121500.000,5131.8249,N,00003.6027,W,1,05,2.38,40.4,M,47.0,M,,*47

$GPRMC,121505.000,A,5131.8226,N,00003.6066,W,1.45,237.25,161121,,,A*76

$GPGGA,121506.000,5131.8222,N,00003.6072,W,1,05,2.38,41.0,M,47.0,M,,*49

$GPRMC,121511.000,A,5131.8211,N,00003.6098,W,0.80,238.02,161121,,,A*74

$GPGGA,121512.000,5131.8209,N,00003.6101,W,1,05,2.38,41.3,M,47.0,M,,*43

$GPRMC,121517.000,A,5131.8203,N,00003.6124,W,0.34,234.30,161121,,,D*70

$GPGGA,121518.000,5131.8201,N,00003.6132,W,2,06,1.89,39.8,M,47.0,M,0000,0000*4C

$GPRMC,121523.000,A,5131.8199,N,00003.6153,W,0.73,234.46,161121,,,D*75

$GPGGA,121524.000,5131.8199,N,00003.6155,W,2,06,1.89,37.8,M,47.0,M,0000,0000*4E

$GPRMC,121529.000,A,5131.8199,N,00003.6169,W,0.54,252.48,161121,,,D*7D

$GPGGA,121530.000,5131.8198,N,00003.6172,W,2,06,1.89,36.3,M,47.0,M,0000,0000*45

$GPRMC,121535.000,A,5131.8191,N,00003.6194,W,0.97,240.78,161121,,,D*75

$GPGGA,121536.000,5131.8192,N,00003.6195,W,2,06,1.89,35.3,M,47.0,M,0000,0000*43

$GPRMC,121541.000,A,5131.8195,N,00003.6194,W,0.24,240.78,161121,,,D*7A

$GPGGA,121542.000,5131.8196,N,00003.6193,W,2,06,1.88,34.6,M,47.0,M,0000,0000*47

$GPRMC,121547.000,A,5131.8197,N,00003.6193,W,0.20,240.78,161121,,,D*7D

$GPGGA,121548.000,5131.8198,N,00003.6193,W,2,06,1.89,33.8,M,47.0,M,0000,0000*4B

$GPRMC,121553.000,A,5131.8199,N,00003.6201,W,0.57,251.07,161121,,,D*76

$GPGGA,121554.000,5131.8199,N,00003.6200,W,2,06,1.89,33.0,M,47.0,M,0000,0000*46

$GPRMC,121559.000,A,5131.8200,N,00003.6205,W,0.64,236.52,161121,,,D*7A

$GPGGA,121600.000,5131.8199,N,00003.6204,W,2,06,1.89,32.8,M,47.0,M,0000,0000*49

$GPRMC,121605.000,A,5131.8198,N,00003.6212,W,0.86,242.22,161121,,,D*7C

$GPGGA,121606.000,5131.8198,N,00003.6211,W,2,06,1.89,32.4,M,47.0,M,0000,0000*46

$GPRMC,121611.000,A,5131.8196,N,00003.6211,W,0.97,227.68,161121,,,D*79

$GPGGA,121612.000,5131.8195,N,00003.6209,W,2,06,1.89,31.4,M,47.0,M,0000,0000*44

$GPRMC,121617.000,A,5131.8186,N,00003.6233,W,1.30,237.40,161121,,,D*79

$GPGGA,121618.000,5131.8185,N,00003.6236,W,2,06,1.88,30.7,M,47.0,M,0000,0000*40

$GPRMC,121623.000,A,5131.8184,N,00003.6251,W,1.15,246.02,161121,,,D*7F

$GPGGA,121624.000,5131.8185,N,00003.6254,W,2,06,1.89,29.8,M,47.0,M,0000,0000*4D

$GPRMC,121629.000,A,5131.8192,N,00003.6265,W,1.40,244.46,161121,,,D*77

$GPGGA,121630.000,5131.8194,N,00003.6264,W,2,06,1.88,28.7,M,47.0,M,0000,0000*44

$GPRMC,121635.000,A,5131.8200,N,00003.6269,W,0.98,246.60,161121,,,D*7C

$GPGGA,121636.000,5131.8201,N,00003.6271,W,2,06,1.88,28.4,M,47.0,M,0000,0000*4A

$GPRMC,121641.000,A,5131.8201,N,00003.6272,W,1.01,238.42,161121,,,D*7C

$GPGGA,121642.000,5131.8201,N,00003.6271,W,2,06,1.88,28.5,M,47.0,M,0000,0000*48

$GPRMC,121647.000,A,5131.8202,N,00003.6276,W,0.95,245.54,161121,,,D*7C

$GPGGA,121648.000,5131.8202,N,00003.6272,W,2,06,1.88,28.7,M,47.0,M,0000,0000*40

$GPRMC,121653.000,A,5131.8202,N,00003.6265,W,0.86,224.73,161121,,,D*7B

$GPGGA,121654.000,5131.8203,N,00003.6264,W,2,06,1.89,28.5,M,47.0,M,0000,0000*48

$GPRMC,121659.000,A,5131.8206,N,00003.6254,W,0.77,218.54,161121,,,D*73

$GPGGA,121700.000,5131.8208,N,00003.6252,W,2,06,1.88,28.3,M,47.0,M,0000,0000*41

$GPRMC,121705.000,A,5131.8214,N,00003.6248,W,0.55,237.46,161121,,,D*7B

$GPGGA,121706.000,5131.8214,N,00003.6249,W,2,06,1.88,28.1,M,47.0,M,0000,0000*42

$GPRMC,121711.000,A,5131.8220,N,00003.6240,W,0.45,229.41,161121,,,D*78

$GPGGA,121712.000,5131.8221,N,00003.6236,W,2,06,1.88,28.1,M,47.0,M,0000,0000*49

$GPRMC,121717.000,A,5131.8219,N,00003.6239,W,0.41,229.41,161121,,,D*7E

$GPGGA,121718.000,5131.8218,N,00003.6240,W,2,06,1.88,28.1,M,47.0,M,0000,0000*48

$GPRMC,121723.000,A,5131.8222,N,00003.6233,W,0.23,212.21,161121,,,D*71

$GPGGA,121724.000,5131.8225,N,00003.6231,W,2,06,1.88,27.8,M,47.0,M,0000,0000*49

$GPRMC,121729.000,A,5131.8222,N,00003.6236,W,0.38,212.21,161121,,,D*74

$GPGGA,121730.000,5131.8222,N,00003.6238,W,2,06,1.88,27.8,M,47.0,M,0000,0000*42

$GPRMC,121735.000,A,5131.8219,N,00003.6245,W,0.55,212.21,161121,,,D*7E

$GPGGA,121736.000,5131.8218,N,00003.6247,W,2,06,1.88,27.8,M,47.0,M,0000,0000*45

$GPRMC,121741.000,A,5131.8230,N,00003.6240,W,0.30,240.34,161121,,,D*73

$GPGGA,121742.000,5131.8230,N,00003.6239,W,2,06,1.88,27.4,M,47.0,M,0000,0000*49

$GPRMC,121747.000,A,5131.8231,N,00003.6242,W,0.22,240.34,161121,,,D*75

$GPGGA,121748.000,5131.8231,N,00003.6243,W,2,06,1.89,27.4,M,47.0,M,0000,0000*4E

$GPRMC,121753.000,A,5131.8229,N,00003.6245,W,0.48,244.72,161121,,,D*74

$GPGGA,121754.000,5131.8229,N,00003.6246,W,2,06,1.88,27.2,M,47.0,M,0000,0000*48

$GPRMC,121759.000,A,5131.8226,N,00003.6253,W,0.20,244.72,161121,,,D*78

$GPGGA,121800.000,5131.8226,N,00003.6254,W,2,06,1.88,27.2,M,47.0,M,0000,0000*4A

$GPRMC,121805.000,A,5131.8223,N,00003.6261,W,0.38,244.72,161121,,,D*73

$GPGGA,121806.000,5131.8224,N,00003.6263,W,2,06,1.88,27.2,M,47.0,M,0000,0000*4A

$GPRMC,121811.000,A,5131.8236,N,00003.6258,W,0.58,286.23,161121,,,D*74

$GPGGA,121812.000,5131.8238,N,00003.6254,W,2,06,1.88,26.8,M,47.0,M,0000,0000*4D

$GPRMC,121817.000,A,5131.8242,N,00003.6253,W,0.21,286.23,161121,,,D*74

$GPGGA,121818.000,5131.8242,N,00003.6253,W,2,06,1.88,26.6,M,47.0,M,0000,0000*43

$GPRMC,121823.000,A,5131.8244,N,00003.6254,W,0.10,286.23,161121,,,D*70

$GPGGA,121824.000,5131.8245,N,00003.6254,W,2,06,2.83,26.6,M,47.0,M,0000,0000*44

$GPRMC,121829.000,A,5131.8249,N,00003.6249,W,0.29,286.23,161121,,,D*71

$GPGGA,121830.000,5131.8250,N,00003.6249,W,2,06,2.82,26.6,M,47.0,M,0000,0000*48

$GPRMC,121835.000,A,5131.8262,N,00003.6225,W,0.68,32.89,161121,,,D*47

$GPGGA,121836.000,5131.8266,N,00003.6219,W,2,06,1.88,26.3,M,47.0,M,0000,0000*42

$GPRMC,121841.000,A,5131.8279,N,00003.6194,W,0.90,37.14,161121,,,D*41

$GPGGA,121842.000,5131.8282,N,00003.6189,W,2,06,1.88,26.1,M,47.0,M,0000,0000*43

$GPRMC,121847.000,A,5131.8294,N,00003.6163,W,1.35,45.45,161121,,,D*43

$GPGGA,121848.000,5131.8298,N,00003.6161,W,2,06,1.88,25.6,M,47.0,M,0000,0000*40

$GPRMC,121853.000,A,5131.8308,N,00003.6146,W,1.12,36.84,161121,,,D*49

$GPGGA,121854.000,5131.8309,N,00003.6143,W,2,06,1.88,25.4,M,47.0,M,0000,0000*46

$GPRMC,121859.000,A,5131.8295,N,00003.6114,W,0.90,62.45,161121,,,D*46

$GPGGA,121900.000,5131.8291,N,00003.6114,W,2,06,1.88,25.5,M,47.0,M,0000,0000*45

$GPRMC,121905.000,A,5131.8287,N,00003.6116,W,0.38,56.64,161121,,,D*49

$GPGGA,121906.000,5131.8288,N,00003.6115,W,2,06,1.88,25.4,M,47.0,M,0000,0000*4B

$GPRMC,121911.000,A,5131.8289,N,00003.6109,W,0.31,56.64,161121,,,D*45

$GPGGA,121912.000,5131.8289,N,00003.6108,W,2,06,1.88,25.4,M,47.0,M,0000,0000*43

$GPRMC,121917.000,A,5131.8289,N,00003.6103,W,0.18,56.64,161121,,,A*47

$GPGGA,121918.000,5131.8289,N,00003.6102,W,1,05,2.39,25.4,M,47.0,M,,*4A

$GPGGA,121923.000,5131.8288,N,00003.6100,W,1,05,2.40,25.4,M,47.0,M,,*4F

$GPRMC,121923.000,A,5131.8288,N,00003.6100,W,0.17,56.64,161121,,,A*4D

$GPGGA,121928.000,5131.8283,N,00003.6100,W,1,05,2.39,25.4,M,47.0,M,,*41

$GPRMC,121928.000,A,5131.8283,N,00003.6100,W,0.63,197.57,161121,,,A*72

$GPRMC,121933.000,A,5131.8257,N,00003.6133,W,0.90,207.07,161121,,,A*72

$GPGGA,121934.000,5131.8255,N,00003.6142,W,1,05,2.40,25.1,M,47.0,M,,*4A

$GPRMC,121939.000,A,5131.8243,N,00003.6187,W,1.04,232.46,161121,,,A*7D

$GPGGA,121940.000,5131.8241,N,00003.6195,W,1,05,2.39,25.0,M,47.0,M,,*49

$GPRMC,121945.000,A,5131.8192,N,00003.6271,W,1.82,230.83,161121,,,A*76

$GPGGA,121946.000,5131.8185,N,00003.6291,W,1,05,2.40,24.9,M,47.0,M,,*45

$GPRMC,121951.000,A,5131.8143,N,00003.6383,W,2.48,234.58,161121,,,A*74

$GPGGA,121952.000,5131.8141,N,00003.6384,W,1,05,2.39,24.9,M,47.0,M,,*43

$GPRMC,121957.000,A,5131.8116,N,00003.6398,W,2.30,231.10,161121,,,A*7E

$GPGGA,121958.000,5131.8111,N,00003.6408,W,1,05,2.40,24.9,M,47.0,M,,*41

$GPRMC,122003.000,A,5131.8096,N,00003.6416,W,2.31,233.60,161121,,,A*79

$GPGGA,122004.000,5131.8095,N,00003.6409,W,1,04,3.07,24.9,M,47.0,M,,*4D

$GPRMC,122009.000,A,5131.8078,N,00003.6437,W,2.11,234.77,161121,,,D*76

$GPGGA,122010.000,5131.8077,N,00003.6452,W,2,05,2.12,25.0,M,47.0,M,0000,0000*45

$GPRMC,122015.000,A,5131.8074,N,00003.6496,W,2.03,243.96,161121,,,D*70

$GPGGA,122016.000,5131.8076,N,00003.6499,W,2,05,2.12,25.2,M,47.0,M,0000,0000*47

$GPRMC,122021.000,A,5131.8069,N,00003.6530,W,1.97,246.95,161121,,,D*7E

$GPGGA,122022.000,5131.8071,N,00003.6531,W,2,05,2.12,25.3,M,47.0,M,0000,0000*45

$GPRMC,122027.000,A,5131.8076,N,00003.6526,W,1.59,248.97,161121,,,D*7F

$GPGGA,122028.000,5131.8075,N,00003.6531,W,2,05,2.12,25.4,M,47.0,M,0000,0000*4C

$GPRMC,122033.000,A,5131.8059,N,00003.6548,W,1.76,240.89,161121,,,D*75

$GPGGA,122034.000,5131.8054,N,00003.6546,W,2,05,2.12,25.5,M,47.0,M,0000,0000*43

$GPRMC,122039.000,A,5131.8054,N,00003.6499,W,1.37,229.86,161121,,,D*7A

$GPGGA,122040.000,5131.8051,N,00003.6495,W,2,05,2.12,25.7,M,47.0,M,0000,0000*48

$GPRMC,122045.000,A,5131.8063,N,00003.6479,W,0.88,234.95,161121,,,D*70

$GPGGA,122046.000,5131.8073,N,00003.6471,W,2,05,2.12,25.9,M,47.0,M,0000,0000*4A

$GPRMC,122051.000,A,5131.8113,N,00003.6441,W,0.50,255.29,161121,,,D*7D

$GPGGA,122052.000,5131.8117,N,00003.6440,W,2,05,2.12,26.0,M,47.0,M,0000,0000*44

$GPRMC,122057.000,A,5131.8119,N,00003.6449,W,0.43,255.29,161121,,,D*7B

$GPGGA,122058.000,5131.8119,N,00003.6451,W,2,05,2.12,26.1,M,47.0,M,0000,0000*41

$GPRMC,122103.000,A,5131.8122,N,00003.6461,W,0.62,287.95,161121,,,D*72

$GPGGA,122104.000,5131.8126,N,00003.6460,W,2,05,2.12,26.1,M,47.0,M,0000,0000*47

$GPRMC,122109.000,A,5131.8137,N,00003.6471,W,0.68,302.87,161121,,,D*78

$GPGGA,122110.000,5131.8141,N,00003.6473,W,2,05,2.12,26.2,M,47.0,M,0000,0000*42

$GPRMC,122115.000,A,5131.8140,N,00003.6483,W,0.69,293.27,161121,,,D*7A

$GPGGA,122116.000,5131.8139,N,00003.6488,W,2,05,2.12,26.2,M,47.0,M,0000,0000*4F

$GPRMC,122121.000,A,5131.8190,N,00003.6358,W,0.64,11.60,161121,,,D*47

$GPGGA,122122.000,5131.8199,N,00003.6351,W,2,05,4.65,26.2,M,47.0,M,0000,0000*47

$GPRMC,122127.000,A,5131.8221,N,00003.6279,W,0.65,55.55,161121,,,D*4D

$GPGGA,122128.000,5131.8225,N,00003.6267,W,2,05,2.12,26.2,M,47.0,M,0000,0000*4B

$GPRMC,122133.000,A,5131.8232,N,00003.6209,W,1.00,78.53,161121,,,D*46

$GPGGA,122134.000,5131.8235,N,00003.6199,W,2,05,2.12,26.3,M,47.0,M,0000,0000*44

$GPRMC,122139.000,A,5131.8239,N,00003.6143,W,1.39,80.42,161121,,,D*47

$GPGGA,122140.000,5131.8239,N,00003.6132,W,2,05,2.12,26.3,M,47.0,M,0000,0000*4A

$GPRMC,122145.000,A,5131.8236,N,00003.6085,W,1.43,85.79,161121,,,D*48

$GPGGA,122146.000,5131.8235,N,00003.6078,W,2,05,2.12,26.2,M,47.0,M,0000,0000*4E

$GPRMC,122151.000,A,5131.8237,N,00003.6052,W,1.37,83.09,161121,,,D*44

$GPGGA,122152.000,5131.8237,N,00003.6045,W,2,05,2.12,26.2,M,47.0,M,0000,0000*47

$GPRMC,122157.000,A,5131.8237,N,00003.6023,W,1.43,85.28,161121,,,D*42

$GPGGA,122158.000,5131.8237,N,00003.6017,W,2,05,2.12,26.1,M,47.0,M,0000,0000*49

$GPRMC,122203.000,A,5131.8242,N,00003.6005,W,1.25,81.27,161121,,,D*4D

$GPGGA,122204.000,5131.8241,N,00003.6005,W,2,05,2.12,26.0,M,47.0,M,0000,0000*40

$GPRMC,122209.000,A,5131.8236,N,00003.6019,W,1.11,92.42,161121,,,D*4F

$GPGGA,122210.000,5131.8237,N,00003.6017,W,2,05,2.12,25.9,M,47.0,M,0000,0000*4D

$GPRMC,122215.000,A,5131.8236,N,00003.6016,W,1.17,85.28,161121,,,D*41

$GPGGA,122216.000,5131.8234,N,00003.6017,W,2,05,2.12,25.8,M,47.0,M,0000,0000*49

$GPRMC,122221.000,A,5131.8241,N,00003.6022,W,0.69,78.24,161121,,,D*47

$GPGGA,122222.000,5131.8241,N,00003.6022,W,2,05,2.12,25.7,M,47.0,M,0000,0000*45

$GPRMC,122227.000,A,5131.8242,N,00003.6028,W,0.62,87.39,161121,,,D*4F

$GPGGA,122228.000,5131.8244,N,00003.6027,W,2,05,2.12,25.6,M,47.0,M,0000,0000*4E

$GPRMC,122233.000,A,5131.8243,N,00003.6019,W,0.72,101.91,161121,,,D*75

$GPGGA,122234.000,5131.8241,N,00003.6019,W,2,05,2.12,25.5,M,47.0,M,0000,0000*48

$GPRMC,122239.000,A,5131.8236,N,00003.6032,W,0.40,103.65,161121,,,D*7C

$GPGGA,122240.000,5131.8236,N,00003.6038,W,2,05,2.12,25.4,M,47.0,M,0000,0000*49

$GPRMC,122245.000,A,5131.8234,N,00003.6043,W,0.26,103.65,161121,,,D*73

$GPGGA,122246.000,5131.8233,N,00003.6042,W,2,05,2.12,25.4,M,47.0,M,0000,0000*47

