$GPGGA,153538.000,5131.8219,N,00003.6137,W,1,04,2.02,-10.1,M,47.0,M,,*69

$GPRMC,153538.000,A,5131.8219,N,00003.6137,W,0.25,202.20,141121,,,A*72

$GPRMC,153543.000,A,5131.8237,N,00003.6094,W,0.13,44.81,141121,,,A*44

$GPGGA,153544.000,5131.8240,N,00003.6085,W,1,04,2.02,-1.0,M,47.0,M,,*57

$GPGGA,153549.000,5131.8248,N,00003.6061,W,1,04,2.02,1.9,M,47.0,M,,*7C

$GPRMC,153549.000,A,5131.8248,N,00003.6061,W,0.33,27.85,141121,,,A*4F

$GPGGA,153554.000,5131.8252,N,00003.6055,W,1,04,2.02,4.1,M,47.0,M,,*71

$GPRMC,153554.000,A,5131.8252,N,00003.6055,W,0.18,30.58,141121,,,A*40

$GPGGA,153559.000,5131.8248,N,00003.6066,W,1,04,2.02,3.6,M,47.0,M,,*77

$GPRMC,153559.000,A,5131.8248,N,00003.6066,W,0.14,338.21,141121,,,A*7F

$GPGGA,153604.000,5131.8249,N,00003.6061,W,1,04,2.46,4.2,M,47.0,M,,*79

$GPRMC,153604.000,A,5131.8249,N,00003.6061,W,0.11,299.60,141121,,,A*78

$GPGGA,153609.000,5131.8249,N,00003.6055,W,1,04,2.44,5.2,M,47.0,M,,*70

$GPRMC,153609.000,A,5131.8249,N,00003.6055,W,0.08,120.34,141121,,,A*7A

$GPGGA,153614.000,5131.8252,N,00003.6055,W,1,04,2.44,6.1,M,47.0,M,,*76

$GPRMC,153614.000,A,5131.8252,N,00003.6055,W,0.08,19.32,141121,,,A*41

$GPGGA,153619.000,5131.8254,N,00003.6056,W,1,04,2.44,7.1,M,47.0,M,,*7F

$GPRMC,153619.000,A,5131.8254,N,00003.6056,W,0.04,84.21,141121,,,A*43

$GPGGA,153624.000,5131.8259,N,00003.6054,W,1,04,2.44,8.4,M,47.0,M,,*74

$GPRMC,153624.000,A,5131.8259,N,00003.6054,W,0.20,43.30,141121,,,A*4F

$GPGGA,153629.000,5131.8267,N,00003.6046,W,1,04,2.44,9.8,M,47.0,M,,*7A

$GPRMC,153629.000,A,5131.8267,N,00003.6046,W,0.40,37.20,141121,,,A*48

$GPGGA,153634.000,5131.8269,N,00003.6040,W,1,04,2.44,10.4,M,47.0,M,,*4A

$GPRMC,153634.000,A,5131.8269,N,00003.6040,W,0.26,31.79,141121,,,A*46

$GPGGA,153639.000,5131.8270,N,00003.6035,W,1,04,2.44,10.4,M,47.0,M,,*4D

$GPRMC,153639.000,A,5131.8270,N,00003.6035,W,0.18,91.86,141121,,,A*46

$GPGGA,153644.000,5131.8271,N,00003.6031,W,1,04,2.44,10.4,M,47.0,M,,*42

$GPRMC,153644.000,A,5131.8271,N,00003.6031,W,0.28,34.99,141121,,,A*4B

$GPGGA,153649.000,5131.8274,N,00003.6027,W,1,04,2.44,10.4,M,47.0,M,,*4D

$GPRMC,153649.000,A,5131.8274,N,00003.6027,W,0.50,53.72,141121,,,A*4F

$GPGGA,153654.000,5131.8277,N,00003.6017,W,1,04,2.45,10.4,M,47.0,M,,*40

$GPRMC,153654.000,A,5131.8277,N,00003.6017,W,0.44,69.83,141121,,,A*41

$GPGGA,153659.000,5131.8280,N,00003.6007,W,1,04,2.45,10.4,M,47.0,M,,*44

$GPRMC,153659.000,A,5131.8280,N,00003.6007,W,0.44,69.78,141121,,,A*41

$GPGGA,153704.000,5131.8284,N,00003.5996,W,1,05,2.31,10.4,M,47.0,M,,*49

$GPRMC,153704.000,A,5131.8284,N,00003.5996,W,0.30,60.87,141121,,,A*44

$GPGGA,153709.000,5131.8287,N,00003.5993,W,1,05,2.31,10.4,M,47.0,M,,*42

$GPRMC,153709.000,A,5131.8287,N,00003.5993,W,0.26,47.87,141121,,,A*4D

$GPGGA,153714.000,5131.8289,N,00003.5987,W,1,05,2.31,10.4,M,47.0,M,,*45

$GPRMC,153714.000,A,5131.8289,N,00003.5987,W,0.27,34.32,141121,,,A*41

$GPGGA,153719.000,5131.8292,N,00003.5980,W,1,05,2.32,10.4,M,47.0,M,,*46

$GPRMC,153719.000,A,5131.8292,N,00003.5980,W,0.31,72.27,141121,,,A*40

$GPGGA,153724.000,5131.8293,N,00003.5977,W,1,05,2.32,10.4,M,47.0,M,,*41

$GPRMC,153724.000,A,5131.8293,N,00003.5977,W,0.11,324.05,141121,,,A*75

$GPRMC,153729.000,A,5131.8295,N,00003.5976,W,0.29,42.76,141121,,,A*43

$GPGGA,153730.000,5131.8295,N,00003.5976,W,1,05,2.32,10.4,M,47.0,M,,*43

$GPGGA,153735.000,5131.8298,N,00003.5973,W,1,05,2.32,10.4,M,47.0,M,,*4E

$GPRMC,153735.000,A,5131.8298,N,00003.5973,W,0.11,22.40,141121,,,A*4E

$GPGGA,153740.000,5131.8299,N,00003.5972,W,1,05,2.32,10.5,M,47.0,M,,*4D

$GPRMC,153740.000,A,5131.8299,N,00003.5972,W,0.07,3.49,141121,,,A*71

$GPRMC,153745.000,A,5131.8300,N,00003.5973,W,0.27,343.00,141121,,,A*7C

$GPGGA,153746.000,5131.8300,N,00003.5973,W,1,05,2.32,10.5,M,47.0,M,,*4B

$GPRMC,153751.000,A,5131.8301,N,00003.5975,W,0.11,14.05,141121,,,A*4F

$GPGGA,153752.000,5131.8302,N,00003.5975,W,1,05,2.33,10.5,M,47.0,M,,*4B

$GPRMC,153757.000,A,5131.8305,N,00003.5975,W,0.12,41.26,141121,,,A*4F

$GPGGA,153758.000,5131.8305,N,00003.5974,W,1,05,2.32,10.5,M,47.0,M,,*46

$GPGGA,153803.000,5131.8306,N,00003.5976,W,1,05,2.32,10.5,M,47.0,M,,*46

$GPRMC,153803.000,A,5131.8306,N,00003.5976,W,0.26,297.89,141121,,,A*7A

$GPRMC,153808.000,A,5131.8306,N,00003.5980,W,0.19,245.74,141121,,,A*79

$GPGGA,153809.000,5131.8306,N,00003.5981,W,1,05,2.32,10.5,M,47.0,M,,*44

$GPRMC,153814.000,A,5131.8305,N,00003.5986,W,0.23,221.36,141121,,,A*7C

$GPGGA,153815.000,5131.8304,N,00003.5987,W,1,05,2.32,10.5,M,47.0,M,,*4D

$GPRMC,153819.000,A,5131.8303,N,00003.5987,W,0.14,297.73,141121,,,A*7E

$GPGGA,153820.000,5131.8303,N,00003.5988,W,1,05,2.32,10.5,M,47.0,M,,*43

$GPRMC,153825.000,A,5131.8301,N,00003.5991,W,0.15,244.33,141121,,,A*7F

$GPGGA,153826.000,5131.8301,N,00003.5991,W,1,05,2.32,10.5,M,47.0,M,,*4F

$GPRMC,153831.000,A,5131.8299,N,00003.5996,W,0.40,225.17,141121,,,A*7C

$GPGGA,153832.000,5131.8298,N,00003.5998,W,1,05,2.32,10.5,M,47.0,M,,*42

$GPRMC,153837.000,A,5131.8294,N,00003.6003,W,0.23,236.38,141121,,,A*7B

$GPGGA,153838.000,5131.8294,N,00003.6004,W,1,05,2.32,10.5,M,47.0,M,,*4B

$GPRMC,153843.000,A,5131.8293,N,00003.6008,W,0.14,233.73,141121,,,A*7A

$GPGGA,153844.000,5131.8293,N,00003.6008,W,1,05,2.32,10.5,M,47.0,M,,*4B

$GPRMC,153849.000,A,5131.8292,N,00003.6009,W,0.07,85.16,141121,,,A*4E

$GPGGA,153850.000,5131.8292,N,00003.6008,W,1,05,2.33,10.4,M,47.0,M,,*4F

$GPRMC,153855.000,A,5131.8292,N,00003.6010,W,0.06,220.94,141121,,,A*7D

$GPGGA,153856.000,5131.8292,N,00003.6010,W,1,05,2.32,10.4,M,47.0,M,,*41

$GPRMC,153901.000,A,5131.8291,N,00003.6012,W,0.21,219.59,141121,,,A*72

$GPGGA,153902.000,5131.8291,N,00003.6012,W,1,05,2.33,10.4,M,47.0,M,,*41

$GPRMC,153907.000,A,5131.8290,N,00003.6011,W,0.09,352.72,141121,,,A*7B

$GPGGA,153908.000,5131.8290,N,00003.6011,W,1,05,2.34,10.4,M,47.0,M,,*4E

$GPGGA,153913.000,5131.8290,N,00003.6009,W,1,05,2.33,10.4,M,47.0,M,,*4A

$GPRMC,153913.000,A,5131.8290,N,00003.6009,W,0.01,230.17,141121,,,A*79

$GPRMC,153918.000,A,5131.8289,N,00003.6011,W,0.37,265.12,141121,,,A*73

$GPGGA,153919.000,5131.8289,N,00003.6013,W,1,05,2.33,10.4,M,47.0,M,,*43

$GPRMC,153924.000,A,5131.8288,N,00003.6017,W,0.30,242.44,141121,,,A*7A

$GPGGA,153925.000,5131.8288,N,00003.6019,W,1,05,2.33,10.4,M,47.0,M,,*47

$GPRMC,153930.000,A,5131.8286,N,00003.6022,W,0.11,137.76,141121,,,A*74

$GPGGA,153931.000,5131.8286,N,00003.6021,W,1,05,2.33,10.4,M,47.0,M,,*47

$GPGGA,153936.000,5131.8287,N,00003.6018,W,1,05,2.33,10.4,M,47.0,M,,*4B

$GPRMC,153936.000,A,5131.8287,N,00003.6018,W,0.06,5.81,141121,,,A*74

$GPGGA,153941.000,5131.8288,N,00003.6016,W,1,05,2.33,10.4,M,47.0,M,,*4A

$GPRMC,153941.000,A,5131.8288,N,00003.6016,W,0.28,48.53,141121,,,A*4F

$GPGGA,153946.000,5131.8290,N,00003.6010,W,1,05,2.33,10.4,M,47.0,M,,*42

$GPRMC,153946.000,A,5131.8290,N,00003.6010,W,0.33,46.39,141121,,,A*4F

$GPGGA,153951.000,5131.8294,N,00003.6006,W,1,05,2.33,10.4,M,47.0,M,,*47

$GPRMC,153951.000,A,5131.8294,N,00003.6006,W,0.29,30.29,141121,,,A*41

$GPGGA,153956.000,5131.8296,N,00003.6005,W,1,05,2.33,10.4,M,47.0,M,,*41

$GPRMC,153956.000,A,5131.8296,N,00003.6005,W,0.04,346.82,141121,,,A*7B

$GPRMC,154001.000,A,5131.8298,N,00003.6007,W,0.21,322.61,141121,,,A*73

$GPGGA,154002.000,5131.8299,N,00003.6007,W,1,05,2.33,10.4,M,47.0,M,,*43

$GPRMC,154007.000,A,5131.8299,N,00003.6013,W,0.32,248.89,141121,,,A*78

$GPGGA,154008.000,5131.8299,N,00003.6014,W,1,05,2.33,10.5,M,47.0,M,,*4A

$GPRMC,154013.000,A,5131.8298,N,00003.6019,W,0.29,264.11,141121,,,A*73

$GPGGA,154014.000,5131.8297,N,00003.6021,W,1,05,2.33,10.4,M,47.0,M,,*4E

$GPRMC,154019.000,A,5131.8296,N,00003.6028,W,0.33,229.44,141121,,,A*77

$GPGGA,154020.000,5131.8295,N,00003.6029,W,1,05,2.34,10.4,M,47.0,M,,*44

$GPRMC,154025.000,A,5131.8294,N,00003.6032,W,0.23,260.69,141121,,,A*72

$GPGGA,154026.000,5131.8294,N,00003.6033,W,1,05,2.33,10.4,M,47.0,M,,*4F

$GPRMC,154031.000,A,5131.8293,N,00003.6034,W,0.03,68.64,141121,,,A*43

$GPGGA,154032.000,5131.8293,N,00003.6034,W,1,05,2.33,10.4,M,47.0,M,,*4A

$GPRMC,154037.000,A,5131.8293,N,00003.6033,W,0.07,239.08,141121,,,A*7A

$GPGGA,154038.000,5131.8293,N,00003.6034,W,1,05,2.34,10.4,M,47.0,M,,*47

$GPRMC,154043.000,A,5131.8292,N,00003.6037,W,0.21,263.34,141121,,,A*78

$GPGGA,154044.000,5131.8292,N,00003.6038,W,1,05,2.34,10.4,M,47.0,M,,*41

$GPRMC,154049.000,A,5131.8293,N,00003.6039,W,0.11,79.76,141121,,,A*41

$GPGGA,154050.000,5131.8293,N,00003.6039,W,1,05,2.34,10.4,M,47.0,M,,*44

$GPRMC,154055.000,A,5131.8292,N,00003.6045,W,0.49,251.55,141121,,,A*72

$GPGGA,154056.000,5131.8292,N,00003.6047,W,1,05,2.34,10.4,M,47.0,M,,*4A

$GPRMC,154101.000,A,5131.8291,N,00003.6055,W,0.36,281.32,141121,,,A*74

$GPGGA,154102.000,5131.8291,N,00003.6057,W,1,05,2.34,10.4,M,47.0,M,,*48

$GPRMC,154107.000,A,5131.8292,N,00003.6064,W,0.32,237.54,141121,,,A*7A

$GPGGA,154108.000,5131.8291,N,00003.6066,W,1,05,2.34,10.4,M,47.0,M,,*40

$GPRMC,154113.000,A,5131.8291,N,00003.6071,W,0.22,273.61,141121,,,A*7F

$GPGGA,154114.000,5131.8291,N,00003.6072,W,1,05,2.34,10.4,M,47.0,M,,*48

$GPRMC,154119.000,A,5131.8290,N,00003.6079,W,0.31,246.89,141121,,,A*7E

$GPGGA,154120.000,5131.8290,N,00003.6081,W,1,05,2.34,10.4,M,47.0,M,,*42

$GPRMC,154125.000,A,5131.8287,N,00003.6091,W,0.45,250.60,141121,,,A*72

$GPGGA,154126.000,5131.8286,N,00003.6093,W,1,05,2.34,10.4,M,47.0,M,,*40

$GPRMC,154131.000,A,5131.8281,N,00003.6113,W,0.58,253.11,141121,,,A*73

$GPGGA,154132.000,5131.8279,N,00003.6116,W,1,05,2.34,10.4,M,47.0,M,,*49

$GPRMC,154137.000,A,5131.8266,N,00003.6146,W,0.56,251.34,141121,,,A*77

$GPGGA,154138.000,5131.8263,N,00003.6155,W,1,05,2.34,10.6,M,47.0,M,,*4D

$GPRMC,154143.000,A,5131.8249,N,00003.6191,W,0.65,253.86,141121,,,A*78

$GPGGA,154144.000,5131.8247,N,00003.6196,W,1,05,2.34,10.9,M,47.0,M,,*40

$GPRMC,154149.000,A,5131.8241,N,00003.6203,W,0.36,246.33,141121,,,A*7E

$GPGGA,154150.000,5131.8240,N,00003.6204,W,1,05,2.34,11.1,M,47.0,M,,*43

$GPRMC,154155.000,A,5131.8239,N,00003.6213,W,0.58,247.41,141121,,,A*71

$GPGGA,154156.000,5131.8242,N,00003.6190,W,1,05,2.34,10.9,M,47.0,M,,*40

$GPRMC,154201.000,A,5131.8239,N,00003.6201,W,0.19,286.48,141121,,,A*71

$GPGGA,154202.000,5131.8239,N,00003.6202,W,1,05,2.34,10.9,M,47.0,M,,*46

$GPRMC,154207.000,A,5131.8239,N,00003.6208,W,0.17,325.64,141121,,,A*76

$GPGGA,154208.000,5131.8240,N,00003.6208,W,1,05,2.34,10.9,M,47.0,M,,*48

$GPRMC,154213.000,A,5131.8240,N,00003.6209,W,0.15,239.09,141121,,,A*79

$GPGGA,154214.000,5131.8240,N,00003.6209,W,1,05,2.35,10.9,M,47.0,M,,*45

$GPRMC,154219.000,A,5131.8240,N,00003.6215,W,0.19,230.53,141121,,,A*74

$GPGGA,154220.000,5131.8240,N,00003.6215,W,1,05,2.35,10.9,M,47.0,M,,*4F

$GPRMC,154225.000,A,5131.8239,N,00003.6218,W,0.03,118.73,141121,,,A*78

$GPGGA,154226.000,5131.8239,N,00003.6218,W,1,05,2.35,10.9,M,47.0,M,,*4A

$GPRMC,154231.000,A,5131.8241,N,00003.6218,W,0.09,352.69,141121,,,A*7F

$GPGGA,154232.000,5131.8241,N,00003.6218,W,1,05,2.36,10.9,M,47.0,M,,*43

$GPGGA,154237.000,5131.8244,N,00003.6217,W,1,05,2.35,10.9,M,47.0,M,,*4F

$GPRMC,154237.000,A,5131.8244,N,00003.6217,W,0.25,13.28,141121,,,A*4E

$GPRMC,154242.000,A,5131.8246,N,00003.6216,W,0.27,354.61,141121,,,A*70

$GPGGA,154243.000,5131.8247,N,00003.6216,W,1,05,2.36,10.9,M,47.0,M,,*4D

$GPGGA,154248.000,5131.8248,N,00003.6215,W,1,05,2.36,10.9,M,47.0,M,,*4A

$GPRMC,154248.000,A,5131.8248,N,00003.6215,W,0.32,71.79,141121,,,A*4E

$GPGGA,154253.000,5131.8250,N,00003.6207,W,1,05,2.35,10.9,M,47.0,M,,*49

$GPRMC,154253.000,A,5131.8250,N,00003.6207,W,0.27,65.28,141121,,,A*4B

$GPGGA,154258.000,5131.8252,N,00003.6200,W,1,05,2.35,10.9,M,47.0,M,,*47

$GPRMC,154258.000,A,5131.8252,N,00003.6200,W,0.06,92.91,141121,,,A*4C

$GPGGA,154303.000,5131.8254,N,00003.6195,W,1,05,2.35,10.9,M,47.0,M,,*41

$GPRMC,154303.000,A,5131.8254,N,00003.6195,W,0.42,55.87,141121,,,A*46

$GPGGA,154308.000,5131.8257,N,00003.6190,W,1,05,2.35,10.9,M,47.0,M,,*4C

$GPRMC,154308.000,A,5131.8257,N,00003.6190,W,0.37,42.17,141121,,,A*46

$GPGGA,154313.000,5131.8261,N,00003.6186,W,1,05,2.36,10.9,M,47.0,M,,*47

$GPRMC,154313.000,A,5131.8261,N,00003.6186,W,0.28,28.89,141121,,,A*4B

$GPGGA,154318.000,5131.8262,N,00003.6182,W,1,05,2.35,10.9,M,47.0,M,,*48

$GPRMC,154318.000,A,5131.8262,N,00003.6182,W,0.29,84.73,141121,,,A*45

$GPGGA,154323.000,5131.8263,N,00003.6176,W,1,05,2.35,10.9,M,47.0,M,,*4A

$GPRMC,154323.000,A,5131.8263,N,00003.6176,W,0.38,60.76,141121,,,A*48

$GPGGA,154328.000,5131.8265,N,00003.6169,W,1,05,2.35,10.9,M,47.0,M,,*49

$GPRMC,154328.000,A,5131.8265,N,00003.6169,W,0.31,42.28,141121,,,A*49

$GPGGA,154333.000,5131.8268,N,00003.6164,W,1,05,2.35,10.9,M,47.0,M,,*43

$GPRMC,154333.000,A,5131.8268,N,00003.6164,W,0.09,57.27,141121,,,A*43

$GPGGA,154338.000,5131.8269,N,00003.6159,W,1,05,2.35,10.9,M,47.0,M,,*47

$GPRMC,154338.000,A,5131.8269,N,00003.6159,W,0.35,85.29,141121,,,A*49

$GPGGA,154343.000,5131.8271,N,00003.6147,W,1,05,2.36,10.9,M,47.0,M,,*4E

$GPRMC,154343.000,A,5131.8271,N,00003.6147,W,0.55,66.87,141121,,,A*4C

$GPGGA,154348.000,5131.8277,N,00003.6101,W,1,05,2.36,10.9,M,47.0,M,,*41

$GPRMC,154348.000,A,5131.8277,N,00003.6101,W,0.74,55.72,141121,,,A*4A

$GPGGA,154353.000,5131.8278,N,00003.6094,W,1,05,2.36,11.1,M,47.0,M,,*40

$GPRMC,154353.000,A,5131.8278,N,00003.6094,W,0.51,54.23,141121,,,A*40

$GPGGA,154358.000,5131.8276,N,00003.6088,W,1,05,2.36,11.2,M,47.0,M,,*4B

$GPRMC,154358.000,A,5131.8276,N,00003.6088,W,0.44,59.78,141121,,,A*4F

$GPGGA,154403.000,5131.8278,N,00003.6082,W,1,05,2.36,11.2,M,47.0,M,,*46

$GPRMC,154403.000,A,5131.8278,N,00003.6082,W,0.20,43.20,141121,,,A*46

$GPRMC,154408.000,A,5131.8280,N,00003.6083,W,0.25,289.86,141121,,,A*76

$GPGGA,154409.000,5131.8280,N,00003.6084,W,1,05,2.36,11.2,M,47.0,M,,*4D

$GPRMC,154414.000,A,5131.8278,N,00003.6094,W,0.45,255.16,141121,,,A*74

$GPGGA,154415.000,5131.8278,N,00003.6096,W,1,05,2.36,11.2,M,47.0,M,,*44

$GPRMC,154420.000,A,5131.8277,N,00003.6102,W,0.29,334.51,141121,,,A*7D

$GPGGA,154421.000,5131.8278,N,00003.6103,W,1,05,2.36,11.1,M,47.0,M,,*4D

$GPRMC,154426.000,A,5131.8278,N,00003.6111,W,0.55,255.08,141121,,,A*77

$GPGGA,154427.000,5131.8277,N,00003.6114,W,1,05,2.36,11.1,M,47.0,M,,*42

$GPRMC,154432.000,A,5131.8265,N,00003.6145,W,0.53,228.25,141121,,,A*7C

$GPGGA,154433.000,5131.8264,N,00003.6147,W,1,05,2.36,11.1,M,47.0,M,,*43

$GPRMC,154438.000,A,5131.8261,N,00003.6157,W,0.28,257.52,141121,,,A*75

$GPGGA,154439.000,5131.8260,N,00003.6158,W,1,05,2.36,11.1,M,47.0,M,,*43

$GPRMC,154444.000,A,5131.8259,N,00003.6167,W,0.53,258.33,141121,,,A*72

$GPGGA,154445.000,5131.8259,N,00003.6169,W,1,05,2.36,11.1,M,47.0,M,,*40

$GPRMC,154450.000,A,5131.8258,N,00003.6181,W,0.46,276.53,141121,,,A*70

$GPGGA,154451.000,5131.8258,N,00003.6183,W,1,05,2.36,11.1,M,47.0,M,,*40

$GPRMC,154456.000,A,5131.8256,N,00003.6194,W,0.46,249.78,141121,,,A*79

$GPGGA,154457.000,5131.8256,N,00003.6196,W,1,05,2.37,11.1,M,47.0,M,,*4D

$GPRMC,154502.000,A,5131.8255,N,00003.6203,W,0.19,283.18,141121,,,A*7D

$GPGGA,154503.000,5131.8255,N,00003.6204,W,1,05,2.36,11.1,M,47.0,M,,*47

$GPRMC,154508.000,A,5131.8253,N,00003.6210,W,0.39,254.69,141121,,,A*7D

$GPGGA,154509.000,5131.8253,N,00003.6212,W,1,05,2.37,11.1,M,47.0,M,,*4D

$GPRMC,154514.000,A,5131.8247,N,00003.6224,W,0.51,258.96,141121,,,A*70

$GPGGA,154515.000,5131.8246,N,00003.6226,W,1,05,2.37,11.0,M,47.0,M,,*42

$GPRMC,154520.000,A,5131.8243,N,00003.6230,W,0.15,231.44,141121,,,A*76

$GPGGA,154521.000,5131.8243,N,00003.6230,W,1,05,2.37,11.0,M,47.0,M,,*47

$GPRMC,154526.000,A,5131.8240,N,00003.6232,W,0.29,252.66,141121,,,A*7B

$GPGGA,154527.000,5131.8240,N,00003.6234,W,1,05,2.37,11.0,M,47.0,M,,*46

$GPRMC,154532.000,A,5131.8239,N,00003.6239,W,0.08,306.85,141121,,,A*75

$GPGGA,154533.000,5131.8239,N,00003.6239,W,1,05,2.37,11.0,M,47.0,M,,*40

$GPRMC,154538.000,A,5131.8240,N,00003.6242,W,0.25,246.63,141121,,,A*7F

$GPGGA,154539.000,5131.8240,N,00003.6243,W,1,05,2.37,11.0,M,47.0,M,,*49

$GPRMC,154544.000,A,5131.8239,N,00003.6249,W,0.20,252.93,141121,,,A*7E

$GPGGA,154545.000,5131.8239,N,00003.6249,W,1,05,2.37,11.0,M,47.0,M,,*46

$GPRMC,154550.000,A,5131.8238,N,00003.6251,W,0.25,273.23,141121,,,A*7E

$GPGGA,154551.000,5131.8238,N,00003.6252,W,1,05,2.37,11.0,M,47.0,M,,*48

$GPRMC,154556.000,A,5131.8237,N,00003.6257,W,0.34,253.49,141121,,,A*7F

$GPGGA,154557.000,5131.8237,N,00003.6259,W,1,05,2.38,11.0,M,47.0,M,,*45

$GPRMC,154602.000,A,5131.8234,N,00003.6266,W,0.20,225.00,141121,,,A*75

$GPGGA,154603.000,5131.8234,N,00003.6267,W,1,05,2.37,11.0,M,47.0,M,,*46

$GPRMC,154608.000,A,5131.8233,N,00003.6273,W,0.31,264.31,141121,,,A*7B

$GPGGA,154609.000,5131.8233,N,00003.6275,W,1,05,2.37,11.1,M,47.0,M,,*49

$GPRMC,154614.000,A,5131.8232,N,00003.6281,W,0.26,271.90,141121,,,A*73

$GPGGA,154615.000,5131.8232,N,00003.6282,W,1,05,2.37,11.1,M,47.0,M,,*4D

$GPRMC,154620.000,A,5131.8232,N,00003.6283,W,0.18,231.92,141121,,,A*7D

$GPGGA,154621.000,5131.8232,N,00003.6284,W,1,05,2.38,11.1,M,47.0,M,,*43

$GPGGA,154626.000,5131.8233,N,00003.6283,W,1,05,2.38,11.1,M,47.0,M,,*42

$GPRMC,154626.000,A,5131.8233,N,00003.6283,W,0.02,51.71,141121,,,A*48

$GPGGA,154631.000,5131.8233,N,00003.6281,W,1,05,2.38,11.1,M,47.0,M,,*46

$GPRMC,154631.000,A,5131.8233,N,00003.6281,W,0.02,212.81,141121,,,A*76

$GPRMC,154636.000,A,5131.8233,N,00003.6279,W,0.33,80.56,141121,,,A*47

$GPGGA,154637.000,5131.8233,N,00003.6277,W,1,05,2.38,11.1,M,47.0,M,,*49

$GPGGA,154642.000,5131.8234,N,00003.6270,W,1,05,2.38,11.1,M,47.0,M,,*4B

$GPRMC,154642.000,A,5131.8234,N,00003.6270,W,0.19,86.19,141121,,,A*4F

$GPGGA,154647.000,5131.8234,N,00003.6264,W,1,05,2.38,11.1,M,47.0,M,,*4B

$GPRMC,154647.000,A,5131.8234,N,00003.6264,W,0.09,87.93,141121,,,A*4D

$GPRMC,154652.000,A,5131.8233,N,00003.6263,W,0.23,231.75,141121,,,A*76

$GPGGA,154653.000,5131.8232,N,00003.6264,W,1,05,2.38,11.1,M,47.0,M,,*48

$GPRMC,154658.000,A,5131.8232,N,00003.6261,W,0.27,70.00,141121,,,A*4E

$GPGGA,154659.000,5131.8232,N,00003.6260,W,1,05,2.38,11.1,M,47.0,M,,*46

$GPGGA,154704.000,5131.8234,N,00003.6250,W,1,05,2.38,11.1,M,47.0,M,,*4A

$GPRMC,154704.000,A,5131.8234,N,00003.6250,W,0.55,71.74,141121,,,A*45

$GPGGA,154709.000,5131.8236,N,00003.6241,W,1,05,2.38,11.1,M,47.0,M,,*45

$GPRMC,154709.000,A,5131.8236,N,00003.6241,W,0.40,78.04,141121,,,A*40

$GPGGA,154714.000,5131.8236,N,00003.6232,W,1,05,2.38,11.2,M,47.0,M,,*4E

$GPRMC,154714.000,A,5131.8236,N,00003.6232,W,0.45,85.14,141121,,,A*4E

$GPGGA,154719.000,5131.8237,N,00003.6221,W,1,05,2.38,11.2,M,47.0,M,,*40

$GPRMC,154719.000,A,5131.8237,N,00003.6221,W,0.60,81.96,141121,,,A*49

$GPGGA,154724.000,5131.8238,N,00003.6177,W,1,05,2.38,11.2,M,47.0,M,,*41

$GPRMC,154724.000,A,5131.8238,N,00003.6177,W,0.44,84.44,141121,,,A*44

$GPGGA,154729.000,5131.8238,N,00003.6159,W,1,05,2.39,11.3,M,47.0,M,,*40

$GPRMC,154729.000,A,5131.8238,N,00003.6159,W,0.48,85.52,141121,,,A*4F

$GPGGA,154734.000,5131.8235,N,00003.6159,W,1,05,2.39,11.5,M,47.0,M,,*47

$GPRMC,154734.000,A,5131.8235,N,00003.6159,W,0.26,68.14,141121,,,A*47

$GPRMC,154739.000,A,5131.8235,N,00003.6155,W,0.11,132.50,141121,,,A*7C

$GPGGA,154740.000,5131.8235,N,00003.6155,W,1,05,2.39,11.5,M,47.0,M,,*48

$GPRMC,154745.000,A,5131.8233,N,00003.6153,W,0.08,242.64,141121,,,A*7C

$GPGGA,154746.000,5131.8233,N,00003.6153,W,1,05,2.39,11.5,M,47.0,M,,*4E

$GPRMC,154751.000,A,5131.8233,N,00003.6154,W,0.04,63.12,141121,,,A*42

$GPGGA,154752.000,5131.8233,N,00003.6154,W,1,05,2.39,11.6,M,47.0,M,,*4F

$GPRMC,154757.000,A,5131.8233,N,00003.6154,W,0.14,169.89,141121,,,A*7C

$GPGGA,154758.000,5131.8233,N,00003.6154,W,1,05,2.39,11.6,M,47.0,M,,*45

$GPRMC,154803.000,A,5131.8231,N,00003.6159,W,0.25,231.78,141121,,,A*7F

$GPGGA,154804.000,5131.8231,N,00003.6160,W,1,05,2.39,11.6,M,47.0,M,,*46

$GPRMC,154809.000,A,5131.8230,N,00003.6166,W,0.24,291.77,141121,,,A*7C

$GPGGA,154810.000,5131.8230,N,00003.6167,W,1,05,2.39,11.6,M,47.0,M,,*45

$GPRMC,154815.000,A,5131.8231,N,00003.6172,W,0.18,266.67,141121,,,A*73

$GPGGA,154816.000,5131.8231,N,00003.6173,W,1,05,2.39,11.6,M,47.0,M,,*47

$GPRMC,154821.000,A,5131.8232,N,00003.6178,W,0.11,305.50,141121,,,A*74

$GPGGA,154822.000,5131.8232,N,00003.6178,W,1,05,2.39,11.6,M,47.0,M,,*48

$GPGGA,154827.000,5131.8233,N,00003.6177,W,1,05,2.39,11.6,M,47.0,M,,*43

$GPRMC,154827.000,A,5131.8233,N,00003.6177,W,0.16,284.60,141121,,,A*70

$GPRMC,154832.000,A,5131.8233,N,00003.6180,W,0.07,106.27,141121,,,A*76

$GPGGA,154833.000,5131.8233,N,00003.6180,W,1,05,2.39,11.6,M,47.0,M,,*4E

$GPRMC,154838.000,A,5131.8232,N,00003.6181,W,0.20,266.55,141121,,,A*79

$GPGGA,154839.000,5131.8232,N,00003.6182,W,1,05,2.39,11.6,M,47.0,M,,*47

$GPRMC,154844.000,A,5131.8230,N,00003.6190,W,0.35,267.37,141121,,,A*71

$GPGGA,154845.000,5131.8230,N,00003.6192,W,1,05,2.39,11.6,M,47.0,M,,*4F

$GPRMC,154850.000,A,5131.8232,N,00003.6195,W,0.23,342.15,141121,,,A*72

$GPGGA,154851.000,5131.8232,N,00003.6196,W,1,05,2.40,11.6,M,47.0,M,,*42

$GPRMC,154856.000,A,5131.8234,N,00003.6199,W,0.17,242.25,141121,,,A*7B

$GPGGA,154857.000,5131.8233,N,00003.6199,W,1,05,2.40,11.6,M,47.0,M,,*4A

$GPRMC,154902.000,A,5131.8233,N,00003.6200,W,0.20,119.87,141121,,,A*7E

$GPGGA,154903.000,5131.8233,N,00003.6199,W,1,05,2.40,11.6,M,47.0,M,,*4A

$GPRMC,154908.000,A,5131.8234,N,00003.6197,W,0.03,246.29,141121,,,A*72

$GPGGA,154909.000,5131.8234,N,00003.6197,W,1,05,2.40,11.6,M,47.0,M,,*49

$GPRMC,154914.000,A,5131.8234,N,00003.6198,W,0.19,247.69,141121,,,A*7E

$GPGGA,154915.000,5131.8234,N,00003.6198,W,1,05,2.40,11.6,M,47.0,M,,*4B

$GPRMC,154920.000,A,5131.8233,N,00003.6201,W,0.20,306.85,141121,,,A*71

$GPGGA,154921.000,5131.8234,N,00003.6202,W,1,05,2.40,11.6,M,47.0,M,,*4C

$GPRMC,154926.000,A,5131.8234,N,00003.6205,W,0.16,352.26,141121,,,A*79

$GPGGA,154927.000,5131.8234,N,00003.6205,W,1,06,1.09,11.6,M,47.0,M,,*40

$GPRMC,154932.000,A,5131.8237,N,00003.6208,W,0.22,289.42,141121,,,A*70

$GPGGA,154933.000,5131.8237,N,00003.6209,W,1,06,1.05,11.6,M,47.0,M,,*46

$GPRMC,154938.000,A,5131.8237,N,00003.6209,W,0.04,174.68,141121,,,A*76

$GPGGA,154939.000,5131.8237,N,00003.6209,W,1,06,1.05,11.6,M,47.0,M,,*4C

$GPRMC,154944.000,A,5131.8236,N,00003.6207,W,0.14,42.62,141121,,,A*4D

$GPGGA,154945.000,5131.8237,N,00003.6206,W,1,06,1.05,11.6,M,47.0,M,,*48

$GPGGA,154950.000,5131.8237,N,00003.6204,W,1,06,1.05,11.6,M,47.0,M,,*4E

$GPRMC,154950.000,A,5131.8237,N,00003.6204,W,0.12,40.55,141121,,,A*4A

$GPRMC,154955.000,A,5131.8238,N,00003.6203,W,0.18,118.34,141121,,,A*76

$GPGGA,154956.000,5131.8238,N,00003.6202,W,1,06,1.05,11.6,M,47.0,M,,*41

$GPRMC,155001.000,A,5131.8238,N,00003.6200,W,0.11,11.53,141121,,,A*4C

$GPGGA,155002.000,5131.8239,N,00003.6199,W,1,06,1.09,11.5,M,47.0,M,,*47

$GPGGA,155007.000,5131.8239,N,00003.6196,W,1,06,1.05,11.5,M,47.0,M,,*41

$GPRMC,155007.000,A,5131.8239,N,00003.6196,W,0.23,70.12,141121,,,A*44

$GPRMC,155012.000,A,5131.8238,N,00003.6192,W,0.33,181.39,141121,,,A*72

$GPGGA,155013.000,5131.8237,N,00003.6192,W,1,06,1.05,11.5,M,47.0,M,,*4E

$GPRMC,155018.000,A,5131.8235,N,00003.6194,W,0.16,261.36,141121,,,A*76

$GPGGA,155019.000,5131.8235,N,00003.6195,W,1,06,1.05,11.5,M,47.0,M,,*41

$GPRMC,155024.000,A,5131.8235,N,00003.6197,W,0.09,290.66,141121,,,A*7F

$GPGGA,155025.000,5131.8235,N,00003.6197,W,1,06,1.05,11.6,M,47.0,M,,*4F

$GPRMC,155030.000,A,5131.8236,N,00003.6199,W,0.23,346.58,141121,,,A*78

$GPGGA,155031.000,5131.8236,N,00003.6199,W,1,06,1.09,11.6,M,47.0,M,,*4B

$GPGGA,155036.000,5131.8235,N,00003.6197,W,1,06,1.05,11.6,M,47.0,M,,*4D

$GPRMC,155036.000,A,5131.8235,N,00003.6197,W,0.20,153.03,141121,,,A*78

$GPRMC,155041.000,A,5131.8234,N,00003.6198,W,0.09,234.81,141121,,,A*75

$GPGGA,155042.000,5131.8234,N,00003.6198,W,1,06,1.05,11.6,M,47.0,M,,*40

$GPRMC,155047.000,A,5131.8233,N,00003.6198,W,0.01,250.18,141121,,,A*7E

$GPGGA,155048.000,5131.8232,N,00003.6198,W,1,06,1.05,11.6,M,47.0,M,,*4C

$GPRMC,155053.000,A,5131.8233,N,00003.6199,W,0.08,219.58,141121,,,A*7A

$GPGGA,155054.000,5131.8233,N,00003.6199,W,1,06,1.05,11.6,M,47.0,M,,*41

$GPRMC,155059.000,A,5131.8232,N,00003.6201,W,0.17,239.14,141121,,,A*77

$GPGGA,155100.000,5131.8232,N,00003.6201,W,1,06,1.05,11.6,M,47.0,M,,*42

$GPRMC,155105.000,A,5131.8230,N,00003.6204,W,0.20,224.37,141121,,,A*71

$GPGGA,155106.000,5131.8230,N,00003.6205,W,1,06,1.05,11.6,M,47.0,M,,*42

$GPRMC,155111.000,A,5131.8230,N,00003.6207,W,0.03,250.11,141121,,,A*71

$GPGGA,155112.000,5131.8230,N,00003.6207,W,1,06,1.05,11.6,M,47.0,M,,*45

$GPGGA,155117.000,5131.8232,N,00003.6207,W,1,06,1.05,11.6,M,47.0,M,,*42

$GPRMC,155117.000,A,5131.8232,N,00003.6207,W,0.26,330.33,141121,,,A*75

$GPRMC,155122.000,A,5131.8233,N,00003.6209,W,0.11,140.89,141121,,,A*7C

$GPGGA,155123.000,5131.8233,N,00003.6209,W,1,06,1.06,11.6,M,47.0,M,,*49

$GPRMC,155128.000,A,5131.8233,N,00003.6208,W,0.13,19.50,141121,,,A*4C

$GPGGA,155129.000,5131.8233,N,00003.6208,W,1,06,1.05,11.6,M,47.0,M,,*41

$GPRMC,155134.000,A,5131.8233,N,00003.6205,W,0.17,28.90,141121,,,A*46

$GPGGA,155135.000,5131.8234,N,00003.6205,W,1,06,1.05,11.6,M,47.0,M,,*46

$GPGGA,155140.000,5131.8235,N,00003.6205,W,1,06,1.09,11.6,M,47.0,M,,*49

$GPRMC,155140.000,A,5131.8235,N,00003.6205,W,0.14,29.41,141121,,,A*4D

$GPRMC,155145.000,A,5131.8238,N,00003.6205,W,0.16,322.60,141121,,,A*7C

$GPGGA,155146.000,5131.8238,N,00003.6205,W,1,06,1.06,11.6,M,47.0,M,,*4D

$GPRMC,155151.000,A,5131.8240,N,00003.6206,W,0.33,334.47,141121,,,A*70

$GPGGA,155152.000,5131.8241,N,00003.6206,W,1,06,1.05,11.6,M,47.0,M,,*46

$GPRMC,155157.000,A,5131.8244,N,00003.6205,W,0.22,26.34,141121,,,A*45

$GPGGA,155158.000,5131.8244,N,00003.6205,W,1,06,1.06,11.7,M,47.0,M,,*48

$GPRMC,155203.000,A,5131.8245,N,00003.6207,W,0.25,326.77,141121,,,A*77

$GPGGA,155204.000,5131.8245,N,00003.6207,W,1,06,1.06,11.7,M,47.0,M,,*41

$GPRMC,155209.000,A,5131.8248,N,00003.6213,W,0.37,286.25,141121,,,A*7A

$GPGGA,155210.000,5131.8249,N,00003.6214,W,1,06,1.06,11.7,M,47.0,M,,*4A

$GPRMC,155215.000,A,5131.8249,N,00003.6219,W,0.22,270.98,141121,,,A*77

$GPGGA,155216.000,5131.8249,N,00003.6220,W,1,06,1.06,11.8,M,47.0,M,,*44

$GPRMC,155221.000,A,5131.8251,N,00003.6223,W,0.26,345.19,141121,,,A*7A

$GPGGA,155222.000,5131.8252,N,00003.6224,W,1,06,1.09,11.8,M,47.0,M,,*42

$GPGGA,155227.000,5131.8255,N,00003.6224,W,1,06,1.09,11.8,M,47.0,M,,*40

$GPRMC,155227.000,A,5131.8255,N,00003.6224,W,0.11,23.57,141121,,,A*42

$GPRMC,155232.000,A,5131.8256,N,00003.6225,W,0.29,312.89,141121,,,A*7D

$GPGGA,155233.000,5131.8257,N,00003.6226,W,1,06,1.06,11.8,M,47.0,M,,*4A

$GPRMC,155238.000,A,5131.8258,N,00003.6229,W,0.27,249.79,141121,,,A*7B

$GPGGA,155239.000,5131.8257,N,00003.6231,W,1,06,1.06,11.8,M,47.0,M,,*46

$GPRMC,155244.000,A,5131.8257,N,00003.6234,W,0.13,156.36,141121,,,A*72

$GPGGA,155245.000,5131.8257,N,00003.6234,W,1,06,1.06,11.9,M,47.0,M,,*49

$GPRMC,155250.000,A,5131.8256,N,00003.6234,W,0.22,248.26,141121,,,A*79

$GPGGA,155251.000,5131.8256,N,00003.6235,W,1,06,1.06,11.9,M,47.0,M,,*4C

$GPRMC,155256.000,A,5131.8254,N,00003.6240,W,0.12,233.74,141121,,,A*76

$GPGGA,155257.000,5131.8253,N,00003.6240,W,1,06,1.06,11.9,M,47.0,M,,*4D

$GPRMC,155302.000,A,5131.8252,N,00003.6244,W,0.19,249.45,141121,,,A*70

$GPGGA,155303.000,5131.8252,N,00003.6245,W,1,06,1.06,11.9,M,47.0,M,,*49

$GPRMC,155308.000,A,5131.8252,N,00003.6248,W,0.06,219.48,141121,,,A*70

$GPGGA,155309.000,5131.8252,N,00003.6248,W,1,06,1.06,11.9,M,47.0,M,,*4E

$GPGGA,155314.000,5131.8252,N,00003.6248,W,1,06,1.06,11.9,M,47.0,M,,*42

$GPRMC,155314.000,A,5131.8252,N,00003.6248,W,0.09,216.84,141121,,,A*7D

$GPRMC,155319.000,A,5131.8252,N,00003.6252,W,0.24,268.99,141121,,,A*71

$GPGGA,155320.000,5131.8252,N,00003.6253,W,1,06,1.06,11.9,M,47.0,M,,*4F

$GPRMC,155325.000,A,5131.8251,N,00003.6257,W,0.12,283.46,141121,,,A*7A

$GPGGA,155326.000,5131.8251,N,00003.6258,W,1,06,1.06,12.0,M,47.0,M,,*4B

$GPRMC,155331.000,A,5131.8251,N,00003.6257,W,0.15,322.57,141121,,,A*72

$GPGGA,155332.000,5131.8252,N,00003.6258,W,1,06,1.06,12.0,M,47.0,M,,*4D

$GPRMC,155337.000,A,5131.8251,N,00003.6261,W,0.16,248.89,141121,,,A*7C

$GPGGA,155338.000,5131.8251,N,00003.6261,W,1,06,1.06,12.0,M,47.0,M,,*4E

$GPRMC,155343.000,A,5131.8250,N,00003.6264,W,0.14,207.00,141121,,,A*73

$GPGGA,155344.000,5131.8250,N,00003.6265,W,1,06,1.06,12.0,M,47.0,M,,*40

$GPRMC,155349.000,A,5131.8249,N,00003.6266,W,0.13,211.16,141121,,,A*74

$GPGGA,155350.000,5131.8249,N,00003.6266,W,1,06,1.06,12.0,M,47.0,M,,*4E

$GPRMC,155355.000,A,5131.8248,N,00003.6267,W,0.04,59.81,141121,,,A*4F

$GPGGA,155356.000,5131.8248,N,00003.6267,W,1,06,1.06,12.0,M,47.0,M,,*48

$GPGGA,155401.000,5131.8249,N,00003.6264,W,1,06,1.06,12.0,M,47.0,M,,*4F

$GPRMC,155401.000,A,5131.8249,N,00003.6264,W,0.16,72.22,141121,,,A*48

$GPGGA,155406.000,5131.8250,N,00003.6262,W,1,06,1.10,12.1,M,47.0,M,,*40

$GPRMC,155406.000,A,5131.8250,N,00003.6262,W,0.13,341.47,141121,,,A*74

$GPRMC,155411.000,A,5131.8252,N,00003.6262,W,0.15,347.78,141121,,,A*7C

$GPGGA,155412.000,5131.8252,N,00003.6262,W,1,06,1.10,12.1,M,47.0,M,,*47

$GPRMC,155417.000,A,5131.8253,N,00003.6264,W,0.22,332.37,141121,,,A*70

$GPGGA,155418.000,5131.8254,N,00003.6264,W,1,06,1.06,12.1,M,47.0,M,,*4A

$GPRMC,155423.000,A,5131.8255,N,00003.6267,W,0.10,335.18,141121,,,A*79

$GPGGA,155424.000,5131.8255,N,00003.6267,W,1,06,1.06,12.1,M,47.0,M,,*47

$GPRMC,155429.000,A,5131.8257,N,00003.6263,W,0.29,48.97,141121,,,A*41

$GPGGA,155430.000,5131.8257,N,00003.6262,W,1,06,1.06,12.2,M,47.0,M,,*46

$GPGGA,155435.000,5131.8259,N,00003.6252,W,1,06,1.06,12.2,M,47.0,M,,*4E

$GPRMC,155435.000,A,5131.8259,N,00003.6252,W,0.45,64.81,141121,,,A*43

$GPGGA,155440.000,5131.8259,N,00003.6239,W,1,06,1.06,12.2,M,47.0,M,,*41

$GPRMC,155440.000,A,5131.8259,N,00003.6239,W,0.33,45.34,141121,,,A*40

$GPGGA,155445.000,5131.8261,N,00003.6228,W,1,06,1.06,12.2,M,47.0,M,,*4F

$GPRMC,155445.000,A,5131.8261,N,00003.6228,W,0.31,87.29,141121,,,A*4E

$GPGGA,155450.000,5131.8263,N,00003.6219,W,1,06,1.06,12.2,M,47.0,M,,*4B

$GPRMC,155450.000,A,5131.8263,N,00003.6219,W,0.38,86.59,141121,,,A*45

$GPGGA,155455.000,5131.8264,N,00003.6213,W,1,06,1.06,12.2,M,47.0,M,,*43

$GPRMC,155455.000,A,5131.8264,N,00003.6213,W,0.25,68.05,141121,,,A*48

$GPGGA,155500.000,5131.8264,N,00003.6210,W,1,06,1.06,12.2,M,47.0,M,,*41

$GPRMC,155500.000,A,5131.8264,N,00003.6210,W,0.07,82.85,141121,,,A*46

$GPRMC,155505.000,A,5131.8264,N,00003.6211,W,0.26,287.14,141121,,,A*7E

$GPGGA,155506.000,5131.8264,N,00003.6212,W,1,06,1.06,12.2,M,47.0,M,,*45

$GPRMC,155511.000,A,5131.8264,N,00003.6217,W,0.10,262.89,141121,,,A*77

$GPGGA,155512.000,5131.8264,N,00003.6218,W,1,06,1.06,12.2,M,47.0,M,,*4A

$GPRMC,155517.000,A,5131.8263,N,00003.6221,W,0.17,264.57,141121,,,A*71

$GPGGA,155518.000,5131.8263,N,00003.6222,W,1,06,1.06,12.2,M,47.0,M,,*4E

$GPRMC,155523.000,A,5131.8262,N,00003.6225,W,0.14,238.67,141121,,,A*7A

$GPGGA,155524.000,5131.8261,N,00003.6226,W,1,06,1.06,12.2,M,47.0,M,,*47

$GPRMC,155529.000,A,5131.8262,N,00003.6226,W,0.21,67.67,141121,,,A*4D

$GPGGA,155530.000,5131.8263,N,00003.6225,W,1,06,1.06,12.2,M,47.0,M,,*43

$GPGGA,155535.000,5131.8263,N,00003.6219,W,1,06,1.06,12.2,M,47.0,M,,*49

$GPRMC,155535.000,A,5131.8263,N,00003.6219,W,0.37,109.44,141121,,,A*72

$GPGGA,155540.000,5131.8263,N,00003.6212,W,1,06,1.06,12.2,M,47.0,M,,*40

$GPRMC,155540.000,A,5131.8263,N,00003.6212,W,0.43,77.61,141121,,,A*47

$GPGGA,155545.000,5131.8266,N,00003.6203,W,1,06,1.06,12.2,M,47.0,M,,*40

$GPRMC,155545.000,A,5131.8266,N,00003.6203,W,0.51,56.78,141121,,,A*4F

$GPGGA,155550.000,5131.8267,N,00003.6196,W,1,06,1.06,12.2,M,47.0,M,,*4A

$GPRMC,155550.000,A,5131.8267,N,00003.6196,W,0.14,340.46,141121,,,A*7D

$GPRMC,155555.000,A,5131.8266,N,00003.6197,W,0.22,230.08,141121,,,A*71

$GPGGA,155556.000,5131.8265,N,00003.6198,W,1,06,1.06,12.2,M,47.0,M,,*40

$GPRMC,155601.000,A,5131.8261,N,00003.6203,W,0.31,229.57,141121,,,A*7A

$GPGGA,155602.000,5131.8261,N,00003.6204,W,1,06,1.06,12.2,M,47.0,M,,*40

$GPRMC,155607.000,A,5131.8258,N,00003.6208,W,0.26,244.01,141121,,,A*73

$GPGGA,155608.000,5131.8257,N,00003.6208,W,1,06,1.06,12.3,M,47.0,M,,*42

$GPRMC,155613.000,A,5131.8254,N,00003.6212,W,0.34,210.59,141121,,,A*7E

$GPGGA,155614.000,5131.8253,N,00003.6213,W,1,06,1.06,12.3,M,47.0,M,,*41

$GPRMC,155619.000,A,5131.8252,N,00003.6217,W,0.05,304.32,141121,,,A*7C

$GPGGA,155620.000,5131.8252,N,00003.6217,W,1,06,1.06,12.3,M,47.0,M,,*43

$GPRMC,155625.000,A,5131.8254,N,00003.6215,W,0.38,15.78,141121,,,A*44

$GPGGA,155626.000,5131.8255,N,00003.6215,W,1,06,1.06,12.3,M,47.0,M,,*40

$GPRMC,155631.000,A,5131.8256,N,00003.6217,W,0.18,269.79,141121,,,A*7B

$GPGGA,155632.000,5131.8256,N,00003.6218,W,1,06,1.06,12.3,M,47.0,M,,*4B

$GPRMC,155637.000,A,5131.8256,N,00003.6227,W,0.35,251.94,141121,,,A*79

$GPGGA,155638.000,5131.8255,N,00003.6228,W,1,06,1.06,12.3,M,47.0,M,,*41

$GPRMC,155643.000,A,5131.8255,N,00003.6232,W,0.17,325.59,141121,,,A*7E

$GPGGA,155644.000,5131.8256,N,00003.6232,W,1,06,1.06,12.3,M,47.0,M,,*42

$GPRMC,155649.000,A,5131.8256,N,00003.6232,W,0.11,7.28,141121,,,A*74

$GPGGA,155650.000,5131.8257,N,00003.6232,W,1,06,1.10,12.3,M,47.0,M,,*41

$GPGGA,155655.000,5131.8259,N,00003.6230,W,1,06,1.10,12.3,M,47.0,M,,*48

$GPRMC,155655.000,A,5131.8259,N,00003.6230,W,0.09,49.14,141121,,,A*48

$GPGGA,155700.000,5131.8261,N,00003.6227,W,1,06,1.06,12.3,M,47.0,M,,*43

$GPRMC,155700.000,A,5131.8261,N,00003.6227,W,0.30,71.01,141121,,,A*41

$GPGGA,155705.000,5131.8263,N,00003.6219,W,1,06,1.06,12.3,M,47.0,M,,*49

$GPRMC,155705.000,A,5131.8263,N,00003.6219,W,0.52,51.43,141121,,,A*4B

$GPGGA,155710.000,5131.8266,N,00003.6212,W,1,06,1.06,12.4,M,47.0,M,,*44

$GPRMC,155710.000,A,5131.8266,N,00003.6212,W,0.39,27.23,141121,,,A*4B

$GPGGA,155715.000,5131.8269,N,00003.6210,W,1,06,1.06,12.4,M,47.0,M,,*4C

$GPRMC,155715.000,A,5131.8269,N,00003.6210,W,0.07,4.63,141121,,,A*7B

$GPRMC,155720.000,A,5131.8269,N,00003.6212,W,0.34,247.43,141121,,,A*78

$GPGGA,155721.000,5131.8269,N,00003.6214,W,1,06,1.06,12.4,M,47.0,M,,*4F

$GPRMC,155726.000,A,5131.8268,N,00003.6222,W,0.32,268.69,141121,,,A*7F

$GPGGA,155727.000,5131.8268,N,00003.6223,W,1,06,1.06,12.4,M,47.0,M,,*4C

$GPRMC,155732.000,A,5131.8268,N,00003.6231,W,0.52,247.37,141121,,,A*78

$GPGGA,155733.000,5131.8268,N,00003.6233,W,1,06,1.06,12.4,M,47.0,M,,*48

$GPRMC,155738.000,A,5131.8253,N,00003.6262,W,0.95,243.53,141121,,,A*71

$GPGGA,155739.000,5131.8252,N,00003.6262,W,1,06,1.06,12.1,M,47.0,M,,*4A

$GPRMC,155744.000,A,5131.8246,N,00003.6276,W,0.77,241.22,141121,,,A*73

$GPGGA,155745.000,5131.8247,N,00003.6277,W,1,06,1.06,12.0,M,47.0,M,,*40

$GPRMC,155750.000,A,5131.8246,N,00003.6270,W,0.63,253.89,141121,,,A*77

$GPGGA,155751.000,5131.8245,N,00003.6270,W,1,06,1.06,11.8,M,47.0,M,,*4B

$GPRMC,155756.000,A,5131.8244,N,00003.6275,W,0.38,258.68,141121,,,A*7C

$GPGGA,155757.000,5131.8244,N,00003.6277,W,1,06,1.06,11.8,M,47.0,M,,*4B

$GPRMC,155802.000,A,5131.8245,N,00003.6277,W,0.24,25.40,141121,,,A*4E

$GPGGA,155803.000,5131.8245,N,00003.6276,W,1,06,1.06,11.8,M,47.0,M,,*45

$GPGGA,155808.000,5131.8249,N,00003.6270,W,1,06,1.06,11.8,M,47.0,M,,*44

$GPRMC,155808.000,A,5131.8249,N,00003.6270,W,0.47,37.72,141121,,,A*48

$GPGGA,155813.000,5131.8254,N,00003.6262,W,1,06,1.06,11.8,M,47.0,M,,*41

$GPRMC,155813.000,A,5131.8254,N,00003.6262,W,0.56,64.38,141121,,,A*45

$GPGGA,155818.000,5131.8257,N,00003.6252,W,1,06,1.06,11.8,M,47.0,M,,*4A

$GPRMC,155818.000,A,5131.8257,N,00003.6252,W,0.48,63.17,141121,,,A*4B

$GPGGA,155823.000,5131.8258,N,00003.6244,W,1,06,1.06,11.8,M,47.0,M,,*4A

$GPRMC,155823.000,A,5131.8258,N,00003.6244,W,0.30,72.62,141121,,,A*46

$GPGGA,155828.000,5131.8258,N,00003.6238,W,1,06,1.06,11.7,M,47.0,M,,*45

$GPRMC,155828.000,A,5131.8258,N,00003.6238,W,0.51,67.75,141121,,,A*43

$GPGGA,155833.000,5131.8257,N,00003.6234,W,1,06,1.06,11.5,M,47.0,M,,*4E

$GPRMC,155833.000,A,5131.8257,N,00003.6234,W,0.35,69.99,141121,,,A*44

$GPGGA,155838.000,5131.8259,N,00003.6231,W,1,06,1.10,11.5,M,47.0,M,,*49

$GPRMC,155838.000,A,5131.8259,N,00003.6231,W,0.19,328.59,141121,,,A*70

$GPRMC,155843.000,A,5131.8261,N,00003.6234,W,0.26,309.16,141121,,,A*76

$GPGGA,155844.000,5131.8261,N,00003.6235,W,1,06,1.06,11.5,M,47.0,M,,*4A

$GPRMC,155849.000,A,5131.8263,N,00003.6240,W,0.28,276.38,141121,,,A*76

$GPGGA,155850.000,5131.8263,N,00003.6241,W,1,06,1.06,11.5,M,47.0,M,,*4E

$GPRMC,155855.000,A,5131.8264,N,00003.6247,W,0.21,227.41,141121,,,A*78

$GPGGA,155856.000,5131.8263,N,00003.6247,W,1,06,1.06,11.5,M,47.0,M,,*4E

$GPRMC,155901.000,A,5131.8263,N,00003.6247,W,0.22,122.15,141121,,,A*7B

$GPGGA,155902.000,5131.8262,N,00003.6246,W,1,06,1.06,11.5,M,47.0,M,,*4E

$GPRMC,155907.000,A,5131.8262,N,00003.6241,W,0.44,59.91,141121,,,A*4B

$GPGGA,155908.000,5131.8263,N,00003.6239,W,1,06,1.06,11.5,M,47.0,M,,*4D

$GPGGA,155913.000,5131.8271,N,00003.6161,W,1,06,1.06,10.6,M,47.0,M,,*48

$GPRMC,155913.000,A,5131.8271,N,00003.6161,W,0.79,58.22,141121,,,A*4A

$GPGGA,155918.000,5131.8270,N,00003.6109,W,1,06,1.06,10.1,M,47.0,M,,*4B

$GPRMC,155918.000,A,5131.8270,N,00003.6109,W,0.74,72.54,141121,,,A*4A

$GPGGA,155923.000,5131.8273,N,00003.6062,W,1,06,1.06,9.7,M,47.0,M,,*72

$GPRMC,155923.000,A,5131.8273,N,00003.6062,W,0.89,69.63,141121,,,A*41

$GPGGA,155928.000,5131.8280,N,00003.6031,W,1,06,1.06,9.2,M,47.0,M,,*76

$GPRMC,155928.000,A,5131.8280,N,00003.6031,W,0.94,56.20,141121,,,A*47

$GPGGA,155933.000,5131.8264,N,00003.6074,W,1,06,1.06,8.2,M,47.0,M,,*76

$GPRMC,155933.000,A,5131.8264,N,00003.6074,W,0.24,330.33,141121,,,A*7C

$GPGGA,155938.000,5131.8264,N,00003.6079,W,1,06,1.06,8.2,M,47.0,M,,*70

$GPRMC,155938.000,A,5131.8264,N,00003.6079,W,0.32,251.28,141121,,,A*71

$GPGGA,155943.000,5131.8263,N,00003.6089,W,1,06,1.06,8.2,M,47.0,M,,*74

$GPRMC,155943.000,A,5131.8263,N,00003.6089,W,0.47,259.61,141121,,,A*72

$GPGGA,155948.000,5131.8263,N,00003.6097,W,1,06,1.06,8.2,M,47.0,M,,*70

$GPRMC,155948.000,A,5131.8263,N,00003.6097,W,0.25,295.47,141121,,,A*76

$GPGGA,155953.000,5131.8266,N,00003.6097,W,1,06,1.06,8.1,M,47.0,M,,*7C

$GPRMC,155953.000,A,5131.8266,N,00003.6097,W,0.29,32.32,141121,,,A*48

$GPGGA,155958.000,5131.8269,N,00003.6092,W,1,05,2.50,8.1,M,47.0,M,,*7E

$GPRMC,155958.000,A,5131.8269,N,00003.6092,W,0.39,63.90,141121,,,A*44

$GPGGA,160003.000,5131.8272,N,00003.6082,W,1,05,2.50,8.1,M,47.0,M,,*74

$GPRMC,160003.000,A,5131.8272,N,00003.6082,W,0.53,58.87,141121,,,A*4C

$GPGGA,160008.000,5131.8277,N,00003.6051,W,1,05,2.50,8.2,M,47.0,M,,*77

$GPRMC,160008.000,A,5131.8277,N,00003.6051,W,0.71,55.09,141121,,,A*47

$GPGGA,160013.000,5131.8280,N,00003.6018,W,1,05,2.50,8.2,M,47.0,M,,*78

$GPRMC,160013.000,A,5131.8280,N,00003.6018,W,0.72,60.26,141121,,,A*40

$GPGGA,160018.000,5131.8284,N,00003.5989,W,1,05,2.50,8.1,M,47.0,M,,*76

$GPRMC,160018.000,A,5131.8284,N,00003.5989,W,0.73,61.95,141121,,,A*45

$GPGGA,160023.000,5131.8287,N,00003.5988,W,1,05,2.51,8.1,M,47.0,M,,*7D

$GPRMC,160023.000,A,5131.8287,N,00003.5988,W,0.44,53.81,141121,,,A*4F

$GPGGA,160028.000,5131.8291,N,00003.5976,W,1,05,2.50,8.0,M,47.0,M,,*70

$GPRMC,160028.000,A,5131.8291,N,00003.5976,W,0.55,46.87,141121,,,A*40

$GPGGA,160033.000,5131.8295,N,00003.5967,W,1,05,2.51,8.0,M,47.0,M,,*7F

$GPRMC,160033.000,A,5131.8295,N,00003.5967,W,0.45,45.81,141121,,,A*4A

$GPGGA,160038.000,5131.8299,N,00003.5962,W,1,05,2.51,8.0,M,47.0,M,,*7D

$GPRMC,160038.000,A,5131.8299,N,00003.5962,W,0.31,40.55,141121,,,A*47

$GPGGA,160043.000,5131.8299,N,00003.5962,W,1,05,2.51,8.0,M,47.0,M,,*71

$GPRMC,160043.000,A,5131.8299,N,00003.5962,W,0.11,217.14,141121,,,A*7C

$GPGGA,160048.000,5131.8299,N,00003.5962,W,1,05,2.51,8.0,M,47.0,M,,*7A

$GPRMC,160048.000,A,5131.8299,N,00003.5962,W,0.09,47.89,141121,,,A*4D

$GPGGA,160053.000,5131.8300,N,00003.5964,W,1,05,2.51,8.0,M,47.0,M,,*77

$GPRMC,160053.000,A,5131.8300,N,00003.5964,W,0.38,250.78,141121,,,A*78

$GPGGA,160058.000,5131.8298,N,00003.5974,W,1,05,2.51,8.0,M,47.0,M,,*7D

$GPRMC,160058.000,A,5131.8298,N,00003.5974,W,0.30,251.92,141121,,,A*7F

$GPGGA,160103.000,5131.8298,N,00003.5981,W,1,06,1.07,8.0,M,47.0,M,,*7B

$GPRMC,160103.000,A,5131.8298,N,00003.5981,W,0.19,274.36,141121,,,A*78

$GPGGA,160108.000,5131.8298,N,00003.5983,W,1,06,1.07,8.0,M,47.0,M,,*72

$GPRMC,160108.000,A,5131.8298,N,00003.5983,W,0.36,268.64,141121,,,A*76

$GPGGA,160113.000,5131.8298,N,00003.5990,W,1,05,1.09,8.0,M,47.0,M,,*77

$GPRMC,160113.000,A,5131.8298,N,00003.5990,W,0.31,252.54,141121,,,A*73

$GPGGA,160118.000,5131.8298,N,00003.5995,W,1,06,1.07,8.0,M,47.0,M,,*74

$GPRMC,160118.000,A,5131.8298,N,00003.5995,W,0.09,311.73,141121,,,A*75

$GPGGA,160123.000,5131.8298,N,00003.5996,W,1,06,1.11,8.0,M,47.0,M,,*78

$GPRMC,160123.000,A,5131.8298,N,00003.5996,W,0.03,16.40,141121,,,A*40

$GPGGA,160128.000,5131.8298,N,00003.5997,W,1,06,1.07,8.0,M,47.0,M,,*75

$GPRMC,160128.000,A,5131.8298,N,00003.5997,W,0.16,112.92,141121,,,A*74

$GPGGA,160133.000,5131.8297,N,00003.5993,W,1,06,0.99,8.0,M,47.0,M,,*72

$GPRMC,160133.000,A,5131.8297,N,00003.5993,W,0.13,204.93,141121,,,A*75

$GPGGA,160138.000,5131.8296,N,00003.5994,W,1,07,0.96,8.0,M,47.0,M,,*71

$GPRMC,160138.000,A,5131.8296,N,00003.5994,W,0.15,78.77,141121,,,A*4D

$GPGGA,160143.000,5131.8297,N,00003.5994,W,1,07,0.99,8.0,M,47.0,M,,*73

$GPRMC,160143.000,A,5131.8297,N,00003.5994,W,0.09,53.50,141121,,,A*41

$GPGGA,160148.000,5131.8297,N,00003.5995,W,1,07,0.97,8.0,M,47.0,M,,*77

$GPRMC,160148.000,A,5131.8297,N,00003.5995,W,0.24,254.80,141121,,,A*7C

$GPGGA,160153.000,5131.8297,N,00003.6002,W,1,06,0.99,8.0,M,47.0,M,,*76

$GPRMC,160153.000,A,5131.8297,N,00003.6002,W,0.29,270.93,141121,,,A*7B

$GPGGA,160158.000,5131.8297,N,00003.6005,W,1,05,3.76,8.0,M,47.0,M,,*7B

$GPRMC,160158.000,A,5131.8297,N,00003.6005,W,0.07,271.13,141121,,,A*72

$GPGGA,160203.000,5131.8298,N,00003.6001,W,1,05,3.76,8.0,M,47.0,M,,*7D

$GPRMC,160203.000,A,5131.8298,N,00003.6001,W,0.33,65.32,141121,,,A*47

$GPGGA,160208.000,5131.8300,N,00003.5995,W,1,05,3.76,7.9,M,47.0,M,,*77

$GPRMC,160208.000,A,5131.8300,N,00003.5995,W,0.13,358.30,141121,,,A*76

$GPGGA,160213.000,5131.8302,N,00003.5994,W,1,06,2.30,7.9,M,47.0,M,,*7E

$GPRMC,160213.000,A,5131.8302,N,00003.5994,W,0.15,31.12,141121,,,A*45

$GPGGA,160218.000,5131.8303,N,00003.5991,W,1,05,3.77,7.9,M,47.0,M,,*70

$GPRMC,160218.000,A,5131.8303,N,00003.5991,W,0.08,17.80,141121,,,A*49

$GPGGA,160223.000,5131.8303,N,00003.5988,W,1,06,2.30,7.9,M,47.0,M,,*71

$GPRMC,160223.000,A,5131.8303,N,00003.5988,W,0.28,95.25,141121,,,A*4E

$GPGGA,160228.000,5131.8303,N,00003.5983,W,1,06,2.30,7.9,M,47.0,M,,*71

$GPRMC,160228.000,A,5131.8303,N,00003.5983,W,0.23,71.18,141121,,,A*41

$GPGGA,160233.000,5131.8304,N,00003.5979,W,1,05,3.77,7.9,M,47.0,M,,*78

$GPRMC,160233.000,A,5131.8304,N,00003.5979,W,0.12,86.25,141121,,,A*4D

$GPGGA,160238.000,5131.8304,N,00003.5979,W,1,06,2.30,7.8,M,47.0,M,,*73

$GPRMC,160238.000,A,5131.8304,N,00003.5979,W,0.07,242.69,141121,,,A*70

$GPGGA,160243.000,5131.8305,N,00003.5978,W,1,06,2.30,7.8,M,47.0,M,,*7F

$GPRMC,160243.000,A,5131.8305,N,00003.5978,W,0.06,174.08,141121,,,A*7C

$GPGGA,160248.000,5131.8303,N,00003.5983,W,1,06,2.30,7.8,M,47.0,M,,*76

$GPRMC,160248.000,A,5131.8303,N,00003.5983,W,0.27,255.63,141121,,,A*7B

$GPGGA,160253.000,5131.8302,N,00003.5993,W,1,06,2.30,7.8,M,47.0,M,,*7C

$GPRMC,160253.000,A,5131.8302,N,00003.5993,W,0.52,254.55,141121,,,A*77

$GPGGA,160258.000,5131.8302,N,00003.6004,W,1,06,2.30,7.8,M,47.0,M,,*73

$GPRMC,160258.000,A,5131.8302,N,00003.6004,W,0.43,265.85,141121,,,A*77

$GPGGA,160303.000,5131.8300,N,00003.6015,W,1,06,2.30,7.8,M,47.0,M,,*7E

$GPRMC,160303.000,A,5131.8300,N,00003.6015,W,0.38,250.33,141121,,,A*7D

$GPGGA,160308.000,5131.8295,N,00003.6024,W,1,06,2.30,7.5,M,47.0,M,,*77

$GPRMC,160308.000,A,5131.8295,N,00003.6024,W,0.53,240.48,141121,,,A*79

$GPGGA,160313.000,5131.8286,N,00003.6040,W,1,06,2.30,7.0,M,47.0,M,,*78

$GPRMC,160313.000,A,5131.8286,N,00003.6040,W,0.57,256.41,141121,,,A*79

$GPGGA,160318.000,5131.8283,N,00003.6050,W,1,06,2.30,7.0,M,47.0,M,,*77

$GPRMC,160318.000,A,5131.8283,N,00003.6050,W,0.62,243.73,141121,,,A*75

$GPGGA,160323.000,5131.8271,N,00003.6087,W,1,06,2.30,6.2,M,47.0,M,,*7B

$GPRMC,160323.000,A,5131.8271,N,00003.6087,W,0.52,256.61,141121,,,A*7E

$GPGGA,160328.000,5131.8261,N,00003.6115,W,1,06,2.30,6.0,M,47.0,M,,*79

$GPRMC,160328.000,A,5131.8261,N,00003.6115,W,0.53,261.87,141121,,,A*73

$GPGGA,160333.000,5131.8257,N,00003.6125,W,1,06,2.30,5.8,M,47.0,M,,*7E

$GPRMC,160333.000,A,5131.8257,N,00003.6125,W,0.43,243.58,141121,,,A*7C

$GPGGA,160338.000,5131.8255,N,00003.6141,W,1,06,2.30,5.6,M,47.0,M,,*7B

$GPRMC,160338.000,A,5131.8255,N,00003.6141,W,0.63,267.06,141121,,,A*78

$GPGGA,160343.000,5131.8252,N,00003.6157,W,1,06,2.30,5.2,M,47.0,M,,*73

$GPRMC,160343.000,A,5131.8252,N,00003.6157,W,0.61,260.99,141121,,,A*77

$GPGGA,160348.000,5131.8249,N,00003.6156,W,1,06,2.30,4.6,M,47.0,M,,*76

$GPRMC,160348.000,A,5131.8249,N,00003.6156,W,0.33,268.53,141121,,,A*7E

$GPGGA,160353.000,5131.8249,N,00003.6160,W,1,06,2.30,4.6,M,47.0,M,,*79

$GPRMC,160353.000,A,5131.8249,N,00003.6160,W,0.18,342.41,141121,,,A*72

$GPGGA,160358.000,5131.8252,N,00003.6161,W,1,06,2.41,4.5,M,47.0,M,,*7C

$GPRMC,160358.000,A,5131.8252,N,00003.6161,W,0.40,346.59,141121,,,A*72

$GPGGA,160403.000,5131.8256,N,00003.6159,W,1,06,2.30,4.5,M,47.0,M,,*7C

$GPRMC,160403.000,A,5131.8256,N,00003.6159,W,0.35,41.80,141121,,,A*46

$GPGGA,160408.000,5131.8259,N,00003.6151,W,1,06,2.30,4.5,M,47.0,M,,*70

$GPRMC,160408.000,A,5131.8259,N,00003.6151,W,0.38,45.61,141121,,,A*4C

$GPGGA,160413.000,5131.8262,N,00003.6145,W,1,06,2.30,4.4,M,47.0,M,,*76

$GPRMC,160413.000,A,5131.8262,N,00003.6145,W,0.41,51.07,141121,,,A*40

$GPGGA,160418.000,5131.8263,N,00003.6128,W,1,06,2.30,3.8,M,47.0,M,,*7C

$GPRMC,160418.000,A,5131.8263,N,00003.6128,W,0.77,73.08,141121,,,A*4B

$GPGGA,160423.000,5131.8260,N,00003.6125,W,1,06,2.30,3.1,M,47.0,M,,*73

$GPRMC,160423.000,A,5131.8260,N,00003.6125,W,0.49,67.15,141121,,,A*49

$GPGGA,160428.000,5131.8258,N,00003.6121,W,1,06,2.30,2.8,M,47.0,M,,*7F

$GPRMC,160428.000,A,5131.8258,N,00003.6121,W,0.49,60.19,141121,,,A*46

$GPGGA,160433.000,5131.8261,N,00003.6113,W,1,06,2.30,2.7,M,47.0,M,,*71

$GPRMC,160433.000,A,5131.8261,N,00003.6113,W,0.42,34.24,141121,,,A*43

$GPGGA,160438.000,5131.8263,N,00003.6113,W,1,06,2.30,2.7,M,47.0,M,,*78

$GPRMC,160438.000,A,5131.8263,N,00003.6113,W,0.65,10.02,141121,,,A*4D

$GPGGA,160443.000,5131.8259,N,00003.6112,W,1,06,2.30,2.6,M,47.0,M,,*7D

$GPRMC,160443.000,A,5131.8259,N,00003.6112,W,0.07,30.96,141121,,,A*42

$GPGGA,160448.000,5131.8258,N,00003.6111,W,1,06,2.41,2.5,M,47.0,M,,*71

$GPRMC,160448.000,A,5131.8258,N,00003.6111,W,0.26,97.51,141121,,,A*4E

$GPGGA,160453.000,5131.8257,N,00003.6108,W,1,06,2.30,2.3,M,47.0,M,,*7C

$GPRMC,160453.000,A,5131.8257,N,00003.6108,W,0.62,67.36,141121,,,A*4D

$GPGGA,160458.000,5131.8251,N,00003.6123,W,1,08,0.88,2.1,M,47.0,M,,*75

$GPRMC,160458.000,A,5131.8251,N,00003.6123,W,0.83,251.49,141121,,,A*79

$GPGGA,160503.000,5131.8247,N,00003.6125,W,1,08,0.88,1.8,M,47.0,M,,*71

$GPRMC,160503.000,A,5131.8247,N,00003.6125,W,0.40,70.97,141121,,,A*4A

$GPGGA,160508.000,5131.8248,N,00003.6119,W,1,08,0.90,1.8,M,47.0,M,,*73

$GPRMC,160508.000,A,5131.8248,N,00003.6119,W,0.39,305.68,141121,,,A*7E

$GPGGA,160513.000,5131.8243,N,00003.6137,W,1,08,0.88,1.8,M,47.0,M,,*77

$GPRMC,160513.000,A,5131.8243,N,00003.6137,W,0.02,27.64,141121,,,A*44

$GPGGA,160518.000,5131.8236,N,00003.6156,W,1,08,0.88,1.7,M,47.0,M,,*76

$GPRMC,160518.000,A,5131.8236,N,00003.6156,W,0.67,52.56,141121,,,A*4A

$GPGGA,160523.000,5131.8229,N,00003.6168,W,1,08,0.88,1.7,M,47.0,M,,*7D

$GPRMC,160523.000,A,5131.8229,N,00003.6168,W,0.29,293.09,141121,,,A*7E

$GPGGA,160528.000,5131.8226,N,00003.6183,W,1,08,0.88,1.6,M,47.0,M,,*7D

$GPRMC,160528.000,A,5131.8226,N,00003.6183,W,0.33,248.44,141121,,,A*7B

$GPGGA,160533.000,5131.8225,N,00003.6203,W,1,08,0.88,1.3,M,47.0,M,,*7A

$GPRMC,160533.000,A,5131.8225,N,00003.6203,W,0.11,327.71,141121,,,A*77

$GPGGA,160538.000,5131.8227,N,00003.6196,W,1,07,1.06,1.1,M,47.0,M,,*76

$GPRMC,160538.000,A,5131.8227,N,00003.6196,W,0.39,307.33,141121,,,A*7F

$GPGGA,160543.000,5131.8229,N,00003.6200,W,1,07,1.06,1.1,M,47.0,M,,*78

$GPRMC,160543.000,A,5131.8229,N,00003.6200,W,0.32,42.38,141121,,,A*43

$GPGGA,160548.000,5131.8233,N,00003.6198,W,1,07,1.06,1.1,M,47.0,M,,*7A

$GPRMC,160548.000,A,5131.8233,N,00003.6198,W,0.17,316.69,141121,,,A*70

$GPGGA,160553.000,5131.8238,N,00003.6193,W,1,07,1.06,0.8,M,47.0,M,,*78

$GPRMC,160553.000,A,5131.8238,N,00003.6193,W,0.40,307.86,141121,,,A*79

$GPGGA,160558.000,5131.8242,N,00003.6194,W,1,07,1.06,0.8,M,47.0,M,,*79

$GPRMC,160558.000,A,5131.8242,N,00003.6194,W,0.23,66.27,141121,,,A*42

$GPGGA,160603.000,5131.8244,N,00003.6191,W,1,06,2.30,0.8,M,47.0,M,,*70

$GPRMC,160603.000,A,5131.8244,N,00003.6191,W,0.37,305.99,141121,,,A*7A

$GPGGA,160608.000,5131.8247,N,00003.6192,W,1,06,2.30,0.8,M,47.0,M,,*7B

$GPRMC,160608.000,A,5131.8247,N,00003.6192,W,0.41,28.96,141121,,,A*43

$GPGGA,160613.000,5131.8248,N,00003.6187,W,1,06,2.30,0.8,M,47.0,M,,*7A

$GPRMC,160613.000,A,5131.8248,N,00003.6187,W,0.40,353.10,141121,,,A*72

$GPGGA,160618.000,5131.8251,N,00003.6188,W,1,06,2.30,0.8,M,47.0,M,,*76

$GPRMC,160618.000,A,5131.8251,N,00003.6188,W,0.18,148.22,141121,,,A*7A

$GPGGA,160623.000,5131.8253,N,00003.6189,W,1,06,2.30,0.7,M,47.0,M,,*72

$GPRMC,160623.000,A,5131.8253,N,00003.6189,W,0.16,2.32,141121,,,A*71

$GPGGA,160628.000,5131.8255,N,00003.6184,W,1,06,2.30,0.7,M,47.0,M,,*72

$GPRMC,160628.000,A,5131.8255,N,00003.6184,W,0.43,71.76,141121,,,A*45

$GPGGA,160633.000,5131.8262,N,00003.6139,W,1,06,2.30,0.5,M,47.0,M,,*78

$GPRMC,160633.000,A,5131.8262,N,00003.6139,W,0.88,66.60,141121,,,A*4B

$GPGGA,160638.000,5131.8269,N,00003.6121,W,1,06,2.30,0.1,M,47.0,M,,*75

$GPRMC,160638.000,A,5131.8269,N,00003.6121,W,0.67,61.05,141121,,,A*47

$GPGGA,160643.000,5131.8270,N,00003.6119,W,1,06,2.42,-0.1,M,47.0,M,,*52

$GPRMC,160643.000,A,5131.8270,N,00003.6119,W,0.59,60.70,141121,,,A*46

$GPGGA,160648.000,5131.8274,N,00003.6100,W,1,06,2.30,0.0,M,47.0,M,,*7C

$GPRMC,160648.000,A,5131.8274,N,00003.6100,W,0.20,162.15,141121,,,A*7F

$GPGGA,160653.000,5131.8275,N,00003.6083,W,1,07,1.06,0.1,M,47.0,M,,*7B

$GPRMC,160653.000,A,5131.8275,N,00003.6083,W,0.49,62.59,141121,,,A*48

$GPGGA,160658.000,5131.8274,N,00003.6071,W,1,07,1.06,0.3,M,47.0,M,,*7E

$GPRMC,160658.000,A,5131.8274,N,00003.6071,W,0.27,272.64,141121,,,A*7A

$GPGGA,160703.000,5131.8276,N,00003.6070,W,1,07,1.06,0.3,M,47.0,M,,*72

$GPRMC,160703.000,A,5131.8276,N,00003.6070,W,0.48,255.75,141121,,,A*7A

$GPGGA,160708.000,5131.8269,N,00003.6086,W,1,07,1.06,0.6,M,47.0,M,,*7B

$GPRMC,160708.000,A,5131.8269,N,00003.6086,W,0.36,78.69,141121,,,A*4F

$GPGGA,160713.000,5131.8263,N,00003.6101,W,1,07,1.06,1.0,M,47.0,M,,*72

$GPRMC,160713.000,A,5131.8263,N,00003.6101,W,0.28,62.34,141121,,,A*4D

$GPGGA,160718.000,5131.8263,N,00003.6098,W,1,07,1.06,1.0,M,47.0,M,,*78

$GPRMC,160718.000,A,5131.8263,N,00003.6098,W,0.56,322.31,141121,,,A*7C

$GPGGA,160723.000,5131.8265,N,00003.6098,W,1,07,1.06,1.1,M,47.0,M,,*77

$GPRMC,160723.000,A,5131.8265,N,00003.6098,W,0.18,73.25,141121,,,A*4A

$GPGGA,160728.000,5131.8264,N,00003.6101,W,1,07,1.06,1.2,M,47.0,M,,*7F

$GPRMC,160728.000,A,5131.8264,N,00003.6101,W,0.18,270.92,141121,,,A*7C

$GPGGA,160733.000,5131.8255,N,00003.6121,W,1,07,1.06,1.4,M,47.0,M,,*73

$GPRMC,160733.000,A,5131.8255,N,00003.6121,W,0.83,267.64,141121,,,A*7B

$GPGGA,160738.000,5131.8246,N,00003.6143,W,1,07,1.06,1.7,M,47.0,M,,*7D

$GPRMC,160738.000,A,5131.8246,N,00003.6143,W,0.68,280.37,141121,,,A*7C

$GPGGA,160743.000,5131.8238,N,00003.6154,W,1,07,1.06,2.1,M,47.0,M,,*7B

$GPRMC,160743.000,A,5131.8238,N,00003.6154,W,0.43,276.08,141121,,,A*73

$GPGGA,160748.000,5131.8239,N,00003.6154,W,1,07,1.08,2.1,M,47.0,M,,*7F

$GPRMC,160748.000,A,5131.8239,N,00003.6154,W,0.43,60.77,141121,,,A*44

$GPGGA,160753.000,5131.8239,N,00003.6142,W,1,07,1.06,2.2,M,47.0,M,,*7F

$GPRMC,160753.000,A,5131.8239,N,00003.6142,W,0.37,45.71,141121,,,A*4B

$GPGGA,160758.000,5131.8240,N,00003.6141,W,1,07,1.06,2.2,M,47.0,M,,*79

$GPRMC,160758.000,A,5131.8240,N,00003.6141,W,0.34,44.58,141121,,,A*44

$GPGGA,160803.000,5131.8243,N,00003.6139,W,1,07,1.06,2.2,M,47.0,M,,*74

$GPRMC,160803.000,A,5131.8243,N,00003.6139,W,0.08,21.22,141121,,,A*48

$GPGGA,160808.000,5131.8245,N,00003.6138,W,1,07,1.06,2.2,M,47.0,M,,*78

$GPRMC,160808.000,A,5131.8245,N,00003.6138,W,0.53,74.38,141121,,,A*41

$GPGGA,160813.000,5131.8245,N,00003.6131,W,1,07,1.06,2.3,M,47.0,M,,*7A

$GPRMC,160813.000,A,5131.8245,N,00003.6131,W,0.44,51.56,141121,,,A*4B

$GPGGA,160818.000,5131.8244,N,00003.6126,W,1,07,1.06,2.5,M,47.0,M,,*70

$GPRMC,160818.000,A,5131.8244,N,00003.6126,W,0.14,304.51,141121,,,A*76

$GPGGA,160823.000,5131.8244,N,00003.6124,W,1,07,1.06,2.5,M,47.0,M,,*7A

$GPRMC,160823.000,A,5131.8244,N,00003.6124,W,0.15,3.34,141121,,,A*7A

$GPGGA,160828.000,5131.8246,N,00003.6118,W,1,07,1.06,2.4,M,47.0,M,,*7D

$GPRMC,160828.000,A,5131.8246,N,00003.6118,W,0.46,9.61,141121,,,A*70

$GPGGA,160833.000,5131.8246,N,00003.6116,W,1,07,1.06,2.0,M,47.0,M,,*7D

$GPRMC,160833.000,A,5131.8246,N,00003.6116,W,0.20,21.17,141121,,,A*4F

$GPGGA,160838.000,5131.8249,N,00003.6111,W,1,07,1.06,2.0,M,47.0,M,,*7E

$GPRMC,160838.000,A,5131.8249,N,00003.6111,W,0.43,68.27,141121,,,A*47

$GPGGA,160843.000,5131.8250,N,00003.6103,W,1,07,1.06,1.9,M,47.0,M,,*73

$GPRMC,160843.000,A,5131.8250,N,00003.6103,W,0.43,56.72,141121,,,A*4D

$GPGGA,160848.000,5131.8251,N,00003.6102,W,1,07,1.06,1.8,M,47.0,M,,*79

$GPRMC,160848.000,A,5131.8251,N,00003.6102,W,0.24,38.22,141121,,,A*4A

$GPGGA,160853.000,5131.8253,N,00003.6100,W,1,07,1.06,1.7,M,47.0,M,,*7C

$GPRMC,160853.000,A,5131.8253,N,00003.6100,W,0.28,37.54,141121,,,A*42

$GPGGA,160858.000,5131.8254,N,00003.6098,W,1,07,1.06,1.7,M,47.0,M,,*70

$GPRMC,160858.000,A,5131.8254,N,00003.6098,W,0.30,309.99,141121,,,A*78

$GPGGA,160903.000,5131.8258,N,00003.6096,W,1,07,1.06,1.8,M,47.0,M,,*72

$GPRMC,160903.000,A,5131.8258,N,00003.6096,W,0.35,92.09,141121,,,A*48

$GPGGA,160908.000,5131.8260,N,00003.6092,W,1,07,1.06,1.8,M,47.0,M,,*76

$GPRMC,160908.000,A,5131.8260,N,00003.6092,W,0.75,299.05,141121,,,A*7D

$GPGGA,160913.000,5131.8259,N,00003.6092,W,1,07,1.06,2.2,M,47.0,M,,*7F

$GPRMC,160913.000,A,5131.8259,N,00003.6092,W,0.27,220.34,141121,,,A*7A

$GPGGA,160918.000,5131.8259,N,00003.6095,W,1,07,1.05,2.3,M,47.0,M,,*71

$GPRMC,160918.000,A,5131.8259,N,00003.6095,W,0.11,308.50,141121,,,A*7A

$GPGGA,160923.000,5131.8261,N,00003.6096,W,1,07,1.06,2.3,M,47.0,M,,*72

$GPRMC,160923.000,A,5131.8261,N,00003.6096,W,0.17,58.00,141121,,,A*4F

$GPGGA,160928.000,5131.8262,N,00003.6098,W,1,07,1.06,2.4,M,47.0,M,,*73

$GPRMC,160928.000,A,5131.8262,N,00003.6098,W,0.53,239.43,141121,,,A*7B

$GPGGA,160933.000,5131.8259,N,00003.6106,W,1,07,1.06,2.4,M,47.0,M,,*77

$GPRMC,160933.000,A,5131.8259,N,00003.6106,W,0.24,162.68,141121,,,A*7B

$GPGGA,160938.000,5131.8261,N,00003.6074,W,1,07,1.05,2.4,M,47.0,M,,*70

$GPRMC,160938.000,A,5131.8261,N,00003.6074,W,0.91,91.22,141121,,,A*42

$GPGGA,160943.000,5131.8264,N,00003.6060,W,1,07,1.08,2.3,M,47.0,M,,*76

$GPRMC,160943.000,A,5131.8264,N,00003.6060,W,0.51,81.11,141121,,,A*43

$GPGGA,160948.000,5131.8266,N,00003.6049,W,1,07,1.05,2.3,M,47.0,M,,*79

$GPRMC,160948.000,A,5131.8266,N,00003.6049,W,0.53,53.56,141121,,,A*4F

$GPGGA,160953.000,5131.8268,N,00003.6040,W,1,07,1.05,2.3,M,47.0,M,,*74

$GPRMC,160953.000,A,5131.8268,N,00003.6040,W,0.28,39.66,141121,,,A*41

$GPGGA,160958.000,5131.8272,N,00003.6038,W,1,07,1.05,2.3,M,47.0,M,,*7B

$GPRMC,160958.000,A,5131.8272,N,00003.6038,W,0.54,65.55,141121,,,A*4C

$GPGGA,161003.000,5131.8274,N,00003.6037,W,1,07,1.05,2.3,M,47.0,M,,*74

$GPRMC,161003.000,A,5131.8274,N,00003.6037,W,0.39,340.37,141121,,,A*78

$GPGGA,161008.000,5131.8275,N,00003.6035,W,1,07,1.05,2.3,M,47.0,M,,*7C

$GPRMC,161008.000,A,5131.8275,N,00003.6035,W,0.33,295.15,141121,,,A*73

$GPGGA,161013.000,5131.8276,N,00003.6038,W,1,07,1.05,2.3,M,47.0,M,,*78

$GPRMC,161013.000,A,5131.8276,N,00003.6038,W,0.23,31.51,141121,,,A*4A

$GPGGA,161018.000,5131.8276,N,00003.6034,W,1,07,1.05,2.3,M,47.0,M,,*7F

$GPRMC,161018.000,A,5131.8276,N,00003.6034,W,0.19,25.56,141121,,,A*46

$GPGGA,161023.000,5131.8277,N,00003.6031,W,1,07,1.05,2.4,M,47.0,M,,*74

$GPRMC,161023.000,A,5131.8277,N,00003.6031,W,0.18,41.52,141121,,,A*4D

$GPGGA,161028.000,5131.8279,N,00003.6028,W,1,07,1.05,2.4,M,47.0,M,,*79

$GPRMC,161028.000,A,5131.8279,N,00003.6028,W,0.17,36.07,141121,,,A*4F

$GPGGA,161033.000,5131.8280,N,00003.6026,W,1,07,1.05,2.3,M,47.0,M,,*7C

$GPRMC,161033.000,A,5131.8280,N,00003.6026,W,0.31,67.65,141121,,,A*49

$GPGGA,161038.000,5131.8282,N,00003.6019,W,1,07,1.05,2.3,M,47.0,M,,*79

$GPRMC,161038.000,A,5131.8282,N,00003.6019,W,0.27,44.28,141121,,,A*43

$GPGGA,161043.000,5131.8285,N,00003.6015,W,1,07,1.05,2.4,M,47.0,M,,*79

$GPRMC,161043.000,A,5131.8285,N,00003.6015,W,0.30,69.52,141121,,,A*40

$GPGGA,161048.000,5131.8287,N,00003.6010,W,1,07,1.05,2.4,M,47.0,M,,*75

$GPRMC,161048.000,A,5131.8287,N,00003.6010,W,0.27,79.11,141121,,,A*4C

$GPGGA,161053.000,5131.8289,N,00003.6004,W,1,06,1.24,2.4,M,47.0,M,,*76

$GPRMC,161053.000,A,5131.8289,N,00003.6004,W,0.37,53.83,141121,,,A*4F

$GPGGA,161058.000,5131.8292,N,00003.5999,W,1,06,1.24,2.4,M,47.0,M,,*79

$GPRMC,161058.000,A,5131.8292,N,00003.5999,W,0.20,38.45,141121,,,A*41

$GPGGA,161103.000,5131.8294,N,00003.5996,W,1,07,1.05,2.4,M,47.0,M,,*7D

$GPRMC,161103.000,A,5131.8294,N,00003.5996,W,0.16,51.41,141121,,,A*49

$GPGGA,161108.000,5131.8296,N,00003.5991,W,1,06,1.24,2.4,M,47.0,M,,*71

$GPRMC,161108.000,A,5131.8296,N,00003.5991,W,0.38,79.78,141121,,,A*4B

$GPGGA,161113.000,5131.8296,N,00003.5982,W,1,06,1.24,2.4,M,47.0,M,,*79

$GPRMC,161113.000,A,5131.8296,N,00003.5982,W,0.48,66.25,141121,,,A*42

$GPGGA,161118.000,5131.8299,N,00003.5973,W,1,06,1.24,2.3,M,47.0,M,,*74

$GPRMC,161118.000,A,5131.8299,N,00003.5973,W,0.38,55.47,141121,,,A*4B

$GPGGA,161123.000,5131.8301,N,00003.5969,W,1,06,1.24,2.3,M,47.0,M,,*77

$GPRMC,161123.000,A,5131.8301,N,00003.5969,W,0.24,358.01,141121,,,A*79

$GPGGA,161128.000,5131.8304,N,00003.5969,W,1,06,1.24,2.3,M,47.0,M,,*79

$GPRMC,161128.000,A,5131.8304,N,00003.5969,W,0.16,18.42,141121,,,A*46

$GPGGA,161133.000,5131.8305,N,00003.5966,W,1,06,1.24,2.3,M,47.0,M,,*7D

$GPRMC,161133.000,A,5131.8305,N,00003.5966,W,0.19,103.91,141121,,,A*78

$GPGGA,161138.000,5131.8307,N,00003.5962,W,1,06,1.24,2.3,M,47.0,M,,*70

$GPRMC,161138.000,A,5131.8307,N,00003.5962,W,0.28,53.81,141121,,,A*42

$GPGGA,161143.000,5131.8310,N,00003.5955,W,1,06,1.24,2.3,M,47.0,M,,*7E

$GPRMC,161143.000,A,5131.8310,N,00003.5955,W,0.46,56.15,141121,,,A*4C

$GPGGA,161148.000,5131.8313,N,00003.5950,W,1,06,1.08,2.3,M,47.0,M,,*7D

$GPRMC,161148.000,A,5131.8313,N,00003.5950,W,0.07,10.00,141121,,,A*42

$GPGGA,161153.000,5131.8314,N,00003.5952,W,1,06,1.08,2.3,M,47.0,M,,*72

$GPRMC,161153.000,A,5131.8314,N,00003.5952,W,0.43,267.84,141121,,,A*73

$GPGGA,161158.000,5131.8282,N,00003.6038,W,1,07,1.05,1.4,M,47.0,M,,*79

$GPRMC,161158.000,A,5131.8282,N,00003.6038,W,1.15,248.39,141121,,,A*79

