$GPRMC,191341.000,A,5131.8155,N,00003.5852,W,0.34,198.73,141121,,,D*75

$GPGGA,191342.000,5131.8153,N,00003.5865,W,2,06,1.27,13.4,M,47.0,M,0000,0000*42

$GPRMC,191347.000,A,5131.8147,N,00003.5893,W,0.19,211.67,141121,,,D*75

$GPGGA,191348.000,5131.8146,N,00003.5895,W,2,06,1.27,13.4,M,47.0,M,0000,0000*43

$GPRMC,191353.000,A,5131.8179,N,00003.5954,W,0.71,293.50,141121,,,D*77

$GPGGA,191354.000,5131.8190,N,00003.5967,W,2,06,1.28,13.3,M,47.0,M,0000,0000*41

$GPRMC,191359.000,A,5131.8208,N,00003.5987,W,0.83,304.84,141121,,,D*7D

$GPGGA,191400.000,5131.8208,N,00003.5990,W,2,06,1.28,15.0,M,47.0,M,0000,0000*48

$GPRMC,191405.000,A,5131.8291,N,00003.6061,W,1.19,322.70,141121,,,D*7C

$GPGGA,191406.000,5131.8295,N,00003.6063,W,2,06,1.28,15.1,M,47.0,M,0000,0000*4D

$GPRMC,191411.000,A,5131.8334,N,00003.6106,W,1.32,333.13,141121,,,D*7B

$GPGGA,191412.000,5131.8339,N,00003.6107,W,2,05,1.39,15.2,M,47.0,M,0000,0000*4C

$GPRMC,191417.000,A,5131.8364,N,00003.6080,W,1.13,0.90,141121,,,D*7C

$GPGGA,191418.000,5131.8363,N,00003.6076,W,2,05,1.62,15.3,M,47.0,M,0000,0000*41

$GPRMC,191423.000,A,5131.8370,N,00003.6056,W,0.87,14.87,141121,,,D*4A

$GPGGA,191424.000,5131.8371,N,00003.6049,W,2,05,1.62,15.3,M,47.0,M,0000,0000*41

$GPRMC,191429.000,A,5131.8374,N,00003.6025,W,0.95,40.07,141121,,,D*4A

$GPGGA,191430.000,5131.8369,N,00003.6026,W,2,05,1.40,15.3,M,47.0,M,0000,0000*44

$GPRMC,191435.000,A,5131.8361,N,00003.6002,W,0.88,63.09,141121,,,D*45

$GPGGA,191436.000,5131.8360,N,00003.5994,W,2,05,1.40,15.3,M,47.0,M,0000,0000*48

$GPRMC,191441.000,A,5131.8360,N,00003.5967,W,0.99,68.69,141121,,,D*43

$GPGGA,191442.000,5131.8361,N,00003.5962,W,2,05,1.40,15.3,M,47.0,M,0000,0000*43

$GPRMC,191447.000,A,5131.8361,N,00003.5957,W,0.79,57.91,141121,,,D*42

$GPGGA,191448.000,5131.8363,N,00003.5962,W,2,05,1.40,15.2,M,47.0,M,0000,0000*4A

$GPRMC,191453.000,A,5131.8352,N,00003.6018,W,0.28,6.75,141121,,,D*7C

$GPGGA,191454.000,5131.8352,N,00003.6023,W,2,05,1.62,15.2,M,47.0,M,0000,0000*4A

$GPRMC,191459.000,A,5131.8354,N,00003.6023,W,0.10,61.01,141121,,,D*41

$GPGGA,191500.000,5131.8354,N,00003.6022,W,2,05,1.40,15.2,M,47.0,M,0000,0000*4D

$GPRMC,191505.000,A,5131.8352,N,00003.6017,W,0.55,114.28,141121,,,D*71

$GPGGA,191506.000,5131.8352,N,00003.6015,W,2,05,1.40,15.2,M,47.0,M,0000,0000*49

$GPRMC,191511.000,A,5131.8313,N,00003.6025,W,0.75,139.61,141121,,,D*70

$GPGGA,191512.000,5131.8308,N,00003.6018,W,2,05,1.40,15.2,M,47.0,M,0000,0000*4E

$GPRMC,191517.000,A,5131.8289,N,00003.5990,W,0.75,139.74,141121,,,D*74

$GPGGA,191518.000,5131.8286,N,00003.5985,W,2,05,1.40,15.2,M,47.0,M,0000,0000*4D

$GPRMC,191523.000,A,5131.8278,N,00003.5954,W,0.60,120.79,141121,,,D*74

$GPGGA,191524.000,5131.8277,N,00003.5948,W,2,05,1.40,15.3,M,47.0,M,0000,0000*4C

$GPRMC,191529.000,A,5131.8267,N,00003.5930,W,0.61,119.90,141121,,,D*7E

$GPGGA,191530.000,5131.8265,N,00003.5927,W,2,05,1.40,15.3,M,47.0,M,0000,0000*43

$GPRMC,191535.000,A,5131.8267,N,00003.5902,W,0.58,94.55,141121,,,D*45

$GPGGA,191536.000,5131.8267,N,00003.5899,W,2,05,1.40,15.3,M,47.0,M,0000,0000*43

$GPRMC,191541.000,A,5131.8273,N,00003.5873,W,0.64,80.52,141121,,,D*49

$GPGGA,191542.000,5131.8274,N,00003.5868,W,2,05,1.40,15.3,M,47.0,M,0000,0000*4C

$GPRMC,191547.000,A,5131.8276,N,00003.5837,W,0.72,82.29,141121,,,D*43

$GPGGA,191548.000,5131.8278,N,00003.5830,W,2,03,19.64,15.4,M,47.0,M,0000,0000*79

$GPRMC,191553.000,A,5131.8278,N,00003.5737,W,1.27,85.49,141121,,,D*47

$GPGGA,191554.000,5131.8280,N,00003.5711,W,2,03,19.36,15.4,M,47.0,M,0000,0000*78

$GPRMC,191559.000,A,5131.8301,N,00003.5657,W,1.51,74.57,141121,,,D*45

$GPGGA,191600.000,5131.8306,N,00003.5649,W,2,03,19.09,15.4,M,47.0,M,0000,0000*75

$GPRMC,191605.000,A,5131.8347,N,00003.5615,W,1.73,50.82,141121,,,D*45

$GPGGA,191606.000,5131.8354,N,00003.5608,W,2,03,18.83,15.4,M,47.0,M,0000,0000*72

$GPRMC,191611.000,A,5131.8391,N,00003.5389,W,2.63,63.55,141121,,,D*43

$GPGGA,191612.000,5131.8400,N,00003.5346,W,2,03,18.55,15.4,M,47.0,M,0000,0000*75

$GPRMC,191617.000,A,5131.8391,N,00003.5347,W,2.39,68.67,141121,,,D*42

$GPGGA,191618.000,5131.8358,N,00003.5473,W,2,04,2.14,15.5,M,47.0,M,0000,0000*4C

$GPRMC,191623.000,A,5131.8291,N,00003.5798,W,0.27,314.31,141121,,,D*74

$GPGGA,191624.000,5131.8285,N,00003.5828,W,2,04,2.14,15.5,M,47.0,M,0000,0000*40

$GPRMC,191629.000,A,5131.8288,N,00003.5860,W,0.71,283.25,141121,,,D*77

$GPGGA,191630.000,5131.8289,N,00003.5871,W,2,05,1.41,15.5,M,47.0,M,0000,0000*47

$GPRMC,191635.000,A,5131.8270,N,00003.5987,W,1.14,272.50,141121,,,D*7B

$GPGGA,191636.000,5131.8270,N,00003.5992,W,2,06,1.29,15.6,M,47.0,M,0000,0000*45

$GPRMC,191641.000,A,5131.8275,N,00003.6025,W,0.96,277.94,141121,,,D*79

$GPGGA,191642.000,5131.8276,N,00003.6029,W,2,06,1.29,15.6,M,47.0,M,0000,0000*4A

$GPRMC,191647.000,A,5131.8288,N,00003.6046,W,0.85,299.32,141121,,,D*76

$GPGGA,191648.000,5131.8290,N,00003.6047,W,2,06,1.29,15.6,M,47.0,M,0000,0000*40

$GPRMC,191653.000,A,5131.8293,N,00003.6055,W,0.65,315.48,141121,,,D*7D

$GPGGA,191654.000,5131.8293,N,00003.6060,W,2,06,1.29,15.7,M,47.0,M,0000,0000*4A

$GPRMC,191659.000,A,5131.8306,N,00003.6077,W,0.71,313.91,141121,,,D*7D

$GPGGA,191700.000,5131.8309,N,00003.6081,W,2,06,1.29,15.7,M,47.0,M,0000,0000*47

$GPRMC,191705.000,A,5131.8322,N,00003.6087,W,0.89,319.81,141121,,,D*70

$GPGGA,191706.000,5131.8324,N,00003.6086,W,2,06,1.29,15.8,M,47.0,M,0000,0000*46

$GPRMC,191711.000,A,5131.8332,N,00003.6088,W,0.72,315.06,141121,,,D*7C

$GPGGA,191712.000,5131.8332,N,00003.6087,W,2,06,1.29,15.9,M,47.0,M,0000,0000*44

$GPRMC,191717.000,A,5131.8333,N,00003.6079,W,0.43,328.84,141121,,,D*73

$GPGGA,191718.000,5131.8334,N,00003.6080,W,2,06,1.29,15.9,M,47.0,M,0000,0000*4F

$GPRMC,191723.000,A,5131.8339,N,00003.6081,W,0.38,19.71,141121,,,D*4E

$GPGGA,191724.000,5131.8340,N,00003.6080,W,2,06,1.29,15.9,M,47.0,M,0000,0000*43

$GPRMC,191729.000,A,5131.8343,N,00003.6071,W,0.54,82.58,141121,,,D*45

$GPGGA,191730.000,5131.8343,N,00003.6069,W,2,06,1.29,15.9,M,47.0,M,0000,0000*42

$GPRMC,191735.000,A,5131.8318,N,00003.6019,W,0.74,104.08,141121,,,D*70

$GPGGA,191736.000,5131.8311,N,00003.6011,W,2,05,1.31,16.0,M,47.0,M,0000,0000*4C

$GPRMC,191741.000,A,5131.8293,N,00003.5981,W,0.78,107.82,141121,,,D*77

$GPGGA,191742.000,5131.8290,N,00003.5979,W,2,05,1.31,16.1,M,47.0,M,0000,0000*42

$GPRMC,191747.000,A,5131.8282,N,00003.5962,W,0.61,116.60,141121,,,D*78

$GPGGA,191748.000,5131.8281,N,00003.5960,W,2,05,1.32,16.1,M,47.0,M,0000,0000*43

$GPRMC,191753.000,A,5131.8271,N,00003.5941,W,0.51,110.76,141121,,,D*72

$GPGGA,191754.000,5131.8270,N,00003.5939,W,2,05,1.32,16.1,M,47.0,M,0000,0000*4C

$GPRMC,191759.000,A,5131.8266,N,00003.5929,W,0.52,126.22,141121,,,D*77

$GPGGA,191800.000,5131.8266,N,00003.5927,W,2,05,1.32,16.1,M,47.0,M,0000,0000*4A

$GPRMC,191805.000,A,5131.8260,N,00003.5921,W,0.41,153.34,141121,,,D*78

$GPGGA,191806.000,5131.8259,N,00003.5920,W,2,06,1.30,16.1,M,47.0,M,0000,0000*46

$GPRMC,191811.000,A,5131.8254,N,00003.5919,W,0.35,160.79,141121,,,D*7B

$GPGGA,191812.000,5131.8253,N,00003.5919,W,2,06,1.30,16.1,M,47.0,M,0000,0000*43

$GPRMC,191817.000,A,5131.8250,N,00003.5917,W,0.23,141.08,141121,,,D*75

$GPGGA,191818.000,5131.8249,N,00003.5916,W,2,06,1.30,16.1,M,47.0,M,0000,0000*4D

$GPRMC,191823.000,A,5131.8250,N,00003.5918,W,0.19,297.36,141121,,,D*71

$GPGGA,191824.000,5131.8250,N,00003.5919,W,2,06,1.30,16.1,M,47.0,M,0000,0000*45

$GPRMC,191829.000,A,5131.8252,N,00003.5923,W,0.35,312.72,141121,,,D*73

$GPGGA,191830.000,5131.8253,N,00003.5924,W,2,06,1.30,16.1,M,47.0,M,0000,0000*4D

$GPRMC,191835.000,A,5131.8255,N,00003.5927,W,0.13,321.17,141121,,,D*7A

$GPGGA,191836.000,5131.8256,N,00003.5927,W,2,06,1.30,16.1,M,47.0,M,0000,0000*4D

$GPRMC,191841.000,A,5131.8256,N,00003.5933,W,0.31,273.60,141121,,,D*79

$GPGGA,191842.000,5131.8256,N,00003.5934,W,2,06,1.30,16.1,M,47.0,M,0000,0000*4C

$GPRMC,191847.000,A,5131.8258,N,00003.5940,W,0.19,310.13,141121,,,D*7F

$GPGGA,191848.000,5131.8258,N,00003.5941,W,2,06,1.30,16.2,M,47.0,M,0000,0000*49

$GPRMC,191853.000,A,5131.8257,N,00003.5947,W,0.41,258.37,141121,,,D*74

$GPGGA,191854.000,5131.8256,N,00003.5949,W,2,06,1.30,16.2,M,47.0,M,0000,0000*42

$GPRMC,191859.000,A,5131.8257,N,00003.5955,W,0.20,301.88,141121,,,D*73

$GPGGA,191900.000,5131.8257,N,00003.5956,W,2,06,1.30,16.2,M,47.0,M,0000,0000*4D

$GPRMC,191905.000,A,5131.8260,N,00003.5960,W,0.30,319.37,141121,,,D*75

$GPGGA,191906.000,5131.8260,N,00003.5961,W,2,06,1.30,16.2,M,47.0,M,0000,0000*4B

$GPRMC,191911.000,A,5131.8264,N,00003.5967,W,0.44,303.67,141121,,,D*7E

$GPGGA,191912.000,5131.8265,N,00003.5969,W,2,06,1.30,16.2,M,47.0,M,0000,0000*43

$GPRMC,191917.000,A,5131.8269,N,00003.5978,W,0.55,309.59,141121,,,D*7C

$GPGGA,191918.000,5131.8270,N,00003.5980,W,2,06,1.30,16.2,M,47.0,M,0000,0000*4A

$GPRMC,191923.000,A,5131.8273,N,00003.6011,W,0.59,296.45,141121,,,D*73

$GPGGA,191924.000,5131.8273,N,00003.6015,W,2,06,1.30,16.2,M,47.0,M,0000,0000*40

$GPRMC,191929.000,A,5131.8271,N,00003.6017,W,0.29,289.12,141121,,,D*76

$GPGGA,191930.000,5131.8271,N,00003.6018,W,2,06,1.30,16.2,M,47.0,M,0000,0000*4A

$GPRMC,191935.000,A,5131.8272,N,00003.6026,W,0.33,281.81,141121,,,D*73

$GPGGA,191936.000,5131.8272,N,00003.6027,W,2,06,1.30,16.2,M,47.0,M,0000,0000*43

$GPRMC,191941.000,A,5131.8273,N,00003.6033,W,0.27,264.33,141121,,,D*72

$GPGGA,191942.000,5131.8272,N,00003.6034,W,2,06,1.31,16.2,M,47.0,M,0000,0000*43

$GPRMC,191947.000,A,5131.8272,N,00003.6035,W,0.06,185.66,141121,,,D*7C

$GPGGA,191948.000,5131.8272,N,00003.6035,W,2,06,1.31,16.2,M,47.0,M,0000,0000*48

$GPRMC,191953.000,A,5131.8270,N,00003.6036,W,0.22,239.37,141121,,,D*7E

$GPGGA,191954.000,5131.8270,N,00003.6037,W,2,06,1.31,16.2,M,47.0,M,0000,0000*45

$GPRMC,191959.000,A,5131.8272,N,00003.6041,W,0.42,331.20,141121,,,D*7F

$GPGGA,192000.000,5131.8273,N,00003.6042,W,2,06,1.31,16.2,M,47.0,M,0000,0000*4F

$GPRMC,192005.000,A,5131.8279,N,00003.6048,W,0.41,340.67,141121,,,D*78

$GPGGA,192006.000,5131.8280,N,00003.6048,W,2,06,1.31,16.2,M,47.0,M,0000,0000*4F

$GPRMC,192011.000,A,5131.8284,N,00003.6052,W,0.25,325.55,141121,,,D*74

$GPGGA,192012.000,5131.8285,N,00003.6052,W,2,06,1.31,16.2,M,47.0,M,0000,0000*44

$GPRMC,192017.000,A,5131.8286,N,00003.6051,W,0.18,63.94,141121,,,D*41

$GPGGA,192018.000,5131.8286,N,00003.6050,W,2,06,1.31,16.2,M,47.0,M,0000,0000*4F

$GPRMC,192023.000,A,5131.8286,N,00003.6049,W,0.10,283.82,141121,,,D*7C

$GPGGA,192024.000,5131.8286,N,00003.6050,W,2,06,1.31,16.2,M,47.0,M,0000,0000*40

$GPRMC,192029.000,A,5131.8286,N,00003.6049,W,0.09,90.81,141121,,,D*4D

$GPGGA,192030.000,5131.8286,N,00003.6048,W,2,06,1.31,16.2,M,47.0,M,0000,0000*4C

$GPRMC,192035.000,A,5131.8286,N,00003.6049,W,0.09,232.19,141121,,,D*7B

$GPGGA,192036.000,5131.8286,N,00003.6049,W,2,06,1.31,16.2,M,47.0,M,0000,0000*4B

$GPRMC,192041.000,A,5131.8284,N,00003.6050,W,0.21,184.52,141121,,,D*79

$GPGGA,192042.000,5131.8283,N,00003.6050,W,2,06,1.31,16.2,M,47.0,M,0000,0000*45

$GPRMC,192047.000,A,5131.8283,N,00003.6052,W,0.10,277.27,141121,,,D*75

$GPGGA,192048.000,5131.8283,N,00003.6053,W,2,06,1.31,16.2,M,47.0,M,0000,0000*4C

$GPRMC,192053.000,A,5131.8285,N,00003.6055,W,0.25,324.12,141121,,,D*76

$GPGGA,192054.000,5131.8286,N,00003.6055,W,2,06,1.31,16.2,M,47.0,M,0000,0000*42

$GPRMC,192059.000,A,5131.8289,N,00003.6057,W,0.30,348.14,141121,,,D*7A

$GPGGA,192100.000,5131.8290,N,00003.6057,W,2,06,1.44,16.2,M,47.0,M,0000,0000*45

$GPRMC,192105.000,A,5131.8293,N,00003.6060,W,0.33,325.09,141121,,,D*79

$GPGGA,192106.000,5131.8293,N,00003.6061,W,2,06,1.31,16.2,M,47.0,M,0000,0000*47

$GPRMC,192111.000,A,5131.8296,N,00003.6064,W,0.23,317.96,141121,,,D*7B

$GPGGA,192112.000,5131.8297,N,00003.6064,W,2,06,1.31,16.2,M,47.0,M,0000,0000*43

$GPRMC,192117.000,A,5131.8301,N,00003.6070,W,0.49,324.81,141121,,,D*7D

$GPGGA,192118.000,5131.8302,N,00003.6072,W,2,06,1.31,16.2,M,47.0,M,0000,0000*43

$GPRMC,192123.000,A,5131.8311,N,00003.6075,W,0.58,346.42,141121,,,D*75

$GPGGA,192124.000,5131.8313,N,00003.6075,W,2,06,1.44,16.2,M,47.0,M,0000,0000*49

$GPRMC,192129.000,A,5131.8308,N,00003.6065,W,0.14,332.36,141121,,,D*7E

$GPGGA,192130.000,5131.8308,N,00003.6066,W,2,06,1.32,16.2,M,47.0,M,0000,0000*45

$GPRMC,192135.000,A,5131.8307,N,00003.6067,W,0.04,335.65,141121,,,D*7E

$GPGGA,192136.000,5131.8307,N,00003.6067,W,2,06,1.32,16.2,M,47.0,M,0000,0000*4D

$GPRMC,192141.000,A,5131.8309,N,00003.6064,W,0.28,56.28,141121,,,D*41

$GPGGA,192142.000,5131.8310,N,00003.6063,W,2,06,1.32,16.2,M,47.0,M,0000,0000*4C

$GPRMC,192147.000,A,5131.8311,N,00003.6061,W,0.08,32.13,141121,,,D*43

$GPGGA,192148.000,5131.8311,N,00003.6061,W,2,06,1.32,16.2,M,47.0,M,0000,0000*45

$GPRMC,192153.000,A,5131.8310,N,00003.6062,W,0.18,182.33,141121,,,D*7D

$GPGGA,192154.000,5131.8310,N,00003.6062,W,2,06,1.32,16.2,M,47.0,M,0000,0000*4A

$GPRMC,192159.000,A,5131.8307,N,00003.6064,W,0.22,264.43,141121,,,D*72

$GPGGA,192200.000,5131.8307,N,00003.6065,W,2,06,1.32,16.2,M,47.0,M,0000,0000*49

$GPRMC,192205.000,A,5131.8310,N,00003.6071,W,0.58,311.62,141121,,,D*77

$GPGGA,192206.000,5131.8311,N,00003.6073,W,2,06,1.32,16.2,M,47.0,M,0000,0000*4F

$GPRMC,192211.000,A,5131.8323,N,00003.6068,W,0.85,326.60,141121,,,D*7C

$GPGGA,192212.000,5131.8324,N,00003.6068,W,2,06,1.32,16.2,M,47.0,M,0000,0000*46

$GPRMC,192217.000,A,5131.8318,N,00003.6048,W,0.40,333.17,141121,,,D*7D

$GPGGA,192218.000,5131.8315,N,00003.6045,W,2,06,1.32,16.2,M,47.0,M,0000,0000*41

$GPRMC,192223.000,A,5131.8311,N,00003.6035,W,0.19,67.19,141121,,,D*49

$GPGGA,192224.000,5131.8311,N,00003.6034,W,2,06,1.32,16.2,M,47.0,M,0000,0000*4C

$GPRMC,192229.000,A,5131.8309,N,00003.6029,W,0.44,126.86,141121,,,D*7D

$GPGGA,192230.000,5131.8308,N,00003.6028,W,2,06,1.32,16.2,M,47.0,M,0000,0000*4C

$GPRMC,192235.000,A,5131.8302,N,00003.6022,W,0.51,144.86,141121,,,D*70

$GPGGA,192236.000,5131.8301,N,00003.6020,W,2,06,1.32,16.2,M,47.0,M,0000,0000*4B

$GPRMC,192241.000,A,5131.8298,N,00003.6013,W,0.35,99.99,141121,,,D*4E

$GPGGA,192242.000,5131.8298,N,00003.6012,W,2,06,1.32,16.2,M,47.0,M,0000,0000*48

$GPRMC,192247.000,A,5131.8294,N,00003.6007,W,0.47,165.06,141121,,,D*70

$GPGGA,192248.000,5131.8292,N,00003.6007,W,2,06,1.32,16.2,M,47.0,M,0000,0000*4C

$GPRMC,192253.000,A,5131.8272,N,00003.6002,W,0.68,156.35,141121,,,D*75

$GPGGA,192254.000,5131.8268,N,00003.5998,W,2,06,1.32,16.1,M,47.0,M,0000,0000*4B

$GPRMC,192259.000,A,5131.8245,N,00003.5987,W,0.87,165.96,141121,,,D*74

$GPGGA,192300.000,5131.8239,N,00003.5982,W,2,06,1.32,16.1,M,47.0,M,0000,0000*44

$GPRMC,192305.000,A,5131.8216,N,00003.5957,W,1.07,151.42,141121,,,D*70

$GPGGA,192306.000,5131.8212,N,00003.5955,W,2,06,1.32,16.1,M,47.0,M,0000,0000*41

$GPRMC,192311.000,A,5131.8192,N,00003.5941,W,1.16,152.64,141121,,,D*7A

$GPGGA,192312.000,5131.8190,N,00003.5941,W,2,06,1.33,16.1,M,47.0,M,0000,0000*49

$GPRMC,192317.000,A,5131.8179,N,00003.5940,W,1.07,155.61,141121,,,D*7A

$GPGGA,192318.000,5131.8176,N,00003.5940,W,2,05,1.35,16.1,M,47.0,M,0000,0000*4F

$GPRMC,192323.000,A,5131.8208,N,00003.5980,W,0.27,164.38,141121,,,D*79

$GPGGA,192324.000,5131.8208,N,00003.5983,W,2,05,1.35,16.2,M,47.0,M,0000,0000*46

$GPRMC,192329.000,A,5131.8207,N,00003.5984,W,0.21,300.39,141121,,,D*7F

$GPGGA,192330.000,5131.8207,N,00003.5985,W,2,05,1.35,16.2,M,47.0,M,0000,0000*4A

$GPRMC,192335.000,A,5131.8211,N,00003.5992,W,0.56,321.73,141121,,,D*7F

$GPGGA,192336.000,5131.8213,N,00003.5994,W,2,05,1.35,16.2,M,47.0,M,0000,0000*49

$GPRMC,192341.000,A,5131.8246,N,00003.6026,W,0.84,319.46,141121,,,D*79

$GPGGA,192342.000,5131.8252,N,00003.6030,W,2,05,1.35,16.1,M,47.0,M,0000,0000*48

$GPRMC,192347.000,A,5131.8291,N,00003.6060,W,1.11,333.77,141121,,,D*70

$GPGGA,192348.000,5131.8297,N,00003.6064,W,2,05,1.35,16.1,M,47.0,M,0000,0000*4A

$GPRMC,192353.000,A,5131.8318,N,00003.6087,W,1.08,325.12,141121,,,D*70

$GPGGA,192354.000,5131.8323,N,00003.6091,W,2,06,1.33,16.0,M,47.0,M,0000,0000*47

$GPRMC,192359.000,A,5131.8330,N,00003.6091,W,0.89,336.42,141121,,,D*78

$GPGGA,192400.000,5131.8330,N,00003.6090,W,2,06,1.33,16.0,M,47.0,M,0000,0000*42

$GPRMC,192405.000,A,5131.8324,N,00003.6075,W,0.47,357.97,141121,,,D*74

$GPGGA,192406.000,5131.8319,N,00003.6067,W,2,06,1.45,16.0,M,47.0,M,0000,0000*46

$GPRMC,192411.000,A,5131.8311,N,00003.6051,W,0.29,69.98,141121,,,D*48

$GPGGA,192412.000,5131.8311,N,00003.6049,W,2,05,2.68,16.0,M,47.0,M,0000,0000*48

$GPRMC,192417.000,A,5131.8311,N,00003.6044,W,0.15,112.29,141121,,,D*72

$GPGGA,192418.000,5131.8311,N,00003.6044,W,2,05,2.69,16.0,M,47.0,M,0000,0000*4E

$GPRMC,192423.000,A,5131.8309,N,00003.6042,W,0.23,165.41,141121,,,D*71

$GPGGA,192424.000,5131.8308,N,00003.6042,W,2,05,2.69,16.0,M,47.0,M,0000,0000*4F

$GPRMC,192429.000,A,5131.8304,N,00003.6041,W,0.36,187.14,141121,,,D*7D

$GPGGA,192430.000,5131.8303,N,00003.6041,W,2,04,3.13,16.0,M,47.0,M,0000,0000*4F

$GPRMC,192435.000,A,5131.8297,N,00003.6043,W,0.46,175.61,141121,,,D*71

$GPGGA,192436.000,5131.8295,N,00003.6043,W,2,04,3.13,16.0,M,47.0,M,0000,0000*45

$GPRMC,192441.000,A,5131.8289,N,00003.6040,W,0.48,157.57,141121,,,D*75

$GPGGA,192442.000,5131.8288,N,00003.6039,W,2,04,3.13,16.0,M,47.0,M,0000,0000*47

$GPRMC,192447.000,A,5131.8267,N,00003.6025,W,0.82,159.06,141121,,,D*7C

$GPGGA,192448.000,5131.8260,N,00003.6019,W,2,04,3.14,16.0,M,47.0,M,0000,0000*4E

$GPRMC,192453.000,A,5131.8228,N,00003.5997,W,1.08,155.26,141121,,,D*7C

$GPGGA,192454.000,5131.8222,N,00003.5991,W,2,04,3.14,16.0,M,47.0,M,0000,0000*4F

$GPRMC,192459.000,A,5131.8217,N,00003.6002,W,0.92,162.97,141121,,,D*70

$GPGGA,192500.000,5131.8220,N,00003.6010,W,2,05,2.71,15.9,M,47.0,M,0000,0000*47

$GPRMC,192505.000,A,5131.8241,N,00003.6048,W,0.42,201.33,141121,,,D*70

$GPGGA,192506.000,5131.8249,N,00003.6060,W,2,05,2.71,15.9,M,47.0,M,0000,0000*49

$GPRMC,192511.000,A,5131.8259,N,00003.6078,W,0.37,290.62,141121,,,D*71

$GPGGA,192512.000,5131.8260,N,00003.6079,W,2,05,2.71,15.9,M,47.0,M,0000,0000*4F

$GPRMC,192517.000,A,5131.8263,N,00003.6085,W,0.39,325.39,141121,,,D*73

$GPGGA,192518.000,5131.8264,N,00003.6086,W,2,05,2.72,15.9,M,47.0,M,0000,0000*42

$GPRMC,192523.000,A,5131.8267,N,00003.6087,W,0.14,77.99,141121,,,D*43

$GPGGA,192524.000,5131.8267,N,00003.6087,W,2,05,2.72,15.9,M,47.0,M,0000,0000*4F

$GPRMC,192529.000,A,5131.8263,N,00003.6083,W,0.49,149.55,141121,,,D*7D

$GPGGA,192530.000,5131.8262,N,00003.6082,W,2,05,2.72,15.9,M,47.0,M,0000,0000*4A

$GPRMC,192535.000,A,5131.8217,N,00003.6018,W,0.92,145.29,141121,,,D*70

$GPGGA,192536.000,5131.8206,N,00003.6002,W,2,05,2.73,15.8,M,47.0,M,0000,0000*46

$GPRMC,192541.000,A,5131.8150,N,00003.5933,W,1.44,147.70,141121,,,D*74

$GPGGA,192542.000,5131.8139,N,00003.5919,W,2,04,3.02,15.8,M,47.0,M,0000,0000*4C

$GPRMC,192547.000,A,5131.8098,N,00003.5864,W,1.67,144.83,141121,,,D*7A

$GPGGA,192548.000,5131.8093,N,00003.5854,W,2,05,2.73,15.8,M,47.0,M,0000,0000*49

$GPRMC,192553.000,A,5131.8065,N,00003.5811,W,1.80,143.03,141121,,,D*79

$GPGGA,192554.000,5131.8063,N,00003.5808,W,2,05,2.74,15.8,M,47.0,M,0000,0000*45

$GPRMC,192559.000,A,5131.8084,N,00003.5824,W,1.17,150.84,141121,,,D*79

$GPGGA,192600.000,5131.8085,N,00003.5825,W,2,05,2.74,15.7,M,47.0,M,0000,0000*4F

$GPRMC,192605.000,A,5131.8093,N,00003.5822,W,1.00,138.97,141121,,,D*79

$GPGGA,192606.000,5131.8092,N,00003.5818,W,2,05,2.74,15.7,M,47.0,M,0000,0000*41

$GPRMC,192611.000,A,5131.8104,N,00003.5829,W,0.74,150.57,141121,,,D*78

$GPGGA,192612.000,5131.8109,N,00003.5831,W,2,05,2.75,15.7,M,47.0,M,0000,0000*4D

$GPRMC,192617.000,A,5131.8124,N,00003.5843,W,0.56,149.45,141121,,,D*7B

$GPGGA,192618.000,5131.8128,N,00003.5846,W,2,05,2.75,15.7,M,47.0,M,0000,0000*44

$GPRMC,192623.000,A,5131.8145,N,00003.5854,W,0.15,47.34,141121,,,D*43

$GPGGA,192624.000,5131.8145,N,00003.5854,W,2,05,2.75,15.7,M,47.0,M,0000,0000*43

$GPRMC,192629.000,A,5131.8175,N,00003.5892,W,0.71,328.59,141121,,,D*73

$GPGGA,192630.000,5131.8180,N,00003.5895,W,2,06,1.34,15.6,M,47.0,M,0000,0000*46

$GPRMC,192635.000,A,5131.8209,N,00003.5903,W,0.90,351.54,141121,,,D*73

$GPGGA,192636.000,5131.8213,N,00003.5903,W,2,06,1.45,15.6,M,47.0,M,0000,0000*41

$GPRMC,192641.000,A,5131.8224,N,00003.5909,W,0.72,348.58,141121,,,D*7D

$GPGGA,192642.000,5131.8225,N,00003.5916,W,2,06,1.45,15.6,M,47.0,M,0000,0000*43

$GPRMC,192647.000,A,5131.8227,N,00003.5913,W,0.45,335.53,141121,,,D*76

$GPGGA,192648.000,5131.8228,N,00003.5914,W,2,06,1.35,15.6,M,47.0,M,0000,0000*41

$GPRMC,192653.000,A,5131.8232,N,00003.5920,W,0.45,338.77,141121,,,D*7C

$GPGGA,192654.000,5131.8234,N,00003.5920,W,2,06,1.35,15.6,M,47.0,M,0000,0000*46

$GPRMC,192659.000,A,5131.8239,N,00003.5919,W,0.34,46.58,141121,,,D*46

$GPGGA,192700.000,5131.8239,N,00003.5918,W,2,06,1.35,15.6,M,47.0,M,0000,0000*40

$GPRMC,192705.000,A,5131.8242,N,00003.5910,W,0.30,74.27,141121,,,D*46

$GPGGA,192706.000,5131.8243,N,00003.5909,W,2,06,1.35,15.6,M,47.0,M,0000,0000*4B

$GPRMC,192711.000,A,5131.8243,N,00003.5907,W,0.09,107.59,141121,,,D*72

$GPGGA,192712.000,5131.8243,N,00003.5907,W,2,06,1.35,15.6,M,47.0,M,0000,0000*40

$GPRMC,192717.000,A,5131.8242,N,00003.5908,W,0.28,243.68,141121,,,D*78

$GPGGA,192718.000,5131.8242,N,00003.5910,W,2,06,1.35,15.6,M,47.0,M,0000,0000*4D

$GPRMC,192723.000,A,5131.8238,N,00003.5913,W,0.31,183.67,141121,,,D*70

$GPGGA,192724.000,5131.8237,N,00003.5913,W,2,06,1.35,15.6,M,47.0,M,0000,0000*43

$GPRMC,192729.000,A,5131.8234,N,00003.5913,W,0.15,167.03,141121,,,D*78

$GPGGA,192730.000,5131.8233,N,00003.5913,W,2,06,1.35,15.6,M,47.0,M,0000,0000*42

$GPRMC,192735.000,A,5131.8230,N,00003.5913,W,0.37,173.48,141121,,,D*7B

$GPGGA,192736.000,5131.8229,N,00003.5913,W,2,06,1.35,15.6,M,47.0,M,0000,0000*4F

$GPRMC,192741.000,A,5131.8224,N,00003.5914,W,0.38,169.92,141121,,,D*79

$GPGGA,192742.000,5131.8223,N,00003.5913,W,2,06,1.35,15.6,M,47.0,M,0000,0000*46

$GPRMC,192747.000,A,5131.8220,N,00003.5911,W,0.17,219.44,141121,,,D*7C

$GPGGA,192748.000,5131.8219,N,00003.5912,W,2,06,1.35,15.6,M,47.0,M,0000,0000*44

$GPRMC,192753.000,A,5131.8217,N,00003.5916,W,0.25,224.56,141121,,,D*76

$GPGGA,192754.000,5131.8217,N,00003.5917,W,2,06,1.35,15.6,M,47.0,M,0000,0000*42

$GPRMC,192759.000,A,5131.8215,N,00003.5921,W,0.15,283.71,141121,,,D*71

$GPGGA,192800.000,5131.8215,N,00003.5922,W,2,06,1.36,15.6,M,47.0,M,0000,0000*4B

$GPRMC,192805.000,A,5131.8224,N,00003.5923,W,0.64,348.00,141121,,,D*71

$GPGGA,192806.000,5131.8241,N,00003.5929,W,2,06,1.46,15.6,M,47.0,M,0000,0000*40

$GPRMC,192811.000,A,5131.8249,N,00003.5933,W,0.59,351.21,141121,,,D*7B

$GPGGA,192812.000,5131.8249,N,00003.5935,W,2,06,1.46,15.5,M,47.0,M,0000,0000*43

$GPRMC,192817.000,A,5131.8259,N,00003.5932,W,0.45,1.79,141121,,,D*7B

$GPGGA,192818.000,5131.8260,N,00003.5932,W,2,06,1.46,15.5,M,47.0,M,0000,0000*45

$GPRMC,192823.000,A,5131.8264,N,00003.5933,W,0.25,343.19,141121,,,D*76

$GPGGA,192824.000,5131.8265,N,00003.5933,W,2,06,1.36,15.5,M,47.0,M,0000,0000*49

$GPRMC,192829.000,A,5131.8279,N,00003.5949,W,0.66,350.20,141121,,,D*72

$GPGGA,192830.000,5131.8280,N,00003.5953,W,2,06,1.46,15.6,M,47.0,M,0000,0000*45

$GPRMC,192835.000,A,5131.8277,N,00003.5937,W,0.32,22.46,141121,,,D*4F

$GPGGA,192836.000,5131.8278,N,00003.5936,W,2,06,1.36,15.8,M,47.0,M,0000,0000*4E

$GPRMC,192841.000,A,5131.8280,N,00003.5935,W,0.13,37.50,141121,,,D*46

$GPGGA,192842.000,5131.8280,N,00003.5935,W,2,06,1.36,15.8,M,47.0,M,0000,0000*49

$GPRMC,192847.000,A,5131.8279,N,00003.5930,W,0.35,120.05,141121,,,D*70

$GPGGA,192848.000,5131.8278,N,00003.5929,W,2,06,1.36,15.8,M,47.0,M,0000,0000*49

$GPRMC,192853.000,A,5131.8273,N,00003.5923,W,0.56,156.61,141121,,,D*7B

$GPGGA,192854.000,5131.8272,N,00003.5922,W,2,06,1.36,15.8,M,47.0,M,0000,0000*45

$GPRMC,192859.000,A,5131.8244,N,00003.5900,W,0.84,148.23,141121,,,D*72

$GPGGA,192900.000,5131.8240,N,00003.5898,W,2,05,1.39,16.0,M,47.0,M,0000,0000*43

$GPRMC,192905.000,A,5131.8222,N,00003.5886,W,0.77,153.38,141121,,,D*79

$GPGGA,192906.000,5131.8234,N,00003.5897,W,2,05,1.39,16.1,M,47.0,M,0000,0000*48

$GPRMC,192911.000,A,5131.8222,N,00003.5893,W,0.68,159.01,141121,,,D*76

$GPGGA,192912.000,5131.8231,N,00003.5903,W,2,05,1.39,16.4,M,47.0,M,0000,0000*41

$GPRMC,192917.000,A,5131.8211,N,00003.5894,W,0.88,146.59,141121,,,D*7A

$GPGGA,192918.000,5131.8209,N,00003.5895,W,2,06,1.36,16.4,M,47.0,M,0000,0000*42

$GPRMC,192923.000,A,5131.8208,N,00003.5903,W,0.49,152.48,141121,,,D*72

$GPGGA,192924.000,5131.8207,N,00003.5903,W,2,06,1.36,16.5,M,47.0,M,0000,0000*4C

$GPRMC,192929.000,A,5131.8201,N,00003.5898,W,0.60,146.22,141121,,,D*70

$GPGGA,192930.000,5131.8198,N,00003.5896,W,2,06,1.36,16.5,M,47.0,M,0000,0000*41

$GPRMC,192935.000,A,5131.8176,N,00003.5899,W,0.68,174.86,141121,,,D*78

$GPGGA,192936.000,5131.8170,N,00003.5896,W,2,06,1.37,16.9,M,47.0,M,0000,0000*4C

$GPRMC,192941.000,A,5131.8176,N,00003.5910,W,0.46,175.86,141121,,,D*76

$GPGGA,192942.000,5131.8186,N,00003.5920,W,2,06,1.37,17.5,M,47.0,M,0000,0000*47

$GPRMC,192947.000,A,5131.8181,N,00003.5922,W,0.19,202.83,141121,,,D*75

$GPGGA,192948.000,5131.8181,N,00003.5923,W,2,06,1.37,17.6,M,47.0,M,0000,0000*4A

$GPRMC,192953.000,A,5131.8180,N,00003.5925,W,0.23,242.93,141121,,,D*7A

$GPGGA,192954.000,5131.8180,N,00003.5926,W,2,06,1.37,17.6,M,47.0,M,0000,0000*43

$GPRMC,192959.000,A,5131.8178,N,00003.5930,W,0.13,184.13,141121,,,D*71

$GPGGA,193000.000,5131.8178,N,00003.5930,W,2,06,1.37,17.6,M,47.0,M,0000,0000*4A

$GPRMC,193005.000,A,5131.8177,N,00003.5929,W,0.08,140.28,141121,,,D*7D

$GPGGA,193006.000,5131.8177,N,00003.5929,W,2,06,1.37,17.6,M,47.0,M,0000,0000*4B

$GPRMC,193011.000,A,5131.8177,N,00003.5928,W,0.11,330.09,141121,,,D*77

$GPGGA,193012.000,5131.8178,N,00003.5928,W,2,06,1.37,17.6,M,47.0,M,0000,0000*40

$GPRMC,193017.000,A,5131.8182,N,00003.5932,W,0.31,340.04,141121,,,D*78

$GPGGA,193018.000,5131.8183,N,00003.5932,W,2,06,1.37,17.6,M,47.0,M,0000,0000*45

$GPRMC,193023.000,A,5131.8186,N,00003.5934,W,0.10,60.45,141121,,,D*4A

$GPGGA,193024.000,5131.8186,N,00003.5934,W,2,06,1.37,17.5,M,47.0,M,0000,0000*4A

$GPRMC,193029.000,A,5131.8186,N,00003.5930,W,0.27,36.56,141121,,,D*41

$GPGGA,193030.000,5131.8187,N,00003.5929,W,2,06,1.37,17.6,M,47.0,M,0000,0000*41

$GPRMC,193035.000,A,5131.8194,N,00003.5929,W,0.65,350.60,141121,,,D*77

$GPGGA,193036.000,5131.8194,N,00003.5924,W,2,06,1.46,17.5,M,47.0,M,0000,0000*4D

$GPRMC,193041.000,A,5131.8193,N,00003.5913,W,0.26,345.20,141121,,,D*7D

$GPGGA,193042.000,5131.8194,N,00003.5914,W,2,06,1.46,17.3,M,47.0,M,0000,0000*4B

$GPRMC,193047.000,A,5131.8197,N,00003.5915,W,0.19,19.87,141121,,,D*42

$GPGGA,193048.000,5131.8197,N,00003.5915,W,2,06,1.38,17.3,M,47.0,M,0000,0000*4A

$GPRMC,193053.000,A,5131.8199,N,00003.5910,W,0.26,93.30,141121,,,D*4E

$GPGGA,193054.000,5131.8199,N,00003.5908,W,2,06,1.38,17.3,M,47.0,M,0000,0000*45

$GPRMC,193059.000,A,5131.8200,N,00003.5905,W,0.28,32.75,141121,,,D*47

$GPGGA,193100.000,5131.8200,N,00003.5905,W,2,06,1.37,17.3,M,47.0,M,0000,0000*44

$GPRMC,193105.000,A,5131.8206,N,00003.5904,W,0.38,18.12,141121,,,D*40

$GPGGA,193106.000,5131.8207,N,00003.5904,W,2,06,1.38,17.3,M,47.0,M,0000,0000*4B

$GPRMC,193111.000,A,5131.8214,N,00003.5903,W,0.42,349.66,141121,,,D*78

$GPGGA,193112.000,5131.8215,N,00003.5904,W,2,06,1.47,17.2,M,47.0,M,0000,0000*44

$GPRMC,193117.000,A,5131.8219,N,00003.5906,W,0.40,324.47,141121,,,D*7C

$GPGGA,193118.000,5131.8220,N,00003.5907,W,2,06,1.38,17.2,M,47.0,M,0000,0000*43

$GPRMC,193123.000,A,5131.8223,N,00003.5914,W,0.35,302.85,141121,,,D*79

$GPGGA,193124.000,5131.8223,N,00003.5916,W,2,06,1.38,17.1,M,47.0,M,0000,0000*4C

$GPRMC,193129.000,A,5131.8227,N,00003.5919,W,0.15,72.89,141121,,,D*40

$GPGGA,193130.000,5131.8227,N,00003.5918,W,2,06,1.38,17.1,M,47.0,M,0000,0000*43

$GPRMC,193135.000,A,5131.8226,N,00003.5917,W,0.14,157.59,141121,,,D*78

$GPGGA,193136.000,5131.8226,N,00003.5916,W,2,06,1.38,17.1,M,47.0,M,0000,0000*4A

$GPRMC,193141.000,A,5131.8226,N,00003.5919,W,0.43,288.27,141121,,,D*7F

$GPGGA,193142.000,5131.8227,N,00003.5921,W,2,06,1.38,17.2,M,47.0,M,0000,0000*4F

$GPRMC,193147.000,A,5131.8229,N,00003.5926,W,0.11,315.64,141121,,,D*7F

$GPGGA,193148.000,5131.8229,N,00003.5926,W,2,06,1.38,17.2,M,47.0,M,0000,0000*4C

$GPRMC,193153.000,A,5131.8231,N,00003.5927,W,0.07,346.14,141121,,,D*74

$GPGGA,193154.000,5131.8231,N,00003.5927,W,2,06,1.47,17.2,M,47.0,M,0000,0000*41

$GPRMC,193159.000,A,5131.8233,N,00003.5927,W,0.26,334.44,141121,,,D*7F

$GPGGA,193200.000,5131.8234,N,00003.5928,W,2,06,1.38,17.2,M,47.0,M,0000,0000*41

$GPRMC,193205.000,A,5131.8239,N,00003.5934,W,0.29,325.46,141121,,,D*70

$GPGGA,193206.000,5131.8240,N,00003.5935,W,2,06,1.38,17.1,M,47.0,M,0000,0000*4B

$GPRMC,193211.000,A,5131.8243,N,00003.5940,W,0.39,343.97,141121,,,D*76

$GPGGA,193212.000,5131.8244,N,00003.5940,W,2,06,1.38,17.1,M,47.0,M,0000,0000*48

$GPRMC,193217.000,A,5131.8248,N,00003.5939,W,0.24,55.98,141121,,,D*42

$GPGGA,193218.000,5131.8249,N,00003.5938,W,2,06,1.39,17.1,M,47.0,M,0000,0000*41

$GPRMC,193223.000,A,5131.8250,N,00003.5933,W,0.19,87.98,141121,,,D*47

$GPGGA,193224.000,5131.8250,N,00003.5932,W,2,05,1.42,17.1,M,47.0,M,0000,0000*43

$GPRMC,193229.000,A,5131.8248,N,00003.5926,W,0.47,116.16,141121,,,D*74

$GPGGA,193230.000,5131.8247,N,00003.5924,W,2,05,1.42,17.1,M,47.0,M,0000,0000*47

$GPRMC,193235.000,A,5131.8244,N,00003.5915,W,0.50,127.94,141121,,,D*7B

$GPGGA,193236.000,5131.8243,N,00003.5913,W,2,05,1.42,17.1,M,47.0,M,0000,0000*41

$GPRMC,193241.000,A,5131.8240,N,00003.5897,W,0.72,126.57,141121,,,D*79

$GPGGA,193242.000,5131.8238,N,00003.5893,W,2,05,1.42,17.1,M,47.0,M,0000,0000*47

$GPRMC,193247.000,A,5131.8231,N,00003.5869,W,0.67,122.32,141121,,,D*7B

$GPGGA,193248.000,5131.8229,N,00003.5861,W,2,05,1.42,17.1,M,47.0,M,0000,0000*40

$GPRMC,193253.000,A,5131.8229,N,00003.5849,W,0.56,119.97,141121,,,D*70

$GPGGA,193254.000,5131.8228,N,00003.5847,W,2,05,1.42,17.1,M,47.0,M,0000,0000*48

$GPRMC,193259.000,A,5131.8229,N,00003.5837,W,0.49,134.96,141121,,,D*73

$GPGGA,193300.000,5131.8226,N,00003.5839,W,2,05,1.43,17.1,M,47.0,M,0000,0000*4E

$GPRMC,193305.000,A,5131.8220,N,00003.5835,W,0.27,158.45,141121,,,D*7C

$GPGGA,193306.000,5131.8220,N,00003.5835,W,2,05,1.43,17.1,M,47.0,M,0000,0000*42

$GPRMC,193311.000,A,5131.8220,N,00003.5840,W,0.30,290.26,141121,,,D*7F

$GPGGA,193312.000,5131.8220,N,00003.5841,W,2,05,1.43,17.1,M,47.0,M,0000,0000*44

$GPRMC,193317.000,A,5131.8222,N,00003.5851,W,0.45,288.67,141121,,,D*75

$GPGGA,193318.000,5131.8222,N,00003.5853,W,2,05,1.43,17.1,M,47.0,M,0000,0000*4F

$GPRMC,193323.000,A,5131.8231,N,00003.5868,W,0.52,306.62,141121,,,D*7E

$GPGGA,193324.000,5131.8239,N,00003.5878,W,2,05,1.43,17.1,M,47.0,M,0000,0000*43

$GPRMC,193329.000,A,5131.8256,N,00003.5913,W,0.55,309.16,141121,,,D*73

$GPGGA,193330.000,5131.8258,N,00003.5919,W,2,05,1.43,17.1,M,47.0,M,0000,0000*47

$GPRMC,193335.000,A,5131.8264,N,00003.5935,W,0.30,298.20,141121,,,D*74

$GPGGA,193336.000,5131.8265,N,00003.5937,W,2,04,1.46,17.1,M,47.0,M,0000,0000*47

$GPRMC,193341.000,A,5131.8268,N,00003.5941,W,0.42,314.71,141121,,,D*7C

$GPGGA,193342.000,5131.8269,N,00003.5943,W,2,04,1.46,17.1,M,47.0,M,0000,0000*4B

$GPRMC,193347.000,A,5131.8271,N,00003.5952,W,0.55,276.82,141121,,,D*7F

$GPGGA,193348.000,5131.8271,N,00003.5954,W,2,04,1.46,17.1,M,47.0,M,0000,0000*4E

$GPRMC,193353.000,A,5131.8264,N,00003.5981,W,0.56,250.55,141121,,,D*7D

$GPGGA,193354.000,5131.8264,N,00003.5983,W,2,04,1.46,17.0,M,47.0,M,0000,0000*4C

$GPRMC,193359.000,A,5131.8256,N,00003.6010,W,0.54,244.72,141121,,,D*76

$GPGGA,193400.000,5131.8256,N,00003.6012,W,2,04,1.46,16.9,M,47.0,M,0000,0000*41

$GPRMC,193405.000,A,5131.8253,N,00003.6023,W,0.27,216.34,141121,,,D*7C

$GPGGA,193406.000,5131.8252,N,00003.6024,W,2,04,1.46,16.9,M,47.0,M,0000,0000*46

$GPRMC,193411.000,A,5131.8249,N,00003.6029,W,0.35,241.16,141121,,,D*79

$GPGGA,193412.000,5131.8249,N,00003.6031,W,2,05,1.44,16.9,M,47.0,M,0000,0000*4E

$GPRMC,193417.000,A,5131.8248,N,00003.6032,W,0.18,64.67,141121,,,D*48

$GPGGA,193418.000,5131.8248,N,00003.6031,W,2,06,1.40,16.9,M,47.0,M,0000,0000*42

$GPRMC,193423.000,A,5131.8247,N,00003.6026,W,0.36,98.68,141121,,,D*45

$GPGGA,193424.000,5131.8247,N,00003.6024,W,2,06,1.40,16.9,M,47.0,M,0000,0000*46

$GPRMC,193429.000,A,5131.8244,N,00003.6005,W,0.65,101.07,141121,,,D*73

$GPGGA,193430.000,5131.8242,N,00003.6001,W,2,06,1.40,16.9,M,47.0,M,0000,0000*41

$GPRMC,193435.000,A,5131.8235,N,00003.5993,W,0.41,126.49,141121,,,D*74

$GPGGA,193436.000,5131.8233,N,00003.5992,W,2,06,1.40,16.9,M,47.0,M,0000,0000*41

$GPRMC,193441.000,A,5131.8228,N,00003.5978,W,0.59,117.73,141121,,,D*7C

$GPGGA,193442.000,5131.8227,N,00003.5973,W,2,06,1.40,16.8,M,47.0,M,0000,0000*49

$GPRMC,193447.000,A,5131.8230,N,00003.5961,W,0.55,92.57,141121,,,D*4D

$GPGGA,193448.000,5131.8230,N,00003.5958,W,2,06,1.40,16.8,M,47.0,M,0000,0000*4C

$GPRMC,193453.000,A,5131.8229,N,00003.5948,W,0.57,92.91,141121,,,D*43

$GPGGA,193454.000,5131.8229,N,00003.5947,W,2,06,1.40,16.8,M,47.0,M,0000,0000*47

$GPRMC,193459.000,A,5131.8211,N,00003.5983,W,0.42,141.07,141121,,,D*71

$GPGGA,193500.000,5131.8210,N,00003.5982,W,2,06,1.40,16.8,M,47.0,M,0000,0000*44

$GPRMC,193505.000,A,5131.8196,N,00003.5937,W,1.34,111.65,141121,,,D*7B

$GPGGA,193506.000,5131.8193,N,00003.5920,W,2,06,1.40,16.9,M,47.0,M,0000,0000*43

$GPRMC,193511.000,A,5131.8194,N,00003.5847,W,2.29,97.87,141121,,,D*46

$GPGGA,193512.000,5131.8197,N,00003.5839,W,2,05,1.44,16.9,M,47.0,M,0000,0000*4C

$GPRMC,193517.000,A,5131.8160,N,00003.5858,W,1.77,117.51,141121,,,D*7F

$GPGGA,193518.000,5131.8143,N,00003.5850,W,2,04,5.90,16.9,M,47.0,M,0000,0000*4C

$GPRMC,193523.000,A,5131.8125,N,00003.5838,W,1.95,123.45,141121,,,D*71

$GPGGA,193524.000,5131.8129,N,00003.5834,W,2,03,7.64,16.9,M,47.0,M,0000,0000*43

$GPRMC,193529.000,A,5131.8136,N,00003.5852,W,1.35,130.28,141121,,,D*76

$GPGGA,193530.000,5131.8136,N,00003.5858,W,2,03,7.66,16.9,M,47.0,M,0000,0000*40

$GPRMC,193535.000,A,5131.8160,N,00003.5881,W,0.78,133.79,141121,,,D*79

$GPGGA,193536.000,5131.8167,N,00003.5885,W,2,03,7.68,16.9,M,47.0,M,0000,0000*4C

$GPRMC,193541.000,A,5131.8182,N,00003.5907,W,0.37,149.31,141121,,,D*73

$GPGGA,193542.000,5131.8181,N,00003.5906,W,2,03,7.71,16.9,M,47.0,M,0000,0000*45

$GPRMC,193547.000,A,5131.8177,N,00003.5909,W,0.38,213.20,141121,,,D*72

$GPGGA,193548.000,5131.8176,N,00003.5910,W,2,03,7.73,16.9,M,47.0,M,0000,0000*42

$GPRMC,193553.000,V,,,,,0.71,231.39,141121,,,E*44

$GPGGA,193554.000,5131.8159,N,00003.5937,W,2,03,7.76,16.9,M,47.0,M,0000,0000*42

$GPRMC,193559.000,A,5131.8151,N,00003.5976,W,0.70,236.28,141121,,,D*72

$GPGGA,193600.000,5131.8146,N,00003.5984,W,2,03,7.79,16.9,M,47.0,M,0000,0000*49

$GPRMC,193605.000,A,5131.8106,N,00003.6011,W,0.86,223.26,141121,,,D*72

$GPGGA,193606.000,5131.8097,N,00003.6017,W,2,03,7.81,16.9,M,47.0,M,0000,0000*45

$GPRMC,193611.000,V,,,,,0.91,210.85,141121,,,E*4B

$GPGGA,193612.000,5131.8055,N,00003.6027,W,6,01,99.99,16.9,M,47.0,M,0000,0000*75

$GPRMC,193616.000,V,,,,,0.93,211.66,141121,,,N*49

$GPGGA,193617.000,,,,,0,03,,,M,,M,0000,0000*70

