$GPRMC,165023.000,A,5131.9250,N,00003.5829,W,0.18,269.59,111121,,,D*7C

$GPGGA,165024.000,5131.9245,N,00003.5831,W,2,08,0.93,-26.6,M,47.0,M,0000,0000*67

$GPRMC,165029.000,A,5131.9241,N,00003.5846,W,0.19,240.24,111121,,,D*7F

$GPGGA,165030.000,5131.9240,N,00003.5849,W,2,09,0.89,-4.9,M,47.0,M,0000,0000*5D

$GPRMC,165035.000,A,5131.9243,N,00003.5867,W,0.32,279.59,111121,,,D*7A

$GPGGA,165036.000,5131.9243,N,00003.5870,W,2,09,0.88,-4.8,M,47.0,M,0000,0000*52

$GPRMC,165041.000,A,5131.9259,N,00003.5871,W,0.29,349.67,111121,,,D*70

$GPGGA,165042.000,5131.9259,N,00003.5871,W,2,09,0.90,-4.8,M,47.0,M,0000,0000*52

$GPRMC,165047.000,A,5131.9254,N,00003.5866,W,0.16,0.49,111121,,,D*73

$GPGGA,165048.000,5131.9252,N,00003.5864,W,2,09,0.90,-4.8,M,47.0,M,0000,0000*57

$GPRMC,165053.000,A,5131.9249,N,00003.5861,W,0.13,350.94,111121,,,D*7E

$GPGGA,165054.000,5131.9250,N,00003.5861,W,2,09,0.89,-4.8,M,47.0,M,0000,0000*55

$GPRMC,165059.000,A,5131.9253,N,00003.5866,W,0.31,323.03,111121,,,D*72

$GPGGA,165100.000,5131.9254,N,00003.5867,W,2,09,0.89,-4.8,M,47.0,M,0000,0000*57

$GPRMC,165105.000,A,5131.9257,N,00003.5870,W,0.20,311.41,111121,,,D*7E

$GPGGA,165106.000,5131.9257,N,00003.5871,W,2,09,0.89,-4.8,M,47.0,M,0000,0000*55

$GPRMC,165111.000,A,5131.9260,N,00003.5871,W,0.13,119.06,111121,,,D*77

$GPGGA,165112.000,5131.9259,N,00003.5871,W,2,09,0.89,-4.8,M,47.0,M,0000,0000*5E

$GPRMC,165117.000,A,5131.9258,N,00003.5865,W,0.36,100.76,111121,,,D*77

$GPGGA,165118.000,5131.9258,N,00003.5863,W,2,09,0.89,-4.8,M,47.0,M,0000,0000*56

$GPRMC,165123.000,A,5131.9258,N,00003.5856,W,1.08,247.60,111121,,,D*7B

$GPGGA,165124.000,5131.9263,N,00003.5832,W,2,09,0.89,-4.7,M,47.0,M,0000,0000*5A

$GPRMC,165129.000,A,5131.9241,N,00003.5849,W,1.46,232.09,111121,,,D*70

$GPGGA,165130.000,5131.9251,N,00003.5851,W,2,09,0.89,-4.2,M,47.0,M,0000,0000*5E

$GPRMC,165135.000,A,5131.9228,N,00003.5841,W,0.75,171.09,111121,,,D*7F

$GPGGA,165136.000,5131.9226,N,00003.5840,W,2,09,0.89,-3.6,M,47.0,M,0000,0000*5B

$GPGGA,165141.000,5131.9208,N,00003.5860,W,2,09,0.89,-3.3,M,47.0,M,0000,0000*50

$GPRMC,165141.000,A,5131.9208,N,00003.5860,W,1.26,224.68,111121,,,D*7E

$GPRMC,165146.000,A,5131.9186,N,00003.5854,W,1.51,135.67,111121,,,D*77

$GPGGA,165147.000,5131.9181,N,00003.5851,W,2,09,0.89,-2.8,M,47.0,M,0000,0000*5C

$GPRMC,165152.000,A,5131.9154,N,00003.5836,W,1.75,156.12,111121,,,D*78

$GPGGA,165153.000,5131.9153,N,00003.5833,W,2,09,0.89,-1.8,M,47.0,M,0000,0000*51

$GPRMC,165158.000,A,5131.9142,N,00003.5792,W,1.62,138.87,111121,,,D*76

$GPGGA,165159.000,5131.9137,N,00003.5786,W,2,09,0.89,-1.0,M,47.0,M,0000,0000*50

$GPRMC,165204.000,A,5131.9134,N,00003.5753,W,1.42,117.71,111121,,,D*76

$GPGGA,165205.000,5131.9134,N,00003.5746,W,2,09,0.89,-0.4,M,47.0,M,0000,0000*50

$GPGGA,165210.000,5131.9138,N,00003.5689,W,2,09,0.89,0.0,M,47.0,M,0000,0000*73

$GPRMC,165210.000,A,5131.9138,N,00003.5689,W,2.42,65.09,111121,,,D*41

$GPRMC,165215.000,A,5131.9132,N,00003.5626,W,2.08,95.89,111121,,,D*42

$GPGGA,165216.000,5131.9133,N,00003.5607,W,2,09,0.89,0.6,M,47.0,M,0000,0000*7E

$GPRMC,165221.000,A,5131.9167,N,00003.5513,W,0.88,113.10,111121,,,D*75

$GPGGA,165222.000,5131.9167,N,00003.5507,W,2,09,0.89,1.7,M,47.0,M,0000,0000*7B

$GPRMC,165227.000,A,5131.9151,N,00003.5463,W,2.31,144.06,111121,,,D*75

$GPGGA,165228.000,5131.9143,N,00003.5459,W,2,09,0.89,2.9,M,47.0,M,0000,0000*70

$GPRMC,165233.000,A,5131.9049,N,00003.5472,W,1.79,149.20,111121,,,D*7E

$GPGGA,165234.000,5131.9038,N,00003.5474,W,2,09,0.88,5.3,M,47.0,M,0000,0000*73

$GPRMC,165239.000,A,5131.8951,N,00003.5530,W,1.98,154.33,111121,,,D*73

$GPGGA,165240.000,5131.8942,N,00003.5529,W,2,09,0.89,9.3,M,47.0,M,0000,0000*71

$GPGGA,165245.000,5131.8889,N,00003.5532,W,2,09,0.89,12.3,M,47.0,M,0000,0000*42

$GPRMC,165245.000,A,5131.8889,N,00003.5532,W,1.72,155.74,111121,,,D*78

$GPRMC,165250.000,A,5131.8829,N,00003.5547,W,2.15,163.00,111121,,,D*70

$GPGGA,165251.000,5131.8818,N,00003.5546,W,2,09,0.89,15.2,M,47.0,M,0000,0000*4A

$GPRMC,165256.000,A,5131.8761,N,00003.5537,W,2.25,153.05,111121,,,D*77

$GPGGA,165257.000,5131.8751,N,00003.5537,W,2,09,0.89,16.6,M,47.0,M,0000,0000*4F

$GPRMC,165302.000,A,5131.8708,N,00003.5529,W,2.26,151.48,111121,,,D*7F

$GPGGA,165303.000,5131.8701,N,00003.5524,W,2,09,0.89,16.4,M,47.0,M,0000,0000*4A

$GPRMC,165308.000,A,5131.8672,N,00003.5510,W,1.85,144.78,111121,,,D*7E

$GPGGA,165309.000,5131.8667,N,00003.5505,W,2,09,0.88,17.0,M,47.0,M,0000,0000*46

$GPRMC,165314.000,A,5131.8641,N,00003.5490,W,1.89,168.20,111121,,,D*75

$GPGGA,165315.000,5131.8636,N,00003.5488,W,2,09,0.89,17.5,M,47.0,M,0000,0000*4F

$GPRMC,165320.000,A,5131.8601,N,00003.5483,W,2.19,169.61,111121,,,D*7A

$GPGGA,165321.000,5131.8595,N,00003.5480,W,2,09,0.89,18.5,M,47.0,M,0000,0000*45

$GPRMC,165326.000,A,5131.8570,N,00003.5478,W,0.87,238.41,111121,,,D*7D

$GPGGA,165327.000,5131.8569,N,00003.5483,W,2,08,1.02,19.8,M,47.0,M,0000,0000*4C

$GPGGA,165332.000,5131.8545,N,00003.5536,W,2,09,0.89,21.1,M,47.0,M,0000,0000*48

$GPRMC,165332.000,A,5131.8545,N,00003.5536,W,2.14,253.20,111121,,,D*77

$GPRMC,165337.000,A,5131.8527,N,00003.5580,W,2.09,241.49,111121,,,D*7B

$GPGGA,165338.000,5131.8523,N,00003.5589,W,2,09,0.88,22.5,M,47.0,M,0000,0000*40

$GPRMC,165343.000,A,5131.8510,N,00003.5634,W,2.19,250.59,111121,,,D*70

$GPGGA,165344.000,5131.8509,N,00003.5642,W,2,09,0.89,23.8,M,47.0,M,0000,0000*4A

$GPRMC,165349.000,A,5131.8500,N,00003.5689,W,2.11,252.53,111121,,,D*7D

$GPGGA,165350.000,5131.8499,N,00003.5698,W,2,09,0.89,24.7,M,47.0,M,0000,0000*48

$GPRMC,165355.000,A,5131.8482,N,00003.5735,W,1.19,222.98,111121,,,D*76

$GPGGA,165356.000,5131.8477,N,00003.5741,W,2,09,0.89,25.6,M,47.0,M,0000,0000*4B

$GPRMC,165401.000,A,5131.8458,N,00003.5782,W,2.12,232.14,111121,,,D*76

$GPGGA,165402.000,5131.8466,N,00003.5792,W,2,09,0.89,26.7,M,47.0,M,0000,0000*41

$GPRMC,165407.000,A,5131.8453,N,00003.5844,W,2.11,257.12,111121,,,D*78

$GPGGA,165408.000,5131.8457,N,00003.5856,W,2,09,0.89,27.8,M,47.0,M,0000,0000*40

$GPRMC,165413.000,A,5131.8483,N,00003.5862,W,1.65,5.50,111121,,,D*77

$GPGGA,165414.000,5131.8480,N,00003.5857,W,2,09,0.90,28.9,M,47.0,M,0000,0000*40

$GPRMC,165419.000,A,5131.8458,N,00003.5831,W,1.00,145.01,111121,,,D*7F

$GPGGA,165420.000,5131.8452,N,00003.5836,W,2,09,0.88,28.8,M,47.0,M,0000,0000*47

$GPRMC,165425.000,A,5131.8434,N,00003.5871,W,1.98,220.27,111121,,,D*7B

$GPGGA,165426.000,5131.8426,N,00003.5875,W,2,09,0.89,29.0,M,47.0,M,0000,0000*4D

$GPRMC,165431.000,A,5131.8394,N,00003.5881,W,2.10,180.64,111121,,,D*71

$GPGGA,165432.000,5131.8389,N,00003.5880,W,2,09,0.89,29.1,M,47.0,M,0000,0000*41

$GPRMC,165437.000,A,5131.8369,N,00003.5860,W,1.63,148.27,111121,,,D*7E

$GPGGA,165438.000,5131.8364,N,00003.5854,W,2,09,0.89,29.7,M,47.0,M,0000,0000*47

$GPRMC,165443.000,A,5131.8347,N,00003.5834,W,1.01,135.33,111121,,,D*7B

$GPGGA,165444.000,5131.8343,N,00003.5830,W,2,09,0.88,30.6,M,47.0,M,0000,0000*43

$GPRMC,165449.000,A,5131.8334,N,00003.5810,W,1.01,129.89,111121,,,D*7F

$GPGGA,165450.000,5131.8333,N,00003.5806,W,2,09,0.88,31.6,M,47.0,M,0000,0000*45

$GPRMC,165455.000,A,5131.8330,N,00003.5795,W,0.71,122.46,111121,,,D*7A

$GPGGA,165456.000,5131.8329,N,00003.5793,W,2,09,0.89,32.4,M,47.0,M,0000,0000*4B

$GPRMC,165501.000,A,5131.8324,N,00003.5779,W,0.71,122.03,111121,,,D*7C

$GPGGA,165502.000,5131.8323,N,00003.5777,W,2,09,0.89,33.3,M,47.0,M,0000,0000*4D

$GPRMC,165507.000,A,5131.8314,N,00003.5762,W,0.80,126.24,111121,,,D*7C

$GPGGA,165508.000,5131.8313,N,00003.5759,W,2,03,5.70,34.2,M,47.0,M,0000,0000*47

$GPRMC,165513.000,A,5131.8306,N,00003.5747,W,0.86,129.09,111121,,,D*7B

$GPGGA,165514.000,5131.8305,N,00003.5745,W,2,03,5.69,34.9,M,47.0,M,0000,0000*43

$GPRMC,165519.000,A,5131.8302,N,00003.5734,W,0.72,125.42,111121,,,D*79

$GPGGA,165520.000,5131.8301,N,00003.5734,W,2,03,5.68,35.5,M,47.0,M,0000,0000*4A

$GPRMC,165525.000,A,5131.8294,N,00003.5740,W,0.60,137.00,111121,,,D*7D

$GPGGA,165526.000,5131.8292,N,00003.5743,W,2,03,5.67,35.9,M,47.0,M,0000,0000*44

$GPGGA,165531.000,5131.8304,N,00003.5771,W,2,06,1.17,35.8,M,47.0,M,0000,0000*4A

$GPRMC,165531.000,A,5131.8304,N,00003.5771,W,0.59,41.99,111121,,,D*48

$GPRMC,165536.000,A,5131.8279,N,00003.5854,W,0.60,0.16,111121,,,D*74

$GPGGA,165537.000,5131.8278,N,00003.5854,W,2,08,0.96,36.1,M,47.0,M,0000,0000*42

$GPRMC,165542.000,A,5131.8284,N,00003.5858,W,0.41,284.12,111121,,,D*70

$GPGGA,165543.000,5131.8284,N,00003.5859,W,2,08,0.93,36.1,M,47.0,M,0000,0000*4A

$GPRMC,165548.000,A,5131.8285,N,00003.5863,W,0.12,288.85,111121,,,D*77

$GPGGA,165549.000,5131.8285,N,00003.5864,W,2,08,0.93,36.2,M,47.0,M,0000,0000*4C

$GPRMC,165554.000,A,5131.8283,N,00003.5869,W,0.39,233.92,111121,,,D*79

$GPGGA,165555.000,5131.8282,N,00003.5871,W,2,08,1.04,36.2,M,47.0,M,0000,0000*4D

$GPRMC,165600.000,A,5131.8279,N,00003.5877,W,0.43,242.59,111121,,,D*7D

$GPGGA,165601.000,5131.8278,N,00003.5879,W,2,06,1.33,36.2,M,47.0,M,0000,0000*48

$GPRMC,165606.000,A,5131.8267,N,00003.5949,W,0.76,265.42,111121,,,D*71

$GPGGA,165607.000,5131.8263,N,00003.5949,W,2,06,1.33,36.2,M,47.0,M,0000,0000*46

$GPRMC,165612.000,A,5131.8238,N,00003.5953,W,0.86,230.96,111121,,,D*73

$GPGGA,165613.000,5131.8234,N,00003.5955,W,2,06,1.33,36.2,M,47.0,M,0000,0000*4C

$GPRMC,165618.000,A,5131.8212,N,00003.5944,W,0.79,201.57,111121,,,D*78

$GPGGA,165619.000,5131.8209,N,00003.5944,W,2,06,1.33,36.2,M,47.0,M,0000,0000*48

$GPRMC,165624.000,A,5131.8211,N,00003.5934,W,0.61,187.77,111121,,,D*75

$GPGGA,165625.000,5131.8214,N,00003.5936,W,2,06,1.33,36.1,M,47.0,M,0000,0000*4D

$GPGGA,165630.000,5131.8212,N,00003.5931,W,2,07,1.17,36.1,M,47.0,M,0000,0000*4F

$GPRMC,165630.000,A,5131.8212,N,00003.5931,W,0.40,140.25,111121,,,D*79

$GPRMC,165635.000,A,5131.8209,N,00003.5925,W,0.28,112.35,111121,,,D*7B

$GPGGA,165636.000,5131.8209,N,00003.5924,W,2,07,1.17,36.1,M,47.0,M,0000,0000*47

$GPRMC,165641.000,A,5131.8207,N,00003.5920,W,0.36,163.21,111121,,,D*7F

$GPGGA,165642.000,5131.8206,N,00003.5919,W,2,07,1.17,36.1,M,47.0,M,0000,0000*45

$GPRMC,165647.000,A,5131.8200,N,00003.5920,W,0.45,215.52,111121,,,D*7C

$GPGGA,165648.000,5131.8199,N,00003.5921,W,2,07,1.17,36.1,M,47.0,M,0000,0000*41

$GPRMC,165653.000,A,5131.8192,N,00003.5936,W,0.75,221.08,111121,,,D*7D

$GPGGA,165654.000,5131.8192,N,00003.5938,W,2,07,1.17,36.1,M,47.0,M,0000,0000*4F

$GPRMC,165659.000,A,5131.8192,N,00003.5950,W,0.62,228.43,111121,,,D*77

$GPGGA,165700.000,5131.8192,N,00003.5950,W,2,07,1.17,36.1,M,47.0,M,0000,0000*41

$GPRMC,165705.000,A,5131.8190,N,00003.5954,W,0.36,205.67,111121,,,D*71

$GPGGA,165706.000,5131.8189,N,00003.5955,W,2,07,1.17,36.1,M,47.0,M,0000,0000*48

$GPRMC,165711.000,A,5131.8186,N,00003.5954,W,0.22,117.97,111121,,,D*79

$GPGGA,165712.000,5131.8186,N,00003.5953,W,2,07,1.17,36.1,M,47.0,M,0000,0000*44

$GPRMC,165717.000,A,5131.8186,N,00003.5944,W,0.45,78.28,111121,,,D*43

$GPGGA,165718.000,5131.8186,N,00003.5942,W,2,07,1.17,36.1,M,47.0,M,0000,0000*4E

$GPRMC,165723.000,A,5131.8217,N,00003.5934,W,0.79,35.55,111121,,,D*44

$GPGGA,165724.000,5131.8217,N,00003.5928,W,2,06,1.26,36.1,M,47.0,M,0000,0000*45

$GPRMC,165729.000,A,5131.8241,N,00003.5921,W,0.92,22.46,111121,,,D*48

$GPGGA,165730.000,5131.8250,N,00003.5920,W,2,06,1.26,36.1,M,47.0,M,0000,0000*4B

$GPRMC,165735.000,A,5131.8271,N,00003.5906,W,1.03,20.83,111121,,,D*41

$GPGGA,165736.000,5131.8275,N,00003.5904,W,2,06,1.26,36.1,M,47.0,M,0000,0000*4C

$GPRMC,165741.000,A,5131.8289,N,00003.5898,W,0.91,17.71,111121,,,D*40

$GPGGA,165742.000,5131.8291,N,00003.5897,W,2,06,1.26,36.1,M,47.0,M,0000,0000*4E

