$GPRMC,134253.000,A,5131.8360,N,00003.9797,W,0.18,155.25,161121,,,D*78

$GPGGA,134254.000,5131.8360,N,00003.9797,W,2,07,1.17,39.2,M,47.0,M,0000,0000*4B

$GPRMC,134259.000,A,5131.8358,N,00003.9796,W,0.15,169.44,161121,,,D*7D

$GPGGA,134300.000,5131.8357,N,00003.9796,W,2,07,1.17,39.1,M,47.0,M,0000,0000*4D

$GPRMC,134305.000,A,5131.8357,N,00003.9793,W,0.32,50.92,161121,,,D*4A

$GPGGA,134306.000,5131.8357,N,00003.9792,W,2,07,1.17,39.1,M,47.0,M,0000,0000*4F

$GPRMC,134311.000,A,5131.8359,N,00003.9790,W,0.11,23.64,161121,,,D*4E

$GPGGA,134312.000,5131.8359,N,00003.9790,W,2,07,1.17,39.1,M,47.0,M,0000,0000*46

$GPRMC,134317.000,A,5131.8360,N,00003.9791,W,0.05,7.82,161121,,,D*78

$GPGGA,134318.000,5131.8360,N,00003.9791,W,2,07,1.19,39.1,M,47.0,M,0000,0000*49

$GPRMC,134323.000,A,5131.8362,N,00003.9794,W,0.16,323.71,161121,,,D*73

$GPGGA,134324.000,5131.8364,N,00003.9793,W,2,08,1.05,38.8,M,47.0,M,0000,0000*4A

$GPRMC,134329.000,A,5131.8375,N,00003.9786,W,0.13,93.03,161121,,,D*44

$GPGGA,134330.000,5131.8376,N,00003.9786,W,2,08,1.05,37.5,M,47.0,M,0000,0000*4A

$GPRMC,134335.000,A,5131.8383,N,00003.9783,W,0.08,5.87,161121,,,D*7C

$GPGGA,134336.000,5131.8383,N,00003.9782,W,2,08,1.10,36.4,M,47.0,M,0000,0000*46

$GPRMC,134341.000,A,5131.8386,N,00003.9779,W,0.10,5.37,161121,,,D*7D

$GPGGA,134342.000,5131.8387,N,00003.9778,W,2,08,1.10,34.5,M,47.0,M,0000,0000*47

$GPRMC,134347.000,A,5131.8387,N,00003.9777,W,0.02,218.30,161121,,,D*7E

$GPGGA,134348.000,5131.8387,N,00003.9777,W,2,08,1.10,34.5,M,47.0,M,0000,0000*42

$GPRMC,134353.000,A,5131.8387,N,00003.9777,W,0.01,344.79,161121,,,D*7D

$GPGGA,134354.000,5131.8387,N,00003.9777,W,2,08,1.10,34.4,M,47.0,M,0000,0000*4E

$GPRMC,134359.000,A,5131.8387,N,00003.9777,W,0.00,296.56,161121,,,D*75

$GPGGA,134400.000,5131.8387,N,00003.9777,W,2,08,1.10,34.4,M,47.0,M,0000,0000*48

$GPRMC,134405.000,A,5131.8387,N,00003.9777,W,0.00,326.03,161121,,,D*71

$GPGGA,134406.000,5131.8387,N,00003.9777,W,2,08,1.10,34.4,M,47.0,M,0000,0000*4E

$GPRMC,134411.000,A,5131.8387,N,00003.9777,W,0.01,151.22,161121,,,D*74

$GPGGA,134412.000,5131.8387,N,00003.9777,W,2,08,1.10,34.3,M,47.0,M,0000,0000*4C

$GPRMC,134417.000,A,5131.8387,N,00003.9777,W,0.00,112.41,161121,,,D*71

$GPGGA,134418.000,5131.8387,N,00003.9777,W,2,08,1.10,34.3,M,47.0,M,0000,0000*46

$GPRMC,134423.000,A,5131.8385,N,00003.9774,W,0.01,119.60,161121,,,D*7E

$GPGGA,134424.000,5131.8384,N,00003.9773,W,2,08,1.10,33.2,M,47.0,M,0000,0000*48

$GPRMC,134429.000,A,5131.8382,N,00003.9772,W,0.00,62.48,161121,,,D*43

$GPGGA,134430.000,5131.8382,N,00003.9772,W,2,08,1.10,32.6,M,47.0,M,0000,0000*4F

$GPRMC,134435.000,A,5131.8382,N,00003.9772,W,0.01,271.82,161121,,,D*79

$GPGGA,134436.000,5131.8382,N,00003.9772,W,2,07,1.16,32.6,M,47.0,M,0000,0000*40

$GPRMC,134441.000,A,5131.8382,N,00003.9772,W,0.02,191.58,161121,,,D*73

$GPGGA,134442.000,5131.8382,N,00003.9772,W,2,07,1.15,32.6,M,47.0,M,0000,0000*40

$GPRMC,134447.000,A,5131.8382,N,00003.9772,W,0.01,253.48,161121,,,D*7A

$GPGGA,134448.000,5131.8382,N,00003.9772,W,2,08,1.10,32.5,M,47.0,M,0000,0000*43

$GPRMC,134453.000,A,5131.8381,N,00003.9772,W,0.02,214.61,161121,,,D*77

$GPGGA,134454.000,5131.8381,N,00003.9771,W,2,08,1.10,32.1,M,47.0,M,0000,0000*4A

$GPRMC,134459.000,A,5131.8378,N,00003.9770,W,0.02,167.30,161121,,,D*7A

$GPGGA,134500.000,5131.8378,N,00003.9770,W,2,08,1.10,31.0,M,47.0,M,0000,0000*4F

$GPRMC,134505.000,A,5131.8378,N,00003.9770,W,0.00,336.55,161121,,,D*75

$GPGGA,134506.000,5131.8378,N,00003.9770,W,2,07,1.15,30.9,M,47.0,M,0000,0000*4B

$GPRMC,134511.000,A,5131.8378,N,00003.9770,W,0.01,80.22,161121,,,D*4F

$GPGGA,134512.000,5131.8378,N,00003.9770,W,2,08,1.10,30.9,M,47.0,M,0000,0000*44

$GPRMC,134517.000,A,5131.8378,N,00003.9770,W,0.01,21.50,161121,,,D*47

$GPGGA,134518.000,5131.8378,N,00003.9770,W,2,08,1.10,30.9,M,47.0,M,0000,0000*4E

$GPRMC,134523.000,A,5131.8377,N,00003.9768,W,0.01,221.97,161121,,,D*7F

$GPGGA,134524.000,5131.8376,N,00003.9767,W,2,08,1.10,29.8,M,47.0,M,0000,0000*40

$GPRMC,134529.000,A,5131.8375,N,00003.9764,W,0.02,73.15,161121,,,D*47

$GPGGA,134530.000,5131.8375,N,00003.9763,W,2,08,1.12,27.9,M,47.0,M,0000,0000*4F

$GPRMC,134535.000,A,5131.8373,N,00003.9760,W,0.01,222.00,161121,,,D*79

$GPGGA,134536.000,5131.8372,N,00003.9760,W,2,09,1.06,25.9,M,47.0,M,0000,0000*4B

$GPRMC,134541.000,A,5131.8370,N,00003.9759,W,0.00,244.63,161121,,,D*77

$GPGGA,134542.000,5131.8369,N,00003.9758,W,2,09,1.06,23.8,M,47.0,M,0000,0000*4E

$GPRMC,134547.000,A,5131.8367,N,00003.9757,W,0.00,308.54,161121,,,D*74

$GPGGA,134548.000,5131.8367,N,00003.9757,W,2,09,1.06,22.2,M,47.0,M,0000,0000*4E

$GPRMC,134553.000,A,5131.8367,N,00003.9753,W,0.00,69.92,161121,,,D*4B

$GPGGA,134554.000,5131.8366,N,00003.9752,W,2,08,1.12,19.9,M,47.0,M,0000,0000*40

$GPRMC,134559.000,A,5131.8365,N,00003.9751,W,0.00,140.99,161121,,,D*70

$GPGGA,134600.000,5131.8365,N,00003.9750,W,2,09,1.06,17.7,M,47.0,M,0000,0000*47

$GPRMC,134605.000,A,5131.8364,N,00003.9747,W,0.00,115.18,161121,,,D*75

$GPGGA,134606.000,5131.8363,N,00003.9747,W,2,08,1.12,15.4,M,47.0,M,0000,0000*44

$GPRMC,134611.000,A,5131.8362,N,00003.9743,W,0.00,350.26,161121,,,D*7C

$GPGGA,134612.000,5131.8362,N,00003.9742,W,2,08,1.12,13.6,M,47.0,M,0000,0000*41

$GPRMC,134617.000,A,5131.8361,N,00003.9741,W,0.01,66.74,161121,,,D*4B

$GPGGA,134618.000,5131.8361,N,00003.9741,W,2,09,1.06,13.1,M,47.0,M,0000,0000*48

$GPRMC,134623.000,A,5131.8361,N,00003.9741,W,0.00,208.07,161121,,,D*73

$GPGGA,134624.000,5131.8361,N,00003.9741,W,2,09,1.06,13.0,M,47.0,M,0000,0000*46

$GPRMC,134629.000,A,5131.8361,N,00003.9741,W,0.00,0.00,161121,,,D*74

$GPGGA,134630.000,5131.8361,N,00003.9741,W,2,08,1.12,13.0,M,47.0,M,0000,0000*47

$GPRMC,134635.000,A,5131.8361,N,00003.9741,W,0.01,293.45,161121,,,D*71

$GPGGA,134636.000,5131.8361,N,00003.9741,W,2,09,1.06,13.0,M,47.0,M,0000,0000*45

$GPRMC,134641.000,A,5131.8360,N,00003.9743,W,0.02,148.81,161121,,,D*7F

$GPGGA,134642.000,5131.8360,N,00003.9743,W,2,09,1.06,12.0,M,47.0,M,0000,0000*44

$GPRMC,134647.000,A,5131.8359,N,00003.9744,W,0.01,279.43,161121,,,D*78

$GPGGA,134648.000,5131.8359,N,00003.9744,W,2,09,1.05,11.3,M,47.0,M,0000,0000*40

$GPRMC,134653.000,A,5131.8359,N,00003.9744,W,0.01,187.62,161121,,,D*7C

$GPGGA,134654.000,5131.8359,N,00003.9744,W,2,09,1.05,11.3,M,47.0,M,0000,0000*4D

$GPRMC,134659.000,A,5131.8359,N,00003.9744,W,0.01,175.71,161121,,,D*79

$GPGGA,134700.000,5131.8359,N,00003.9744,W,2,09,1.05,11.3,M,47.0,M,0000,0000*4D

$GPRMC,134705.000,A,5131.8359,N,00003.9744,W,0.01,71.32,161121,,,D*43

$GPGGA,134706.000,5131.8359,N,00003.9744,W,2,08,1.12,11.3,M,47.0,M,0000,0000*4C

$GPRMC,134711.000,A,5131.8359,N,00003.9744,W,0.00,93.25,161121,,,D*4D

$GPGGA,134712.000,5131.8359,N,00003.9744,W,2,09,1.05,11.2,M,47.0,M,0000,0000*4F

$GPRMC,134717.000,A,5131.8359,N,00003.9744,W,0.00,215.05,161121,,,D*75

$GPGGA,134718.000,5131.8359,N,00003.9744,W,2,09,1.05,11.2,M,47.0,M,0000,0000*45

$GPRMC,134723.000,A,5131.8359,N,00003.9744,W,0.01,151.22,161121,,,D*75

$GPGGA,134724.000,5131.8359,N,00003.9744,W,2,09,1.05,11.2,M,47.0,M,0000,0000*4A

